timeTick, roll, pitch, yaw, gyroX, gyroY, gyroZ, stateX, stateY, stateZ, stateVX, stateVY, stateVZ, stateROLL, statePITCH, stateYAW, whisker1, whisker2, whisker3, motor1, motor2, motor3, motor4, laserHeight, flowX, flowY, ext_pos_X,ext_pos_Y,ext_pos_Z, kalX, kalY, kalZ, kalPX, kalPY, kalPZ
177840, 1.1855528354644775, -2.127476215362549, -12.583564758300781, 0, 0, 0, 0, 0, 0, 0, 0, 0, 0, 0, 0, 0, 0, 0, 0, 0, 0, 0, 0, 0, 0, 0, 0, 0, 0, 0, 0, 0, 0, 0
177851, 1.6222344636917114, -2.3326427936553955, -12.384149551391602, -0.15600959956645966, 0.2939702570438385, -0.0470927394926548, 0, 0, 0, 0, 0, 0, 0, 0, 0, 0, 0, 0, 0.0, 0.0, 0.0, 0.0, 12.0, 1.0, 9.0, 0, 0, 0, 0, 0, 0, 0, 0, 0
177860, 2.054826498031616, -2.5254313945770264, -12.246444702148438, 0.029594602063298225, 0.05801820009946823, -0.052624352276325226, 0, 0, 0, 0, 0, 0, 0, 0, 0, 0, 0, 0, 0.0, 0.0, 0.0, 0.0, 12.0, -1.0, -9.0, 0.0, 0.0, 0.0, -0.034043777734041214, -0.40723565220832825, 0.01400420069694519, 0.016326136887073517, -0.03531675785779953, -0.005255790892988443
177870, 2.045133590698242, -2.6049468517303467, -12.28197956085205, 0.002634501550346613, -0.09954892843961716, -0.09734945744276047, 0, 0, 0, 0, 0, 0, 0, 0, 0, 0, 0, 0, 0.0, 0.0, 0.0, 0.0, 12.0, 1.0, 8.0, 0.0, 0.0, 0.0, -0.03472813218832016, -0.40755656361579895, 0.014077378436923027, 0.030992433428764343, -0.04043995216488838, -0.004038569517433643
177880, 2.090087890625, -2.6925153732299805, -12.25586223602295, -0.014836804009974003, 0.017283594235777855, 0.07137694954872131, 0, 0, 0, 0, 0, 0, 0, 0, 0, 0, 0, 0, 0.0, 0.0, 0.0, 0.0, 13.0, -14.0, -25.0, 0.0, 0.0, 0.0, -0.03510361537337303, -0.40845564007759094, 0.014188345521688461, 0.025593040511012077, -0.05015072599053383, -0.002515062689781189
177890, 2.296194553375244, -2.7322261333465576, -12.195570945739746, -0.16472366452217102, 0.08263415843248367, -0.03709663823246956, 0, 0, 0, 0, 0, 0, 0, 0, 0, 0, 0, 0, 0.0, 0.0, 0.0, 0.0, 13.0, 3.0, 11.0, 0.0, 0.0, 0.0, -0.034448154270648956, -0.4085454046726227, 0.013850943185389042, 0.05140245333313942, -0.040812715888023376, -0.003738077823072672
177900, 2.2280454635620117, -2.782572031021118, -12.205641746520996, -0.10214226692914963, -0.07671214640140533, 0.0897626206278801, 0, 0, 0, 0, 0, 0, 0, 0, 0, 0, 0, 0, 0.0, 0.0, 0.0, 0.0, 13.0, 18.0, 1.0, 0.0, 0.0, 0.0, -0.03500201553106308, -0.4084516763687134, 0.014077105559408665, 0.03918749466538429, -0.043553754687309265, -0.002574973739683628
177910, 2.196528196334839, -2.8808066844940186, -12.19973087310791, 0.027338040992617607, -0.06946617364883423, 0.06388372927904129, 0, 0, 0, 0, 0, 0, 0, 0, 0, 0, 0, 0, 0.0, 0.0, 0.0, 0.0, 13.0, -1.0, -3.0, 0.0, 0.0, 0.0, -0.03518140688538551, -0.40915176272392273, 0.013958222232758999, 0.04055938497185707, -0.06055363267660141, -0.002626755042001605
177920, 2.2845513820648193, -2.845360279083252, -12.169118881225586, 0.10248317569494247, -0.3465045392513275, -0.00810525007545948, 0, 0, 0, 0, 0, 0, 0, 0, 0, 0, 0, 0, 0.0, 0.0, 0.0, 0.0, 13.0, 0.0, 0.0, 0.0, 0.0, 0.0, -0.035001251846551895, -0.40937289595603943, 0.014069725759327412, 0.0440618172287941, -0.05981796234846115, -0.0013938198098912835
177930, 2.3176848888397217, -2.876812219619751, -12.177501678466797, -0.17640192806720734, 0.21684090793132782, 0.023646973073482513, 0, 0, 0, 0, 0, 0, 0, 0, 0, 0, 0, 0, 0.0, 0.0, 0.0, 0.0, 17.0, -9.0, -6.0, 0.0, 0.0, 0.0, -0.03486292436718941, -0.40993887186050415, 0.014994937926530838, 0.045328255742788315, -0.06358049809932709, 0.004666064400225878
177940, 2.3409934043884277, -2.894958019256592, -12.172176361083984, 0.18362446129322052, 0.22048033773899078, -0.20104101300239563, 0, 0, 0, 0, 0, 0, 0, 0, 0, 0, 0, 0, 0.0, 0.0, 0.0, 0.0, 17.0, 8.0, 9.0, 0.0, 0.0, 0.0, -0.03453115001320839, -0.40995219349861145, 0.015197533182799816, 0.05118132382631302, -0.056290581822395325, 0.0060000126250088215
177950, 2.3761637210845947, -2.943422794342041, -12.166051864624023, 0.009992869570851326, -0.15305009484291077, 0.10749458521604538, 0, 0, 0, 0, 0, 0, 0, 0, 0, 0, 0, 0, 0.0, 0.0, 0.0, 0.0, 17.0, 0.0, -7.0, 0.0, 0.0, 0.0, -0.0349271334707737, -0.41045328974723816, 0.015340861864387989, 0.042576294392347336, -0.06542108207941055, 0.006955309305340052
177960, 2.398857831954956, -2.9418678283691406, -12.15555191040039, 0.006710316985845566, -0.1396976262331009, 0.03520796820521355, 0, 0, 0, 0, 0, 0, 0, 0, 0, 0, 0, 0, 0.0, 0.0, 0.0, 0.0, 17.0, 3.0, 7.0, 0.0, 0.0, 0.0, -0.03459066525101662, -0.4108099341392517, 0.015386476181447506, 0.049807701259851456, -0.06672417372465134, 0.007526138797402382
177970, 2.418095350265503, -2.950226306915283, -12.128660202026367, -0.044182855635881424, -0.0788181945681572, -0.03799634426832199, 0, 0, 0, 0, 0, 0, 0, 0, 0, 0, 0, 0, 0.0, 0.0, 0.0, 0.0, 14.0, -15.0, -18.0, 0.0, 0.0, 0.0, -0.034864187240600586, -0.4110720753669739, 0.015566252171993256, 0.04285751283168793, -0.06901441514492035, 0.008560285903513432
177980, 2.412090301513672, -2.9791746139526367, -12.117959976196289, -0.033798862248659134, -0.16548024117946625, -0.12435003370046616, 0, 0, 0, 0, 0, 0, 0, 0, 0, 0, 0, 0, 0.0, 0.0, 0.0, 0.0, 14.0, 3.0, 5.0, 0.0, 0.0, 0.0, -0.033289115875959396, -0.41145893931388855, 0.015268883667886257, 0.06152200698852539, -0.05907938629388809, 0.007021615281701088
177990, 2.3816869258880615, -2.974247694015503, -12.129226684570312, 0.019440675154328346, 0.047761887311935425, 0.07913796603679657, 0, 0, 0, 0, 0, 0, 0, 0, 0, 0, 0, 0, 0.0, 0.0, 0.0, 0.0, 14.0, 6.0, 9.0, 0.0, 0.0, 0.0, -0.03379996493458748, -0.41115739941596985, 0.01538988295942545, 0.054654356092214584, -0.05788005143404007, 0.007562382612377405
178000, 2.4356746673583984, -2.9787323474884033, -12.108439445495605, -0.05230575427412987, -0.08918307721614838, -0.02461191825568676, 0, 0, 0, 0, 0, 0, 0, 0, 0, 0, 0, 0, 0.0, 0.0, 0.0, 0.0, 14.0, 0.0, 4.0, 0.0, 0.0, 0.0, -0.0343475416302681, -0.41160139441490173, 0.015538465231657028, 0.04575641453266144, -0.06454215198755264, 0.008349115028977394
178010, 2.455958843231201, -2.9959774017333984, -12.096196174621582, -0.0543503500521183, 0.3256346583366394, 0.05657181143760681, 0, 0, 0, 0, 0, 0, 0, 0, 0, 0, 0, 0, 0.0, 0.0, 0.0, 0.0, 14.0, 0.0, -3.0, 0.0, 0.0, 0.0, -0.034528061747550964, -0.4117526710033417, 0.015711501240730286, 0.042175695300102234, -0.06498970091342926, 0.009240196086466312
178020, 2.349670648574829, -3.051692008972168, -12.1089506149292, 0.11694356054067612, -0.22666706144809723, 0.2731560170650482, 0, 0, 0, 0, 0, 0, 0, 0, 0, 0, 0, 0, 0.0, 0.0, 0.0, 0.0, 17.0, -7.0, -21.0, 0.0, 0.0, 0.0, -0.03397847339510918, -0.4127362072467804, 0.016253747045993805, 0.04733177274465561, -0.06829633563756943, 0.012084294110536575
178030, 2.477853298187256, -3.023998498916626, -12.091192245483398, -0.06267756968736649, -0.044157229363918304, -0.1040365993976593, 0, 0, 0, 0, 0, 0, 0, 0, 0, 0, 0, 0, 0.0, 0.0, 0.0, 0.0, 17.0, -3.0, 15.0, 0.0, 0.0, 0.0, -0.032895565032958984, -0.41205254197120667, 0.0161911491304636, 0.06320587545633316, -0.059948280453681946, 0.01194717362523079
178040, 2.5096077919006348, -2.997194528579712, -12.079893112182617, -0.1445225477218628, 0.04974085092544556, 0.012721956707537174, 0, 0, 0, 0, 0, 0, 0, 0, 0, 0, 0, 0, 0.0, 0.0, 0.0, 0.0, 17.0, 0.0, 0.0, 0.0, 0.0, 0.0, -0.033620189875364304, -0.4120161533355713, 0.01658060774207115, 0.04923946037888527, -0.05856289714574814, 0.01363486796617508
178050, 2.5712602138519287, -3.0341055393218994, -12.0906982421875, 0.14413003623485565, 0.24034346640110016, 0.26569098234176636, 0, 0, 0, 0, 0, 0, 0, 0, 0, 0, 0, 0, 0.0, 0.0, 0.0, 0.0, 17.0, -1.0, 0.0, 0.0, 0.0, 0.0, -0.033454883843660355, -0.41238847374916077, 0.016644783318042755, 0.05120276287198067, -0.06168648973107338, 0.013538633473217487
178060, 2.5313918590545654, -3.0380756855010986, -12.076614379882812, -0.0225963294506073, -0.023595226928591728, 0.06647482514381409, 0, 0, 0, 0, 0, 0, 0, 0, 0, 0, 0, 0, 0.0, 0.0, 0.0, 0.0, 16.0, -7.0, -5.0, 0.0, 0.0, 0.0, -0.033412933349609375, -0.41245219111442566, 0.01676231622695923, 0.05032968893647194, -0.061218418180942535, 0.013777323998510838
178070, 2.4497945308685303, -3.0953028202056885, -12.072122573852539, 0.1153666079044342, -0.0684276670217514, 0.014901787042617798, 0, 0, 0, 0, 0, 0, 0, 0, 0, 0, 0, 0, 0.0, 0.0, 0.0, 0.0, 16.0, 7.0, 5.0, 0.0, 0.0, 0.0, -0.03290228173136711, -0.4121299684047699, 0.016649439930915833, 0.05409546196460724, -0.054942723363637924, 0.01250719279050827
178080, 2.4360551834106445, -3.1025190353393555, -12.059194564819336, -0.019467290490865707, -0.06088554486632347, 0.0668947771191597, 0, 0, 0, 0, 0, 0, 0, 0, 0, 0, 0, 0, 0.0, 0.0, 0.0, 0.0, 16.0, 0.0, 4.0, 0.0, 0.0, 0.0, -0.032934244722127914, -0.413379430770874, 0.01681729219853878, 0.051688339561223984, -0.0646095871925354, 0.013096836395561695
178090, 2.491600275039673, -3.068746328353882, -12.056526184082031, -0.0539412647485733, 0.11216805130243301, -0.10724110901355743, 0, 0, 0, 0, 0, 0, 0, 0, 0, 0, 0, 0, 0.0, 0.0, 0.0, 0.0, 16.0, 0.0, -4.0, 0.0, 0.0, 0.0, -0.033493027091026306, -0.4128991365432739, 0.016899675130844116, 0.045585062354803085, -0.062205616384744644, 0.013450895436108112
178101, 2.421605348587036, -3.083890676498413, -12.074568748474121, 0.11483167856931686, -0.5218299031257629, 0.023792210966348648, 0, 0, 0, 0, 0, 0, 0, 0, 0, 0, 0, 0, 0.0, 0.0, 0.0, 0.0, 16.0, 0.0, 0.0, 0.0, 0.0, 0.0, -0.033195193856954575, -0.41309618949890137, 0.016938835382461548, 0.04841211065649986, -0.06264013797044754, 0.0133279487490654
178110, 2.5016918182373047, -3.0599565505981445, -12.058666229248047, -0.07071670144796371, -0.32058045268058777, 0.05039461702108383, 0, 0, 0, 0, 0, 0, 0, 0, 0, 0, 0, 0, 0.0, 0.0, 0.0, 0.0, 15.0, 5.0, -4.0, 0.0, 0.0, 0.0, -0.03305831179022789, -0.41342300176620483, 0.016365982592105865, 0.05014493316411972, -0.06487485021352768, 0.00953827053308487
178120, 2.514312505722046, -3.058961868286133, -12.06384563446045, -0.1018420159816742, -0.03749854490160942, -0.05736195296049118, 0, 0, 0, 0, 0, 0, 0, 0, 0, 0, 0, 0, 0.0, 0.0, 0.0, 0.0, 15.0, -5.0, 4.0, 0.0, 0.0, 0.0, -0.03247755393385887, -0.41480252146720886, 0.016357596963644028, 0.05474548041820526, -0.07305217534303665, 0.009248627349734306
178130, 2.4957118034362793, -3.074409246444702, -12.053912162780762, 0.03290381655097008, -0.05339444801211357, -0.06179028004407883, 0, 0, 0, 0, 0, 0, 0, 0, 0, 0, 0, 0, 0.0, 0.0, 0.0, 0.0, 15.0, 2.0, 0.0, 0.0, 0.0, 0.0, -0.03298105672001839, -0.4137957990169525, 0.016568072140216827, 0.048719439655542374, -0.06561234593391418, 0.010354088619351387
178140, 2.5326523780822754, -3.0579609870910645, -12.062170028686523, 0.16947472095489502, -0.3536282479763031, -0.27478694915771484, 0, 0, 0, 0, 0, 0, 0, 0, 0, 0, 0, 0, 0.0, 0.0, 0.0, 0.0, 15.0, 0.0, 0.0, 0.0, 0.0, 0.0, -0.03298959508538246, -0.4141184985637665, 0.016623610630631447, 0.048407189548015594, -0.06777410209178925, 0.01052119117230177
178151, 2.5863523483276367, -3.0624804496765137, -12.049667358398438, -0.1729665994644165, 0.16591349244117737, -0.02075396478176117, 0, 0, 0, 0, 0, 0, 0, 0, 0, 0, 0, 0, 0.0, 0.0, 0.0, 0.0, 14.0, -6.0, -4.0, 0.0, 0.0, 0.0, -0.032855045050382614, -0.41465437412261963, 0.016628647223114967, 0.04995539039373398, -0.0721583142876625, 0.010368196293711662
178160, 2.5375771522521973, -3.0749006271362305, -12.054595947265625, 0.09094245731830597, 0.11194582283496857, 0.12963533401489258, 0, 0, 0, 0, 0, 0, 0, 0, 0, 0, 0, 0, 0.0, 0.0, 0.0, 0.0, 14.0, 2.0, 4.0, 0.0, 0.0, 0.0, -0.03234253451228142, -0.41435569524765015, 0.015930050984025, 0.053105928003787994, -0.06709694117307663, 0.005810207221657038
178170, 2.604069709777832, -3.056490659713745, -12.063384056091309, 0.04365494102239609, -0.27207428216934204, 0.2263811230659485, 0, 0, 0, 0, 0, 0, 0, 0, 0, 0, 0, 0, 0.0, 0.0, 0.0, 0.0, 14.0, 3.0, 4.0, 0.0, 0.0, 0.0, -0.032760560512542725, -0.4144980311393738, 0.016012044623494148, 0.04894954338669777, -0.06830749660730362, 0.006270312238484621
178180, 2.6534059047698975, -3.0555613040924072, -12.064013481140137, 0.033476848155260086, -0.3712199330329895, 0.07205459475517273, 0, 0, 0, 0, 0, 0, 0, 0, 0, 0, 0, 0, 0.0, 0.0, 0.0, 0.0, 14.0, -1.0, -3.0, 0.0, 0.0, 0.0, -0.03309608995914459, -0.41507789492607117, 0.01610529236495495, 0.04518984630703926, -0.07268272340297699, 0.006829963065683842
178190, 2.587507486343384, -3.0799567699432373, -12.072002410888672, -0.060229044407606125, 0.2863287031650543, -0.07399152219295502, 0, 0, 0, 0, 0, 0, 0, 0, 0, 0, 0, 0, 0.0, 0.0, 0.0, 0.0, 14.0, 1.0, -2.0, 0.0, 0.0, 0.0, -0.032798681408166885, -0.4152013659477234, 0.016168348491191864, 0.04759862273931503, -0.07251705974340439, 0.00729884160682559
178201, 2.544782876968384, -3.0918588638305664, -12.068881034851074, -0.05607079714536667, 0.1423342227935791, 0.02295585349202156, 0, 0, 0, 0, 0, 0, 0, 0, 0, 0, 0, 0, 0.0, 0.0, 0.0, 0.0, 15.0, -14.0, -20.0, 0.0, 0.0, 0.0, -0.032627832144498825, -0.4154050648212433, 0.01580836996436119, 0.04956850782036781, -0.0725613385438919, 0.00511767016723752
178210, 2.532116174697876, -3.0552573204040527, -12.053988456726074, 0.01844077929854393, -0.10277111083269119, -0.034494660794734955, 0, 0, 0, 0, 0, 0, 0, 0, 0, 0, 0, 0, 0.0, 0.0, 0.0, 0.0, 15.0, 9.0, 25.0, 0.0, 0.0, 0.0, -0.03044833056628704, -0.4145984649658203, 0.015872210264205933, 0.06610158830881119, -0.06049853563308716, 0.0059791612438857555
178220, 2.5537126064300537, -3.061894178390503, -12.055953979492188, 0.15300391614437103, -0.12509916722774506, 0.1962287575006485, 0, 0, 0, 0, 0, 0, 0, 0, 0, 0, 0, 0, 0.0, 0.0, 0.0, 0.0, 15.0, 0.0, 5.0, 0.0, 0.0, 0.0, -0.03296840190887451, -0.41504836082458496, 0.01626559905707836, 0.04387211799621582, -0.06878554075956345, 0.008072970435023308
178230, 2.606949806213379, -3.087773561477661, -12.086372375488281, 0.05017469823360443, 0.12251164019107819, -0.06355293095111847, 0, 0, 0, 0, 0, 0, 0, 0, 0, 0, 0, 0, 0.0, 0.0, 0.0, 0.0, 15.0, 1.0, -8.0, 0.0, 0.0, 0.0, -0.033651549369096756, -0.4144255816936493, 0.01638658531010151, 0.0374208427965641, -0.065618596971035, 0.008674141019582748
178240, 2.5685434341430664, -3.0865731239318848, -12.060011863708496, -0.03871849924325943, 0.14864733815193176, 0.042543064802885056, 0, 0, 0, 0, 0, 0, 0, 0, 0, 0, 0, 0, 0.0, 0.0, 0.0, 0.0, 14.0, 1.0, 0.0, 0.0, 0.0, 0.0, -0.033022746443748474, -0.41470521688461304, 0.016338614746928215, 0.0442793034017086, -0.06703376024961472, 0.00845690630376339
178251, 2.560826301574707, -3.0754010677337646, -12.0635347366333, -0.035079531371593475, -0.032497987151145935, 0.07818332314491272, 0, 0, 0, 0, 0, 0, 0, 0, 0, 0, 0, 0, 0.0, 0.0, 0.0, 0.0, 14.0, -1.0, 3.0, 0.0, 0.0, 0.0, -0.0331072062253952, -0.4147372245788574, 0.015626221895217896, 0.04389237239956856, -0.06691227108240128, 0.003651855979114771
178260, 2.400561809539795, -3.168621063232422, -12.096160888671875, 0.08176106959581375, 0.08288104087114334, -0.10954035818576813, 0, 0, 0, 0, 0, 0, 0, 0, 0, 0, 0, 0, 0.0, 0.0, 0.0, 0.0, 14.0, 0.0, 0.0, 0.0, 0.0, 0.0, -0.033346306532621384, -0.4145791530609131, 0.015735886991024017, 0.041714731603860855, -0.06520524621009827, 0.004374370910227299
178270, 2.5016801357269287, -3.1127700805664062, -12.072759628295898, -0.06475700438022614, 0.10948614776134491, 0.05976010486483574, 0, 0, 0, 0, 0, 0, 0, 0, 0, 0, 0, 0, 0.0, 0.0, 0.0, 0.0, 14.0, 0.0, -3.0, 0.0, 0.0, 0.0, -0.032954681664705276, -0.4157481789588928, 0.01569322682917118, 0.04569016396999359, -0.07098495215177536, 0.004476709291338921
178280, 2.463322877883911, -3.1251156330108643, -12.080416679382324, 0.25616705417633057, -0.04735767841339111, -0.0752791315317154, 0, 0, 0, 0, 0, 0, 0, 0, 0, 0, 0, 0, 0.0, 0.0, 0.0, 0.0, 14.0, 1.0, 0.0, 0.0, 0.0, 0.0, -0.03269742429256439, -0.41582465171813965, 0.015729764476418495, 0.047761913388967514, -0.07165588438510895, 0.00487056840211153
178291, 2.5087993144989014, -3.1004629135131836, -12.06200885772705, -0.012417440302670002, 0.13562022149562836, -0.03931175172328949, 0, 0, 0, 0, 0, 0, 0, 0, 0, 0, 0, 0, 0.0, 0.0, 0.0, 0.0, 15.0, -1.0, 7.0, 0.0, 0.0, 0.0, -0.03296424821019173, -0.41529175639152527, 0.0155695341527462, 0.04559449106454849, -0.06826312094926834, 0.0036690314300358295
178301, 2.4511215686798096, -3.158815860748291, -12.071731567382812, 0.03982149809598923, 0.4478250741958618, -0.04213675856590271, 0, 0, 0, 0, 0, 0, 0, 0, 0, 0, 0, 0, 0.0, 0.0, 0.0, 0.0, 15.0, -1.0, -7.0, 0.0, 0.0, 0.0, -0.03360722213983536, -0.41514673829078674, 0.01573297753930092, 0.039853285998106, -0.06789708137512207, 0.004763580393046141
178310, 2.503056526184082, -3.145646095275879, -12.100201606750488, 0.1756061613559723, 0.26307669281959534, 0.17042294144630432, 0, 0, 0, 0, 0, 0, 0, 0, 0, 0, 0, 0, 0.0, 0.0, 0.0, 0.0, 15.0, 0.0, 3.0, 0.0, 0.0, 0.0, -0.032982684671878815, -0.4151514768600464, 0.015711408108472824, 0.04559250921010971, -0.06623310595750809, 0.004691293928772211
178320, 2.5540640354156494, -3.1087048053741455, -12.075305938720703, -0.0006157035822980106, 0.21945473551750183, -0.004299128893762827, 0, 0, 0, 0, 0, 0, 0, 0, 0, 0, 0, 0, 0.0, 0.0, 0.0, 0.0, 15.0, 0.0, -3.0, 0.0, 0.0, 0.0, -0.03332884609699249, -0.4150884449481964, 0.01581789366900921, 0.042081668972969055, -0.0666547641158104, 0.0051980759017169476
178330, 2.5290932655334473, -3.116209030151367, -12.08338737487793, -0.08246475458145142, -0.01255484763532877, -0.0224306583404541, 0, 0, 0, 0, 0, 0, 0, 0, 0, 0, 0, 0, 0.0, 0.0, 0.0, 0.0, 17.0, 2.0, 3.0, 0.0, 0.0, 0.0, -0.03298155218362808, -0.41531994938850403, 0.015860136598348618, 0.04468221962451935, -0.06685317307710648, 0.005627516191452742
178340, 2.5247321128845215, -3.1202123165130615, -12.066328048706055, 0.08649837970733643, -0.00023343091015703976, -0.18636339902877808, 0, 0, 0, 0, 0, 0, 0, 0, 0, 0, 0, 0, 0.0, 0.0, 0.0, 0.0, 17.0, -1.0, 0.0, 0.0, 0.0, 0.0, -0.0333387665450573, -0.41544249653816223, 0.016294732689857483, 0.04178987815976143, -0.06805215030908585, 0.00852051842957735
178351, 2.532409906387329, -3.100184202194214, -12.074042320251465, 0.0793803408741951, 0.23943056166172028, -0.012503867968916893, 0, 0, 0, 0, 0, 0, 0, 0, 0, 0, 0, 0, 0.0, 0.0, 0.0, 0.0, 17.0, 0.0, 4.0, 0.0, 0.0, 0.0, -0.03333578631281853, -0.4153265357017517, 0.016382094472646713, 0.04168260470032692, -0.06713211536407471, 0.008870520628988743
178360, 2.608999252319336, -3.1123788356781006, -12.05527400970459, -0.01201570127159357, 0.12936371564865112, -0.11175713688135147, 0, 0, 0, 0, 0, 0, 0, 0, 0, 0, 0, 0, 0.0, 0.0, 0.0, 0.0, 17.0, 0.0, -4.0, 0.0, 0.0, 0.0, -0.03376113995909691, -0.41520369052886963, 0.016495170071721077, 0.03788697347044945, -0.0665539801120758, 0.009224946610629559
178370, 2.440547466278076, -3.1491363048553467, -12.064349174499512, 0.05957312881946564, -0.15833821892738342, 0.08917444944381714, 0, 0, 0, 0, 0, 0, 0, 0, 0, 0, 0, 0, 0.0, 0.0, 0.0, 0.0, 17.0, 0.0, -3.0, 0.0, 0.0, 0.0, -0.033429380506277084, -0.4152592718601227, 0.01653076522052288, 0.04111562669277191, -0.06671900302171707, 0.009347804822027683
178380, 2.449058771133423, -3.15265154838562, -12.067877769470215, 0.002193479100242257, 0.17165713012218475, -0.029126636683940887, 0, 0, 0, 0, 0, 0, 0, 0, 0, 0, 0, 0, 0.0, 0.0, 0.0, 0.0, 16.0, -1.0, 2.0, 0.0, 0.0, 0.0, -0.03317523002624512, -0.41524404287338257, 0.016386067494750023, 0.04361623525619507, -0.065584197640419, 0.00811931025236845
178390, 2.492933988571167, -3.125969171524048, -12.06570053100586, 0.03743750974535942, 0.020401325076818466, 0.07954098284244537, 0, 0, 0, 0, 0, 0, 0, 0, 0, 0, 0, 0, 0.0, 0.0, 0.0, 0.0, 16.0, 0.0, 1.0, 0.0, 0.0, 0.0, -0.03325440734624863, -0.4152754247188568, 0.016516370698809624, 0.04218534380197525, -0.06446916610002518, 0.008614664897322655
178401, 2.537017583847046, -3.115837812423706, -12.060248374938965, 0.10391509532928467, -0.23272240161895752, 0.0066693625412881374, 0, 0, 0, 0, 0, 0, 0, 0, 0, 0, 0, 0, 0.0, 0.0, 0.0, 0.0, 16.0, 0.0, -3.0, 0.0, 0.0, 0.0, -0.03339904546737671, -0.41524672508239746, 0.01657920330762863, 0.040776148438453674, -0.06462351232767105, 0.008786963298916817
178410, 2.5208399295806885, -3.1076810359954834, -12.065539360046387, -0.18335238099098206, 0.348198801279068, 0.09981425851583481, 0, 0, 0, 0, 0, 0, 0, 0, 0, 0, 0, 0, 0.0, 0.0, 0.0, 0.0, 16.0, 0.0, 0.0, 0.0, 0.0, 0.0, -0.03318089246749878, -0.41526395082473755, 0.016597392037510872, 0.04262448474764824, -0.06442701816558838, 0.008715974166989326
178420, 2.521970748901367, -3.0743229389190674, -12.055075645446777, -0.13415369391441345, 0.11029630154371262, -0.01916182041168213, 0, 0, 0, 0, 0, 0, 0, 0, 0, 0, 0, 0, 0.0, 0.0, 0.0, 0.0, 13.0, 12.0, -17.0, 0.0, 0.0, 0.0, -0.03308117389678955, -0.41553324460983276, 0.01657637022435665, 0.043760862201452255, -0.06661073863506317, 0.008316004648804665
178430, 2.4110541343688965, -3.182830810546875, -12.093823432922363, 0.0659761056303978, -0.1649438887834549, -0.18018467724323273, 0, 0, 0, 0, 0, 0, 0, 0, 0, 0, 0, 0, 0.0, 0.0, 0.0, 0.0, 13.0, -7.0, -16.0, 0.0, 0.0, 0.0, -0.031707365065813065, -0.4171409606933594, 0.015085740946233273, 0.05812577158212662, -0.07718249410390854, -0.001361078000627458
178440, 2.458430528640747, -3.14982008934021, -12.073098182678223, -0.03890049457550049, 0.07967639714479446, -0.061070989817380905, 0, 0, 0, 0, 0, 0, 0, 0, 0, 0, 0, 0, 0.0, 0.0, 0.0, 0.0, 13.0, -3.0, -4.0, 0.0, 0.0, 0.0, -0.030056403949856758, -0.4167121648788452, 0.015020085498690605, 0.07164008915424347, -0.06881814450025558, -0.00112062762491405
178451, 2.446479558944702, -3.1236095428466797, -12.065067291259766, -0.027635153383016586, -0.017457423731684685, -0.01898038014769554, 0, 0, 0, 0, 0, 0, 0, 0, 0, 0, 0, 0, 0.0, 0.0, 0.0, 0.0, 13.0, 0.0, -1.0, 0.0, 0.0, 0.0, -0.029726818203926086, -0.4164639115333557, 0.015067769214510918, 0.07228334993124008, -0.06707283109426498, -0.0002461111871525645
178461, 2.456937074661255, -3.1111299991607666, -12.074758529663086, -0.022303352132439613, -0.1068708673119545, -0.06128672882914543, 0, 0, 0, 0, 0, 0, 0, 0, 0, 0, 0, 0, 0.0, 0.0, 0.0, 0.0, 13.0, 0.0, 0.0, 0.0, 0.0, 0.0, -0.02966916747391224, -0.41632789373397827, 0.015145231038331985, 0.07134360074996948, -0.06466212868690491, 0.00042378154466859996
178470, 2.489288330078125, -3.093660354614258, -12.067849159240723, -0.06221826747059822, -0.2426188886165619, -0.07358674705028534, 0, 0, 0, 0, 0, 0, 0, 0, 0, 0, 0, 0, 0.0, 0.0, 0.0, 0.0, 15.0, 0.0, 0.0, 0.0, 0.0, 0.0, -0.029549725353717804, -0.4166681468486786, 0.015048536472022533, 0.07163304090499878, -0.06833024322986603, 0.000492724240757525
178480, 2.444455146789551, -3.113239049911499, -12.07372760772705, 0.11914036422967911, -0.08795658499002457, -0.031181911006569862, 0, 0, 0, 0, 0, 0, 0, 0, 0, 0, 0, 0, 0.0, 0.0, 0.0, 0.0, 15.0, 0.0, 0.0, 0.0, 0.0, 0.0, -0.02919367514550686, -0.4172196686267853, 0.014983749017119408, 0.07321373373270035, -0.0709117203950882, 0.0006851786747574806
178491, 2.4567623138427734, -3.0926318168640137, -12.074806213378906, -0.08593445271253586, 0.14690953493118286, -0.12441626936197281, 0, 0, 0, 0, 0, 0, 0, 0, 0, 0, 0, 0, 0.0, 0.0, 0.0, 0.0, 15.0, -2.0, 2.0, 0.0, 0.0, 0.0, -0.029025331139564514, -0.4175070822238922, 0.014945288188755512, 0.07413109391927719, -0.07230935245752335, 0.0008212789543904364
178500, 2.432241201400757, -3.1275634765625, -12.085811614990234, -0.030719848349690437, 0.1716751605272293, 0.07252327352762222, 0, 0, 0, 0, 0, 0, 0, 0, 0, 0, 0, 0, 0.0, 0.0, 0.0, 0.0, 15.0, 2.0, -1.0, 0.0, 0.0, 0.0, -0.02934895269572735, -0.4170694351196289, 0.015157042071223259, 0.06996719539165497, -0.06835109740495682, 0.0022743658628314734
178510, 2.4604766368865967, -3.1307554244995117, -12.07517147064209, -0.28648802638053894, 0.3116847574710846, -0.17245303094387054, 0, 0, 0, 0, 0, 0, 0, 0, 0, 0, 0, 0, 0.0, 0.0, 0.0, 0.0, 13.0, 23.0, -28.0, 0.0, 0.0, 0.0, -0.0294434055685997, -0.41712990403175354, 0.015217128209769726, 0.06831545382738113, -0.06907175481319427, 0.002946113236248493
178520, 2.4699501991271973, -3.1213696002960205, -12.059248924255371, 0.10882353782653809, -0.2915678918361664, 0.1150515154004097, 0, 0, 0, 0, 0, 0, 0, 0, 0, 0, 0, 0, 0.0, 0.0, 0.0, 0.0, 13.0, -1.0, -6.0, 0.0, 0.0, 0.0, -0.02735346555709839, -0.4198461174964905, 0.013746528886258602, 0.0885695070028305, -0.08762525022029877, -0.005429665092378855
178530, 2.4446723461151123, -3.1430246829986572, -12.079545974731445, 0.02868911810219288, -0.4980325698852539, -0.17870616912841797, 0, 0, 0, 0, 0, 0, 0, 0, 0, 0, 0, 0, 0.0, 0.0, 0.0, 0.0, 13.0, 0.0, 0.0, 0.0, 0.0, 0.0, -0.026679307222366333, -0.42007651925086975, 0.013724161311984062, 0.09080838412046432, -0.0873672217130661, -0.0043256208300590515
178540, 2.4647696018218994, -3.120622158050537, -12.076155662536621, 0.09954019635915756, -0.11457692831754684, 0.1812807023525238, 0, 0, 0, 0, 0, 0, 0, 0, 0, 0, 0, 0, 0.0, 0.0, 0.0, 0.0, 13.0, 0.0, 4.0, 0.0, 0.0, 0.0, -0.026499068364501, -0.4203587472438812, 0.013666522689163685, 0.09136652201414108, -0.08752397447824478, -0.0037345062009990215
178550, 2.4406371116638184, -3.134173631668091, -12.07023811340332, -0.09944622218608856, 0.052915289998054504, -0.10566156357526779, 0, 0, 0, 0, 0, 0, 0, 0, 0, 0, 0, 0, 0.0, 0.0, 0.0, 0.0, 13.0, 0.0, -4.0, 0.0, 0.0, 0.0, -0.02711716666817665, -0.4200757145881653, 0.013962863013148308, 0.08460477739572525, -0.08539760857820511, -0.001104720518924296
178560, 2.4776298999786377, -3.110725164413452, -12.056716918945312, 0.052943550050258636, -0.04180661961436272, -0.10758447647094727, 0, 0, 0, 0, 0, 0, 0, 0, 0, 0, 0, 0, 0.0, 0.0, 0.0, 0.0, 14.0, -2.0, 0.0, 0.0, 0.0, 0.0, -0.02695494145154953, -0.4199492931365967, 0.014014572836458683, 0.08433417230844498, -0.08428101241588593, -8.256701221398544e-06
178570, 2.4969418048858643, -3.098644733428955, -12.05272388458252, -0.013712654821574688, -0.041560616344213486, 0.1516674906015396, 0, 0, 0, 0, 0, 0, 0, 0, 0, 0, 0, 0, 0.0, 0.0, 0.0, 0.0, 14.0, 2.0, 0.0, 0.0, 0.0, 0.0, -0.02713511511683464, -0.41955140233039856, 0.014174836687743664, 0.08117327094078064, -0.0814485251903534, 0.0012417922262102365
178590, 2.5760672092437744, -3.093402862548828, -12.058130264282227, -0.20591123402118683, -0.020739542320370674, 0.0276811383664608, 0, 0, 0, 0, 0, 0, 0, 0, 0, 0, 0, 0, 0.0, 0.0, 0.0, 0.0, 14.0, 1.0, 4.0, 0.0, 0.0, 0.0, -0.027104612439870834, -0.4202049970626831, 0.014228354208171368, 0.07953716814517975, -0.08489256352186203, 0.0021997320000082254
178600, 2.4951682090759277, -3.1385319232940674, -12.048909187316895, 0.009955710731446743, 0.09288281947374344, -0.19721545279026031, 0, 0, 0, 0, 0, 0, 0, 0, 0, 0, 0, 0, 0.0, 0.0, 0.0, 0.0, 13.0, -22.0, -19.0, 0.0, 0.0, 0.0, -0.02773299068212509, -0.4200133681297302, 0.014476549811661243, 0.07375022768974304, -0.08426131308078766, 0.003981389570981264
178610, 2.4338669776916504, -3.134284257888794, -12.067998886108398, 0.010518744587898254, -0.16076287627220154, -0.022391123697161674, 0, 0, 0, 0, 0, 0, 0, 0, 0, 0, 0, 0, 0.0, 0.0, 0.0, 0.0, 13.0, 0.0, 0.0, 0.0, 0.0, 0.0, -0.025638876482844353, -0.4179985821247101, 0.014230260625481606, 0.08584219217300415, -0.06588201969861984, 0.0028329056221991777
178620, 2.4068078994750977, -3.13476824760437, -12.065385818481445, 0.008674823679029942, 0.29389268159866333, 0.02666955068707466, 0, 0, 0, 0, 0, 0, 0, 0, 0, 0, 0, 0, 0.0, 0.0, 0.0, 0.0, 13.0, 0.0, -2.0, 0.0, 0.0, 0.0, -0.02558186650276184, -0.4181974232196808, 0.014213604852557182, 0.08578001707792282, -0.06730953603982925, 0.003009338164702058
178630, 2.408522367477417, -3.134406805038452, -12.074959754943848, -0.0027298724744468927, -0.07373456656932831, -0.027120817452669144, 0, 0, 0, 0, 0, 0, 0, 0, 0, 0, 0, 0, 0.0, 0.0, 0.0, 0.0, 13.0, 1.0, 0.0, 0.0, 0.0, 0.0, -0.025326985865831375, -0.41831424832344055, 0.014303337782621384, 0.08553478121757507, -0.06653689593076706, 0.003724943846464157
178640, 2.414440631866455, -3.144993782043457, -12.067168235778809, -0.06694839149713516, -0.04909173399209976, -0.005137850064784288, 0, 0, 0, 0, 0, 0, 0, 0, 0, 0, 0, 0, 0.0, 0.0, 0.0, 0.0, 13.0, 0.0, 0.0, 0.0, 0.0, 0.0, -0.025610586628317833, -0.4182225167751312, 0.014461119659245014, 0.08265335112810135, -0.06661927700042725, 0.004710332490503788
178650, 2.4518418312072754, -3.1162149906158447, -12.058262825012207, -0.20629416406154633, 0.18803143501281738, -0.00028060743352398276, 0, 0, 0, 0, 0, 0, 0, 0, 0, 0, 0, 0, 0.0, 0.0, 0.0, 0.0, 16.0, 3.0, -3.0, 0.0, 0.0, 0.0, -0.025536097586154938, -0.41848257184028625, 0.014920033514499664, 0.08277033269405365, -0.06882111728191376, 0.007610717788338661
178660, 2.444119930267334, -3.100379467010498, -12.066446304321289, 0.08054926246404648, 0.005819643381983042, -0.031670767813920975, 0, 0, 0, 0, 0, 0, 0, 0, 0, 0, 0, 0, 0.0, 0.0, 0.0, 0.0, 16.0, 0.0, 2.0, 0.0, 0.0, 0.0, -0.025644326582551003, -0.41865381598472595, 0.014938034117221832, 0.0812973901629448, -0.07086984813213348, 0.007839111611247063
178670, 2.5181291103363037, -3.0764822959899902, -12.068370819091797, -0.14321786165237427, 0.027157390490174294, 0.03534127399325371, 0, 0, 0, 0, 0, 0, 0, 0, 0, 0, 0, 0, 0.0, 0.0, 0.0, 0.0, 16.0, -2.0, 2.0, 0.0, 0.0, 0.0, -0.02614876814186573, -0.41841989755630493, 0.015127191320061684, 0.07668270915746689, -0.06994961202144623, 0.009057347662746906
178680, 2.4964230060577393, -3.100954055786133, -12.067367553710938, -0.14321786165237427, 0.027157390490174294, 0.03534127399325371, 0, 0, 0, 0, 0, 0, 0, 0, 0, 0, 0, 0, 0.0, 0.0, 0.0, 0.0, 16.0, -2.0, -1.0, 0.0, 0.0, 0.0, -0.026312757283449173, -0.41831883788108826, 0.015363741666078568, 0.07327575236558914, -0.06905442476272583, 0.010464310646057129
178691, 2.471606492996216, -3.102490186691284, -12.050124168395996, 0.025933463126420975, 0.17835389077663422, 0.05167284235358238, 0, 0, 0, 0, 0, 0, 0, 0, 0, 0, 0, 0, 0.0, 0.0, 0.0, 0.0, 14.0, 3.0, -9.0, 0.0, 0.0, 0.0, -0.026416029781103134, -0.4179677963256836, 0.015560348518192768, 0.07168570160865784, -0.06673379987478256, 0.011500302702188492
178700, 2.487286329269409, -3.1016623973846436, -12.081900596618652, -0.013430003076791763, 0.404651015996933, 0.2050188183784485, 0, 0, 0, 0, 0, 0, 0, 0, 0, 0, 0, 0, 0.0, 0.0, 0.0, 0.0, 14.0, -2.0, 9.0, 0.0, 0.0, 0.0, -0.025938594713807106, -0.41820457577705383, 0.014983185566961765, 0.07551269233226776, -0.06834618747234344, 0.007838046178221703
178710, 2.4766054153442383, -3.1369481086730957, -12.054471969604492, 0.03016984835267067, 0.01383422315120697, -0.012344368733465672, 0, 0, 0, 0, 0, 0, 0, 0, 0, 0, 0, 0, 0.0, 0.0, 0.0, 0.0, 14.0, -1.0, -3.0, 0.0, 0.0, 0.0, -0.027027109637856483, -0.4177079498767853, 0.015282991342246532, 0.06595353037118912, -0.06725472211837769, 0.009637262672185898
178720, 2.5271761417388916, -3.103940010070801, -12.056954383850098, 0.00903400219976902, 0.0116356136277318, 0.07537925988435745, 0, 0, 0, 0, 0, 0, 0, 0, 0, 0, 0, 0, 0.0, 0.0, 0.0, 0.0, 14.0, 0.0, 0.0, 0.0, 0.0, 0.0, -0.026694320142269135, -0.41777336597442627, 0.015404111705720425, 0.06762649863958359, -0.06628887355327606, 0.010460623539984226
178730, 2.525803804397583, -3.0912892818450928, -12.059718132019043, -0.053660936653614044, -0.12489432096481323, -0.04020616412162781, 0, 0, 0, 0, 0, 0, 0, 0, 0, 0, 0, 0, 0.0, 0.0, 0.0, 0.0, 14.0, 0.0, 0.0, 0.0, 0.0, 0.0, -0.026745492592453957, -0.4180298149585724, 0.015415355563163757, 0.06761690229177475, -0.0693695917725563, 0.010420812293887138
178741, 2.5642848014831543, -3.070734739303589, -12.06238079071045, -0.12439034134149551, 0.01806687004864216, 0.035275649279356, 0, 0, 0, 0, 0, 0, 0, 0, 0, 0, 0, 0, 0.0, 0.0, 0.0, 0.0, 14.0, -5.0, -8.0, 0.0, 0.0, 0.0, -0.026808060705661774, -0.41824135184288025, 0.014988797716796398, 0.06746406108140945, -0.07163560390472412, 0.007555541582405567
178751, 2.5399460792541504, -3.0768938064575195, -12.062314987182617, -0.017418431118130684, 0.11635633558034897, 0.1994759738445282, 0, 0, 0, 0, 0, 0, 0, 0, 0, 0, 0, 0, 0.0, 0.0, 0.0, 0.0, 14.0, 8.0, 12.0, 0.0, 0.0, 0.0, -0.026221545413136482, -0.41778963804244995, 0.015076348558068275, 0.07130999863147736, -0.0678795650601387, 0.008329383097589016
178760, 2.5348546504974365, -3.085287094116211, -12.052854537963867, 0.20858566462993622, -0.36576297879219055, -0.1235039085149765, 0, 0, 0, 0, 0, 0, 0, 0, 0, 0, 0, 0, 0.0, 0.0, 0.0, 0.0, 14.0, -1.0, -4.0, 0.0, 0.0, 0.0, -0.027854885905981064, -0.41813093423843384, 0.015294061973690987, 0.0592617392539978, -0.07325020432472229, 0.009396141394972801
178770, 2.5928895473480225, -3.097963571548462, -12.075189590454102, 0.213362455368042, -0.19784314930438995, 0.0062306164763867855, 0, 0, 0, 0, 0, 0, 0, 0, 0, 0, 0, 0, 0.0, 0.0, 0.0, 0.0, 14.0, -3.0, 0.0, 0.0, 0.0, 0.0, -0.0277246180921793, -0.41795220971107483, 0.015378996729850769, 0.060437481850385666, -0.07186809182167053, 0.009668882004916668
178780, 2.5022311210632324, -3.11397123336792, -12.057818412780762, 0.2042120397090912, -0.2710895836353302, 0.1703188419342041, 0, 0, 0, 0, 0, 0, 0, 0, 0, 0, 0, 0, 0.0, 0.0, 0.0, 0.0, 15.0, 2.0, 2.0, 0.0, 0.0, 0.0, -0.027699122205376625, -0.41780421137809753, 0.015580287203192711, 0.05929858982563019, -0.06948582828044891, 0.010741056874394417
178790, 2.5315909385681152, -3.1027917861938477, -12.047575950622559, -0.09588570892810822, 0.09463554620742798, -0.09422391653060913, 0, 0, 0, 0, 0, 0, 0, 0, 0, 0, 0, 0, 0.0, 0.0, 0.0, 0.0, 15.0, 0.0, 0.0, 0.0, 0.0, 0.0, -0.028147250413894653, -0.41774725914001465, 0.015506569296121597, 0.05619296804070473, -0.06956730782985687, 0.009899531491100788
178801, 2.550276279449463, -3.0897860527038574, -12.053948402404785, -0.035141199827194214, -0.020221762359142303, -0.09194575995206833, 0, 0, 0, 0, 0, 0, 0, 0, 0, 0, 0, 0, 0.0, 0.0, 0.0, 0.0, 15.0, 2.0, 2.0, 0.0, 0.0, 0.0, -0.02818683162331581, -0.4180923104286194, 0.01551909651607275, 0.05666366592049599, -0.07278613746166229, 0.009981735609471798
178810, 2.6100962162017822, -3.0948967933654785, -12.051273345947266, -0.01857459545135498, 0.05226131156086922, 0.03015885315835476, 0, 0, 0, 0, 0, 0, 0, 0, 0, 0, 0, 0, 0.0, 0.0, 0.0, 0.0, 15.0, 2.0, 2.0, 0.0, 0.0, 0.0, -0.028629891574382782, -0.41815122961997986, 0.015667613595724106, 0.05369032919406891, -0.07344678789377213, 0.01064231339842081
178820, 2.4373655319213867, -3.1300740242004395, -12.080214500427246, 0.038924213498830795, -0.21428844332695007, -0.15338857471942902, 0, 0, 0, 0, 0, 0, 0, 0, 0, 0, 0, 0, 0.0, 0.0, 0.0, 0.0, 15.0, 0.0, -1.0, 0.0, 0.0, 0.0, -0.02878175489604473, -0.4177895486354828, 0.01585244946181774, 0.052445340901613235, -0.07017379999160767, 0.011207801289856434
178831, 2.4178993701934814, -3.1263797283172607, -12.078346252441406, 0.014502182602882385, -0.15548579394817352, 0.06021301448345184, 0, 0, 0, 0, 0, 0, 0, 0, 0, 0, 0, 0, 0.0, 0.0, 0.0, 0.0, 11.0, 4.0, 6.0, 0.0, 0.0, 0.0, -0.028926195576786995, -0.41763556003570557, 0.014401858672499657, 0.05217853561043739, -0.06931442022323608, 0.0014098029350861907
178840, 2.384711742401123, -3.159827947616577, -12.07366943359375, 0.02183174341917038, -0.34027591347694397, -0.022381216287612915, 0, 0, 0, 0, 0, 0, 0, 0, 0, 0, 0, 0, 0.0, 0.0, 0.0, 0.0, 11.0, -4.0, -5.0, 0.0, 0.0, 0.0, -0.02961907535791397, -0.41801172494888306, 0.014467290602624416, 0.04703804478049278, -0.07240981608629227, 0.0020824363455176353
178850, 2.4909534454345703, -3.111055374145508, -12.051045417785645, -0.09773492813110352, 0.4865492284297943, -0.010586942546069622, 0, 0, 0, 0, 0, 0, 0, 0, 0, 0, 0, 0, 0.0, 0.0, 0.0, 0.0, 11.0, 0.0, 0.0, 0.0, 0.0, 0.0, -0.029274452477693558, -0.4175860285758972, 0.014553653076291084, 0.04985972121357918, -0.06891007721424103, 0.0029618360567837954
178860, 2.4683163166046143, -3.1288328170776367, -12.066571235656738, -0.019728977233171463, -0.21388159692287445, 0.017424078658223152, 0, 0, 0, 0, 0, 0, 0, 0, 0, 0, 0, 0, 0.0, 0.0, 0.0, 0.0, 11.0, 0.0, -1.0, 0.0, 0.0, 0.0, -0.02939942665398121, -0.4178698658943176, 0.014555960893630981, 0.05000898241996765, -0.07241839915513992, 0.003454008372500539
178870, 2.4285459518432617, -3.1247355937957764, -12.054590225219727, 0.06022157520055771, 0.2164001613855362, -0.13454289734363556, 0, 0, 0, 0, 0, 0, 0, 0, 0, 0, 0, 0, 0.0, 0.0, 0.0, 0.0, 15.0, 0.0, -3.0, 0.0, 0.0, 0.0, -0.0294493455439806, -0.41765058040618896, 0.014673294499516487, 0.05023318901658058, -0.06951364129781723, 0.004285087808966637
178880, 2.5708370208740234, -3.098034620285034, -12.06960391998291, -0.09704489260911942, 0.32916542887687683, 0.053013261407613754, 0, 0, 0, 0, 0, 0, 0, 0, 0, 0, 0, 0, 0.0, 0.0, 0.0, 0.0, 15.0, 0.0, 3.0, 0.0, 0.0, 0.0, -0.029174944385886192, -0.4178861379623413, 0.014807340689003468, 0.05218084156513214, -0.0701587051153183, 0.0053808256052434444
178890, 2.595053195953369, -3.0975143909454346, -12.066752433776855, -0.033719178289175034, 0.10965048521757126, -0.07939936965703964, 0, 0, 0, 0, 0, 0, 0, 0, 0, 0, 0, 0, 0.0, 0.0, 0.0, 0.0, 15.0, 0.0, 1.0, 0.0, 0.0, 0.0, -0.02969766966998577, -0.41784751415252686, 0.014956867322325706, 0.04856035113334656, -0.07159772515296936, 0.006327643059194088
178901, 2.6136856079101562, -3.0794122219085693, -12.067523956298828, -0.046394191682338715, 0.14174237847328186, -0.0022770760115236044, 0, 0, 0, 0, 0, 0, 0, 0, 0, 0, 0, 0, 0.0, 0.0, 0.0, 0.0, 15.0, 3.0, 0.0, 0.0, 0.0, 0.0, -0.029969682916998863, -0.41779229044914246, 0.015084578655660152, 0.04696495085954666, -0.07185843586921692, 0.007177287712693214
178910, 2.56683349609375, -3.079543113708496, -12.079319953918457, 0.07688552141189575, -0.4992887079715729, 0.059828318655490875, 0, 0, 0, 0, 0, 0, 0, 0, 0, 0, 0, 0, 0.0, 0.0, 0.0, 0.0, 15.0, -3.0, -1.0, 0.0, 0.0, 0.0, -0.030218424275517464, -0.41806426644325256, 0.015146496705710888, 0.046145763248205185, -0.07457145303487778, 0.007594785653054714
178920, 2.4586946964263916, -3.1250457763671875, -12.07830810546875, -0.14878720045089722, 0.3589630424976349, 0.1522729992866516, 0, 0, 0, 0, 0, 0, 0, 0, 0, 0, 0, 0, 0.0, 0.0, 0.0, 0.0, 17.0, -1.0, 5.0, 0.0, 0.0, 0.0, -0.030184423550963402, -0.4177524447441101, 0.015885131433606148, 0.046396348625421524, -0.071393683552742, 0.012021645903587341
178930, 2.4770514965057373, -3.1337122917175293, -12.091680526733398, -0.21391661465168, -0.22965297102928162, -0.19419991970062256, 0, 0, 0, 0, 0, 0, 0, 0, 0, 0, 0, 0, 0.0, 0.0, 0.0, 0.0, 17.0, 0.0, -5.0, 0.0, 0.0, 0.0, -0.03078712895512581, -0.4174880385398865, 0.016085738316178322, 0.04227308928966522, -0.06959632784128189, 0.012736906297504902
178940, 2.4726524353027344, -3.0939838886260986, -12.081177711486816, 0.2537520229816437, -0.23709361255168915, -0.05284920707345009, 0, 0, 0, 0, 0, 0, 0, 0, 0, 0, 0, 0, 0.0, 0.0, 0.0, 0.0, 17.0, 1.0, 1.0, 0.0, 0.0, 0.0, -0.030608179047703743, -0.4169509708881378, 0.01608896814286709, 0.04380517825484276, -0.06593234837055206, 0.012693166732788086
178950, 2.504404306411743, -3.102799415588379, -12.074559211730957, -0.07260912656784058, 0.07022826373577118, -0.09935720264911652, 0, 0, 0, 0, 0, 0, 0, 0, 0, 0, 0, 0, 0.0, 0.0, 0.0, 0.0, 17.0, 0.0, -1.0, 0.0, 0.0, 0.0, -0.03089853748679161, -0.4169052243232727, 0.01619615964591503, 0.042159486562013626, -0.06674353778362274, 0.012884280644357204
178960, 2.4191372394561768, -3.138197898864746, -12.08633041381836, -0.14274047315120697, 0.35712122917175293, 0.12775768339633942, 0, 0, 0, 0, 0, 0, 0, 0, 0, 0, 0, 0, 0.0, 0.0, 0.0, 0.0, 15.0, 0.0, 0.0, 0.0, 0.0, 0.0, -0.03098882921040058, -0.41680943965911865, 0.016311513260006905, 0.04241515323519707, -0.06631238013505936, 0.013004008680582047
178970, 2.4470443725585938, -3.145177125930786, -12.092986106872559, -0.1843804121017456, 0.29737988114356995, -0.04866202175617218, 0, 0, 0, 0, 0, 0, 0, 0, 0, 0, 0, 0, 0.0, 0.0, 0.0, 0.0, 15.0, 0.0, 0.0, 0.0, 0.0, 0.0, -0.03099515289068222, -0.4169752895832062, 0.01589227095246315, 0.04389943554997444, -0.06758210062980652, 0.009554320015013218
178980, 2.4810800552368164, -3.1259689331054688, -12.080362319946289, -0.037689391523599625, 0.1765008419752121, 0.025183280929923058, 0, 0, 0, 0, 0, 0, 0, 0, 0, 0, 0, 0, 0.0, 0.0, 0.0, 0.0, 15.0, 0.0, 0.0, 0.0, 0.0, 0.0, -0.030881337821483612, -0.417477011680603, 0.015903867781162262, 0.04567450284957886, -0.07026885449886322, 0.009298460558056831
178990, 2.500812292098999, -3.1213793754577637, -12.064970970153809, -0.07648707926273346, 0.011366504244506359, -0.06612403690814972, 0, 0, 0, 0, 0, 0, 0, 0, 0, 0, 0, 0, 0.0, 0.0, 0.0, 0.0, 15.0, 0.0, 0.0, 0.0, 0.0, 0.0, -0.030920717865228653, -0.4176858365535736, 0.015907233580946922, 0.04618077352643013, -0.072520911693573, 0.00904762651771307
179001, 2.472451686859131, -3.116058111190796, -12.080460548400879, 0.0015827519819140434, 0.23678341507911682, 0.05503776669502258, 0, 0, 0, 0, 0, 0, 0, 0, 0, 0, 0, 0, 0.0, 0.0, 0.0, 0.0, 15.0, -1.0, -3.0, 0.0, 0.0, 0.0, -0.030925005674362183, -0.417863130569458, 0.015920419245958328, 0.04727088660001755, -0.07354516535997391, 0.00895365234464407
179010, 2.5063819885253906, -3.106940269470215, -12.074752807617188, -0.09216346591711044, -0.003237358760088682, -0.00974325742572546, 0, 0, 0, 0, 0, 0, 0, 0, 0, 0, 0, 0, 0.0, 0.0, 0.0, 0.0, 17.0, -1.0, -3.0, 0.0, 0.0, 0.0, -0.03078817017376423, -0.41764673590660095, 0.016329839825630188, 0.04863455146551132, -0.07163283228874207, 0.011795975267887115
179020, 2.5970590114593506, -3.111570358276367, -12.07379150390625, 0.12207109481096268, -0.0979854017496109, -0.021330634132027626, 0, 0, 0, 0, 0, 0, 0, 0, 0, 0, 0, 0, 0.0, 0.0, 0.0, 0.0, 17.0, 0.0, 0.0, 0.0, 0.0, 0.0, -0.0311652310192585, -0.41789016127586365, 0.016470277681946754, 0.04544060304760933, -0.07330602407455444, 0.012342296540737152
179030, 2.5567569732666016, -3.0982120037078857, -12.098254203796387, 0.07345467060804367, 0.06120970472693443, -0.0023564996663480997, 0, 0, 0, 0, 0, 0, 0, 0, 0, 0, 0, 0, 0.0, 0.0, 0.0, 0.0, 17.0, -1.0, 0.0, 0.0, 0.0, 0.0, -0.031234515830874443, -0.41813188791275024, 0.016475945711135864, 0.0464157797396183, -0.07555350661277771, 0.011812296696007252
179040, 2.520669460296631, -3.075578212738037, -12.08721923828125, -0.04996125400066376, -0.005541484337300062, -0.1425780951976776, 0, 0, 0, 0, 0, 0, 0, 0, 0, 0, 0, 0, 0.0, 0.0, 0.0, 0.0, 17.0, 0.0, 1.0, 0.0, 0.0, 0.0, -0.03135554865002632, -0.4178914725780487, 0.016621537506580353, 0.04502572491765022, -0.07340151071548462, 0.012144249863922596
179050, 2.5325746536254883, -3.0883240699768066, -12.075471878051758, -0.04996125400066376, -0.005541484337300062, -0.1425780951976776, 0, 0, 0, 0, 0, 0, 0, 0, 0, 0, 0, 0, 0.0, 0.0, 0.0, 0.0, 16.0, 20.0, -4.0, 0.0, 0.0, 0.0, -0.031602874398231506, -0.4177253246307373, 0.016768302768468857, 0.04319741949439049, -0.0720200166106224, 0.012557209469377995
179060, 2.5531437397003174, -3.0977563858032227, -12.077204704284668, 0.01602241024374962, 0.10695557296276093, 0.2622470259666443, 0, 0, 0, 0, 0, 0, 0, 0, 0, 0, 0, 0, 0.0, 0.0, 0.0, 0.0, 16.0, -4.0, -4.0, 0.0, 0.0, 0.0, -0.03179659694433212, -0.41967788338661194, 0.01620858907699585, 0.04582485556602478, -0.08889980614185333, 0.008858315646648407
179070, 2.5383687019348145, -3.0904810428619385, -12.096863746643066, -0.307517945766449, -0.008015673607587814, 0.16468453407287598, 0, 0, 0, 0, 0, 0, 0, 0, 0, 0, 0, 0, 0.0, 0.0, 0.0, 0.0, 16.0, -16.0, 7.0, 0.0, 0.0, 0.0, -0.03146900236606598, -0.4191547930240631, 0.016365328803658485, 0.04799354076385498, -0.08400709182024002, 0.00978801678866148
179080, 2.5222058296203613, -3.1204230785369873, -12.097149848937988, 0.05643598362803459, -0.09465841948986053, -0.03864365816116333, 0, 0, 0, 0, 0, 0, 0, 0, 0, 0, 0, 0, 0.0, 0.0, 0.0, 0.0, 16.0, -1.0, -4.0, 0.0, 0.0, 0.0, -0.031823620200157166, -0.41743165254592896, 0.017013654112815857, 0.04122130572795868, -0.06847739964723587, 0.013373568654060364
179091, 2.6536760330200195, -3.0876846313476562, -12.078567504882812, 0.12475915253162384, -0.25584375858306885, -0.21327263116836548, 0, 0, 0, 0, 0, 0, 0, 0, 0, 0, 0, 0, 0.0, 0.0, 0.0, 0.0, 16.0, 0.0, 3.0, 0.0, 0.0, 0.0, -0.031546369194984436, -0.41722697019577026, 0.017052017152309418, 0.04408829286694527, -0.0666874423623085, 0.012915967032313347
179100, 2.6240062713623047, -3.0778090953826904, -12.074763298034668, -0.03731907159090042, -0.07509958744049072, -0.0004407117376103997, 0, 0, 0, 0, 0, 0, 0, 0, 0, 0, 0, 0, 0.0, 0.0, 0.0, 0.0, 16.0, 4.0, -3.0, 0.0, 0.0, 0.0, -0.032002516090869904, -0.4169991612434387, 0.016803225502371788, 0.0405723974108696, -0.06745880842208862, 0.010693896561861038
179110, 2.5183799266815186, -3.1164419651031494, -12.069483757019043, 0.07400471717119217, 0.17355968058109283, 0.05675530433654785, 0, 0, 0, 0, 0, 0, 0, 0, 0, 0, 0, 0, 0.0, 0.0, 0.0, 0.0, 16.0, -3.0, 0.0, 0.0, 0.0, 0.0, -0.03190755099058151, -0.4172203242778778, 0.016763953492045403, 0.04279869422316551, -0.06864471733570099, 0.01001538336277008
179120, 2.58390736579895, -3.0957236289978027, -12.088374137878418, 0.04172726348042488, -0.3543882369995117, -0.007440080400556326, 0, 0, 0, 0, 0, 0, 0, 0, 0, 0, 0, 0, 0.0, 0.0, 0.0, 0.0, 16.0, 0.0, 3.0, 0.0, 0.0, 0.0, -0.03200069069862366, -0.41679418087005615, 0.016869934275746346, 0.04194222018122673, -0.0663713738322258, 0.010381611995398998
179130, 2.521294116973877, -3.1196069717407227, -12.07088565826416, -0.13938812911510468, 0.11308750510215759, -0.03193608671426773, 0, 0, 0, 0, 0, 0, 0, 0, 0, 0, 0, 0, 0.0, 0.0, 0.0, 0.0, 16.0, -1.0, -2.0, 0.0, 0.0, 0.0, -0.03230314329266548, -0.41685038805007935, 0.01702086068689823, 0.03945020213723183, -0.06685580313205719, 0.01092380192130804
179140, 2.6249725818634033, -3.1011908054351807, -12.059213638305664, 0.06650986522436142, -0.011918637901544571, -0.21460574865341187, 0, 0, 0, 0, 0, 0, 0, 0, 0, 0, 0, 0, 0.0, 0.0, 0.0, 0.0, 13.0, -4.0, 2.0, 0.0, 0.0, 0.0, -0.03215831145644188, -0.4166121482849121, 0.01706704869866371, 0.041036032140254974, -0.06474190205335617, 0.010726735927164555
179150, 2.5204551219940186, -3.1202824115753174, -12.07172679901123, -0.08658741414546967, 0.012563884258270264, -0.020284246653318405, 0, 0, 0, 0, 0, 0, 0, 0, 0, 0, 0, 0, 0.0, 0.0, 0.0, 0.0, 13.0, 4.0, 6.0, 0.0, 0.0, 0.0, -0.032402344048023224, -0.41599079966545105, 0.015891654416918755, 0.03937855362892151, -0.0615626759827137, 0.003110237419605255
179160, 2.5480751991271973, -3.1116256713867188, -12.053513526916504, 0.21379350125789642, -0.0017815689789131284, 0.007589917629957199, 0, 0, 0, 0, 0, 0, 0, 0, 0, 0, 0, 0, 0.0, 0.0, 0.0, 0.0, 13.0, 1.0, -8.0, 0.0, 0.0, 0.0, -0.03317497298121452, -0.41612401604652405, 0.015906669199466705, 0.03453481197357178, -0.0646771490573883, 0.0032544455025345087
179170, 2.530416488647461, -3.100823402404785, -12.064201354980469, -0.02127614989876747, -0.31347915530204773, -0.033719100058078766, 0, 0, 0, 0, 0, 0, 0, 0, 0, 0, 0, 0, 0.0, 0.0, 0.0, 0.0, 13.0, -2.0, 0.0, 0.0, 0.0, 0.0, -0.03253250569105148, -0.4162459969520569, 0.015835829079151154, 0.04063006117939949, -0.06515570729970932, 0.003185588400810957
179180, 2.4740591049194336, -3.1249310970306396, -12.055469512939453, 0.25126007199287415, 0.009959769435226917, 0.17727187275886536, 0, 0, 0, 0, 0, 0, 0, 0, 0, 0, 0, 0, 0.0, 0.0, 0.0, 0.0, 14.0, 0.0, -1.0, 0.0, 0.0, 0.0, -0.032482974231243134, -0.41619643568992615, 0.015938593074679375, 0.0408090315759182, -0.06416496634483337, 0.004183170851320028
179190, 2.514941692352295, -3.086785316467285, -12.069698333740234, -0.0486893504858017, -0.25008624792099, -0.1308049112558365, 0, 0, 0, 0, 0, 0, 0, 0, 0, 0, 0, 0, 0.0, 0.0, 0.0, 0.0, 14.0, -3.0, 9.0, 0.0, 0.0, 0.0, -0.03248672932386398, -0.4160749912261963, 0.015347514301538467, 0.04154704511165619, -0.06388185918331146, 0.0005062057171016932
179200, 2.5165810585021973, -3.074470281600952, -12.061625480651855, -0.02744002267718315, -0.39142948389053345, -0.005107195116579533, 0, 0, 0, 0, 0, 0, 0, 0, 0, 0, 0, 0, 0.0, 0.0, 0.0, 0.0, 14.0, 3.0, -5.0, 0.0, 0.0, 0.0, -0.033346619457006454, -0.4155443608760834, 0.015509197488427162, 0.03484829515218735, -0.06197644770145416, 0.001504447660408914
179210, 2.432551145553589, -3.12992000579834, -12.07215404510498, -0.24147184193134308, 0.16320708394050598, 0.12075135111808777, 0, 0, 0, 0, 0, 0, 0, 0, 0, 0, 0, 0, 0.0, 0.0, 0.0, 0.0, 14.0, 0.0, -1.0, 0.0, 0.0, 0.0, -0.03303854167461395, -0.41586610674858093, 0.015426700003445148, 0.03883808106184006, -0.06465745717287064, 0.0013001145562157035
179220, 2.3917806148529053, -3.1315693855285645, -12.07243824005127, 0.10441672801971436, 0.21299023926258087, 0.06421855837106705, 0, 0, 0, 0, 0, 0, 0, 0, 0, 0, 0, 0, 0.0, 0.0, 0.0, 0.0, 14.0, 1.0, 1.0, 0.0, 0.0, 0.0, -0.032960835844278336, -0.4157465398311615, 0.015494529157876968, 0.040074706077575684, -0.06310431659221649, 0.002106613712385297
179230, 2.4663243293762207, -3.121971845626831, -12.055920600891113, 0.14486968517303467, -0.1013612151145935, 0.1662129908800125, 0, 0, 0, 0, 0, 0, 0, 0, 0, 0, 0, 0, 0.0, 0.0, 0.0, 0.0, 15.0, 6.0, 5.0, 0.0, 0.0, 0.0, -0.03314433991909027, -0.41576719284057617, 0.015524773858487606, 0.03910381346940994, -0.06462589651346207, 0.0025889568496495485
179240, 2.5351710319519043, -3.0916192531585693, -12.056467056274414, -0.11977914720773697, -0.050075311213731766, -0.03297955170273781, 0, 0, 0, 0, 0, 0, 0, 0, 0, 0, 0, 0, 0.0, 0.0, 0.0, 0.0, 15.0, -5.0, -9.0, 0.0, 0.0, 0.0, -0.03369865193963051, -0.41639482975006104, 0.015371127985417843, 0.03572101518511772, -0.07044290006160736, 0.0019632279872894287
179250, 2.445621967315674, -3.120232105255127, -12.051220893859863, -0.008658511564135551, 0.13094064593315125, -0.0037521468475461006, 0, 0, 0, 0, 0, 0, 0, 0, 0, 0, 0, 0, 0.0, 0.0, 0.0, 0.0, 15.0, -1.0, 0.0, 0.0, 0.0, 0.0, -0.03282842040061951, -0.41600093245506287, 0.015413280576467514, 0.04245082661509514, -0.06558463722467422, 0.002556118881329894
179260, 2.5549864768981934, -3.0957510471343994, -12.049796104431152, 0.024590667337179184, -0.07822035998106003, -0.007920509204268456, 0, 0, 0, 0, 0, 0, 0, 0, 0, 0, 0, 0, 0.0, 0.0, 0.0, 0.0, 15.0, 0.0, 4.0, 0.0, 0.0, 0.0, -0.03282842040061951, -0.41600093245506287, 0.015413280576467514, 0.04245082661509514, -0.06558463722467422, 0.002556118881329894
179270, 2.5522818565368652, -3.0910484790802, -12.037530899047852, -0.057408370077610016, -0.1776604801416397, 0.16544394195079803, 0, 0, 0, 0, 0, 0, 0, 0, 0, 0, 0, 0, 0.0, 0.0, 0.0, 0.0, 15.0, 0.0, 0.0, 0.0, 0.0, 0.0, -0.033016398549079895, -0.4164436459541321, 0.015628661960363388, 0.0404740571975708, -0.06818094849586487, 0.004491948056966066
179282, 2.5170962810516357, -3.1022653579711914, -12.08270263671875, -0.035930417478084564, -0.027896158397197723, 0.1232265904545784, 0, 0, 0, 0, 0, 0, 0, 0, 0, 0, 0, 0, 0.0, 0.0, 0.0, 0.0, 15.0, 7.0, -4.0, 0.0, 0.0, 0.0, -0.0330004021525383, -0.4166610538959503, 0.015396520495414734, 0.04187631607055664, -0.07020336389541626, 0.003225180087611079
179290, 2.5610079765319824, -3.08274245262146, -12.057751655578613, -0.0196395143866539, -0.1493423879146576, 0.004977294243872166, 0, 0, 0, 0, 0, 0, 0, 0, 0, 0, 0, 0, 0.0, 0.0, 0.0, 0.0, 15.0, -6.0, 3.0, 0.0, 0.0, 0.0, -0.03295275941491127, -0.41697198152542114, 0.01528936717659235, 0.04382149502635002, -0.07392513751983643, 0.002865527756512165
179300, 2.5745747089385986, -3.087076187133789, -12.06158447265625, 0.14625386893749237, 0.2501785159111023, 0.10327931493520737, 0, 0, 0, 0, 0, 0, 0, 0, 0, 0, 0, 0, 0.0, 0.0, 0.0, 0.0, 15.0, -1.0, 1.0, 0.0, 0.0, 0.0, -0.03317413851618767, -0.41635093092918396, 0.015507033094763756, 0.04126261919736862, -0.06974373757839203, 0.0044248104095458984
179310, 2.516146659851074, -3.1131622791290283, -12.073882102966309, -0.14918102324008942, 0.11234956234693527, 0.1147972121834755, 0, 0, 0, 0, 0, 0, 0, 0, 0, 0, 0, 0, 0.0, 0.0, 0.0, 0.0, 15.0, -1.0, 1.0, 0.0, 0.0, 0.0, -0.03327609971165657, -0.4161418378353119, 0.015613183379173279, 0.04047899693250656, -0.06853781640529633, 0.005275917239487171
179320, 2.536959648132324, -3.126373052597046, -12.07453727722168, -0.0017808926058933139, -0.19559410214424133, -0.1527715027332306, 0, 0, 0, 0, 0, 0, 0, 0, 0, 0, 0, 0, 0.0, 0.0, 0.0, 0.0, 15.0, 6.0, -3.0, 0.0, 0.0, 0.0, -0.03330984339118004, -0.4161991477012634, 0.015723854303359985, 0.040138550102710724, -0.06787276268005371, 0.005974899046123028
179330, 2.5252673625946045, -3.1069257259368896, -12.075312614440918, 0.05965539813041687, -0.10928460955619812, 0.12357166409492493, 0, 0, 0, 0, 0, 0, 0, 0, 0, 0, 0, 0, 0.0, 0.0, 0.0, 0.0, 15.0, -6.0, -2.0, 0.0, 0.0, 0.0, -0.033201079815626144, -0.4167288839817047, 0.015470031648874283, 0.04224393889307976, -0.07251937687397003, 0.004389798268675804
179341, 2.45589280128479, -3.1104350090026855, -12.074468612670898, 0.12610331177711487, -0.48294374346733093, -0.053103022277355194, 0, 0, 0, 0, 0, 0, 0, 0, 0, 0, 0, 0, 0.0, 0.0, 0.0, 0.0, 15.0, 0.0, 0.0, 0.0, 0.0, 0.0, -0.032931409776210785, -0.41613346338272095, 0.015617008320987225, 0.04373471066355705, -0.06638897955417633, 0.005191161297261715
179350, 2.494079828262329, -3.0795817375183105, -12.080976486206055, -0.007567314896732569, 0.07027668505907059, 0.006710796616971493, 0, 0, 0, 0, 0, 0, 0, 0, 0, 0, 0, 0, 0.0, 0.0, 0.0, 0.0, 15.0, 1.0, 0.0, 0.0, 0.0, 0.0, -0.03286682814359665, -0.41643691062927246, 0.01559622772037983, 0.044831085950136185, -0.06922853738069534, 0.005396043416112661
179360, 2.4744198322296143, -3.083153009414673, -12.080463409423828, -0.06448408216238022, -0.21127741038799286, 0.1702170968055725, 0, 0, 0, 0, 0, 0, 0, 0, 0, 0, 0, 0, 0.0, 0.0, 0.0, 0.0, 15.0, 0.0, 3.0, 0.0, 0.0, 0.0, -0.03294321522116661, -0.41645464301109314, 0.015670035034418106, 0.04440193250775337, -0.06998226046562195, 0.006050553638488054
179370, 2.4904747009277344, -3.073033094406128, -12.07311725616455, -0.0009046958875842392, -0.19380655884742737, 0.15636348724365234, 0, 0, 0, 0, 0, 0, 0, 0, 0, 0, 0, 0, 0.0, 0.0, 0.0, 0.0, 15.0, 0.0, -10.0, 0.0, 0.0, 0.0, -0.033285144716501236, -0.41630151867866516, 0.015562313608825207, 0.04154049977660179, -0.06957024335861206, 0.005365445278584957
179380, 2.5250320434570312, -3.071502208709717, -12.104045867919922, 0.06358379125595093, 0.11309884488582611, 0.042645033448934555, 0, 0, 0, 0, 0, 0, 0, 0, 0, 0, 0, 0, 0.0, 0.0, 0.0, 0.0, 15.0, -3.0, 12.0, 0.0, 0.0, 0.0, -0.032331936061382294, -0.41669490933418274, 0.01552996039390564, 0.04967814311385155, -0.07050711661577225, 0.0055688791908323765
179391, 2.519036054611206, -3.099790573120117, -12.081253051757812, 0.10836923867464066, -0.27062341570854187, 0.09422534704208374, 0, 0, 0, 0, 0, 0, 0, 0, 0, 0, 0, 0, 0.0, 0.0, 0.0, 0.0, 15.0, 3.0, 0.0, 0.0, 0.0, 0.0, -0.03342467546463013, -0.41611823439598083, 0.01582886092364788, 0.03978376463055611, -0.06754716485738754, 0.007274331990629435
179400, 2.6347904205322266, -3.079538345336914, -12.080737113952637, -0.03670863062143326, 0.11750000715255737, -0.14617103338241577, 0, 0, 0, 0, 0, 0, 0, 0, 0, 0, 0, 0, 0.0, 0.0, 0.0, 0.0, 15.0, 0.0, -1.0, 0.0, 0.0, 0.0, -0.03351866826415062, -0.41636401414871216, 0.01588553562760353, 0.039976660162210464, -0.07079660892486572, 0.007672295905649662
179410, 2.677654266357422, -3.0969974994659424, -12.093932151794434, -0.20175974071025848, -0.04210003837943077, -0.08691281080245972, 0, 0, 0, 0, 0, 0, 0, 0, 0, 0, 0, 0, 0.0, 0.0, 0.0, 0.0, 16.0, -1.0, -4.0, 0.0, 0.0, 0.0, -0.033474404364824295, -0.41633063554763794, 0.01597515121102333, 0.04067093878984451, -0.07123208045959473, 0.008229301311075687
179420, 2.5244064331054688, -3.1203081607818604, -12.08788013458252, 0.016228485852479935, -0.0035309416707605124, -0.051924120634794235, 0, 0, 0, 0, 0, 0, 0, 0, 0, 0, 0, 0, 0.0, 0.0, 0.0, 0.0, 16.0, 1.0, 4.0, 0.0, 0.0, 0.0, -0.03311920911073685, -0.4162238836288452, 0.016028348356485367, 0.0440441370010376, -0.0690021961927414, 0.008449586108326912
179430, 2.5877716541290283, -3.092552423477173, -12.071438789367676, 0.04572395235300064, 0.07196603715419769, -0.11433877050876617, 0, 0, 0, 0, 0, 0, 0, 0, 0, 0, 0, 0, 0.0, 0.0, 0.0, 0.0, 16.0, 0.0, 0.0, 0.0, 0.0, 0.0, -0.033465247601270676, -0.4164409637451172, 0.01616533100605011, 0.040743615478277206, -0.07074426859617233, 0.009412502869963646
179440, 2.4855031967163086, -3.1224677562713623, -12.078801155090332, -0.06252526491880417, 0.15151405334472656, -0.06062540039420128, 0, 0, 0, 0, 0, 0, 0, 0, 0, 0, 0, 0, 0.0, 0.0, 0.0, 0.0, 16.0, 1.0, -4.0, 0.0, 0.0, 0.0, -0.03337002918124199, -0.41672512888908386, 0.0161457359790802, 0.042162712663412094, -0.07290840893983841, 0.00920572504401207
179450, 2.5360519886016846, -3.0872838497161865, -12.074891090393066, -0.1399594098329544, -0.10727318376302719, -0.027673231437802315, 0, 0, 0, 0, 0, 0, 0, 0, 0, 0, 0, 0, 0.0, 0.0, 0.0, 0.0, 16.0, -1.0, 0.0, 0.0, 0.0, 0.0, -0.03303893283009529, -0.4167996048927307, 0.016178548336029053, 0.04550249129533768, -0.07214022427797318, 0.009582048282027245
179460, 2.4195642471313477, -3.1261727809906006, -12.08044147491455, 0.05428026616573334, 0.17525464296340942, -0.2195824533700943, 0, 0, 0, 0, 0, 0, 0, 0, 0, 0, 0, 0, 0.0, 0.0, 0.0, 0.0, 15.0, -7.0, 0.0, 0.0, 0.0, 0.0, -0.033071648329496384, -0.4167018532752991, 0.01590825989842415, 0.04481568560004234, -0.07107096165418625, 0.007839847356081009
179470, 2.3689327239990234, -3.146451234817505, -12.08360767364502, 0.0859425961971283, 0.2697906792163849, -0.1292453110218048, 0, 0, 0, 0, 0, 0, 0, 0, 0, 0, 0, 0, 0.0, 0.0, 0.0, 0.0, 15.0, 7.0, 0.0, 0.0, 0.0, 0.0, -0.032917436212301254, -0.41590046882629395, 0.016121871769428253, 0.04535399749875069, -0.06327007710933685, 0.008947673253715038
179480, 2.4709877967834473, -3.125910520553589, -12.094502449035645, -0.06664823740720749, -0.12505602836608887, 0.03521718457341194, 0, 0, 0, 0, 0, 0, 0, 0, 0, 0, 0, 0, 0.0, 0.0, 0.0, 0.0, 15.0, -1.0, 0.0, 0.0, 0.0, 0.0, -0.03301161527633667, -0.41671812534332275, 0.016097938641905785, 0.04513075202703476, -0.06975710391998291, 0.008584225550293922
179491, 2.558610200881958, -3.089120626449585, -12.085694313049316, 0.05619240924715996, 0.037162963300943375, -0.06302382797002792, 0, 0, 0, 0, 0, 0, 0, 0, 0, 0, 0, 0, 0.0, 0.0, 0.0, 0.0, 15.0, -3.0, 0.0, 0.0, 0.0, 0.0, -0.03306444361805916, -0.41658756136894226, 0.016194414347410202, 0.04449357092380524, -0.06930272281169891, 0.009043434634804726
179500, 2.5179741382598877, -3.0820493698120117, -12.073969841003418, 0.08636485040187836, -0.19497190415859222, -0.1824159473180771, 0, 0, 0, 0, 0, 0, 0, 0, 0, 0, 0, 0, 0.0, 0.0, 0.0, 0.0, 12.0, 3.0, 4.0, 0.0, 0.0, 0.0, -0.03300546482205391, -0.41633105278015137, 0.016341719776391983, 0.044367969036102295, -0.06734051555395126, 0.00988552626222372
179510, 2.4592697620391846, -3.1044297218322754, -12.079591751098633, -0.038782764226198196, -0.16617584228515625, 0.08589079976081848, 0, 0, 0, 0, 0, 0, 0, 0, 0, 0, 0, 0, 0.0, 0.0, 0.0, 0.0, 12.0, 0.0, -3.0, 0.0, 0.0, 0.0, -0.033522769808769226, -0.4163851737976074, 0.015025579370558262, 0.04091010242700577, -0.06928467750549316, 0.0017132036155089736
179520, 2.4844679832458496, -3.0714800357818604, -12.092506408691406, -0.07548855245113373, -0.09600678831338882, 0.058277226984500885, 0, 0, 0, 0, 0, 0, 0, 0, 0, 0, 0, 0, 0.0, 0.0, 0.0, 0.0, 12.0, 0.0, 1.0, 0.0, 0.0, 0.0, -0.0332467257976532, -0.4164752960205078, 0.015058587305247784, 0.04361163452267647, -0.06911441683769226, 0.0024713885504752398
179530, 2.5065953731536865, -3.0751280784606934, -12.085685729980469, 0.1290503889322281, 0.0902390405535698, -0.00044761222670786083, 0, 0, 0, 0, 0, 0, 0, 0, 0, 0, 0, 0, 0.0, 0.0, 0.0, 0.0, 12.0, 0.0, -2.0, 0.0, 0.0, 0.0, -0.033284831792116165, -0.4166512191295624, 0.015131308697164059, 0.042804352939128876, -0.06926226615905762, 0.0031430439557880163
179541, 2.5419869422912598, -3.0991878509521484, -12.059886932373047, 0.028081994503736496, -0.07680976390838623, 0.01918988674879074, 0, 0, 0, 0, 0, 0, 0, 0, 0, 0, 0, 0, 0.0, 0.0, 0.0, 0.0, 12.0, 0.0, 3.0, 0.0, 0.0, 0.0, -0.03311371058225632, -0.416616827249527, 0.015168393030762672, 0.04429420828819275, -0.06918436288833618, 0.0036115110851824284
