timeTick, roll, pitch, yaw, stateX, stateY, stateZ, stateVX, stateVY, stateVZ, whisker1, whisker2, whisker3, motor1, motor2, motor3, motor4, kalX, kalY, kalZ, kalPX, kalPY, kalPZ
363893, 0.0, 0.0, 0.0, 0, 0, 0, 0, 0, 0, 0, 0, 0, 0, 0, 0, 0, 0, 0, 0, 0, 0, 0
363903, -92.59960174560547, 2.0955605506896973, 4.782724380493164, 2.04209303855896, -0.512058675289154, 0.0029210790526121855, 0.0, 0.0, 0.0, 0, 0, 0, 0.0, 0.0, 0.0, 0.0, 0, 0, 0, 0, 0, 0
363913, -90.29642486572266, 2.7875113487243652, 4.2789506912231445, 2.0420725345611572, -0.5124824643135071, 0.003380547044798732, -0.029041456058621407, -0.10244452208280563, 0.945478618144989, 0, 0, 0, 0.0, 0.0, 0.0, 0.0, 2.0420725345611572, -0.5124824643135071, 0.003380547044798732, 0.00369043811224401, -0.9512137174606323, 0.02122562751173973
363923, -89.475830078125, 3.061925172805786, 3.832707166671753, 2.042203903198242, -0.5119779706001282, 0.000641964899841696, -0.010455039329826832, 0.0871187224984169, 0.27180546522140503, 0, 0, 0, 0.0, 0.0, 0.0, 0.0, 2.042203903198242, -0.5119779706001282, 0.000641964899841696, 0.008580632507801056, -0.2624446153640747, 0.11236865073442459
363933, -89.13900756835938, 3.156806468963623, 3.458712577819824, 2.042255401611328, -0.5111849904060364, -0.006628050003200769, -0.007947553880512714, 0.18971270322799683, -0.20834103226661682, 0, 0, 0, 0.0, 0.0, 0.0, 0.0, 2.042255401611328, -0.5111849904060364, -0.006628050003200769, -0.006384127773344517, 0.2100256383419037, 0.18790648877620697
363943, -88.93603515625, 3.1471643447875977, 3.136666774749756, 2.042267322540283, -0.5118133425712585, -0.0071930913254618645, -0.007108025718480349, 0.18368154764175415, -0.2569657266139984, 0, 0, 0, 0.0, 0.0, 0.0, 0.0, 2.042267322540283, -0.5118133425712585, -0.0071930913254618645, -0.01017059851437807, 0.25952839851379395, 0.17989668250083923
363953, -86.27420806884766, 3.053642749786377, 2.8283348083496094, 2.0423154830932617, -0.5111570358276367, -0.008030540309846401, -0.005700210575014353, 0.23620140552520752, -0.30389606952667236, 0, 0, 0, 0.0, 0.0, 0.0, 0.0, 2.0423154830932617, -0.5111570358276367, -0.008030540309846401, -0.00946232583373785, 0.3081681430339813, 0.230477437376976
363963, -86.38328552246094, 2.995110511779785, 2.6305010318756104, 2.042387008666992, -0.5101059079170227, -0.009143853560090065, -0.00434336019679904, 0.29391977190971375, -0.35141465067863464, 0, 0, 0, 0.0, 0.0, 0.0, 0.0, 2.042387008666992, -0.5101059079170227, -0.009143853560090065, -0.008531278930604458, 0.3576083183288574, 0.2862592339515686
363973, -86.52549743652344, 2.8987789154052734, 2.453953266143799, 2.042279005050659, -0.5072408318519592, -0.009450029581785202, -0.006632617674767971, 0.38124632835388184, -0.3699325919151306, 0, 0, 0, 0.0, 0.0, 0.0, 0.0, 2.042279005050659, -0.5072408318519592, -0.009450029581785202, -0.008472571149468422, 0.3933027386665344, 0.3570507764816284
363983, -86.58592987060547, 2.782679557800293, 2.303934097290039, 2.0423099994659424, -0.5084377527236938, -0.01020631194114685, -0.005984661169350147, 0.3871171176433563, -0.4118702709674835, 0, 0, 0, 0.0, 0.0, 0.0, 0.0, 2.0422565937042236, -0.5069921612739563, -0.009554479271173477, -0.00909546110779047, 0.4166471064090729, 0.38532283902168274
363993, -86.64301300048828, 2.649662494659424, 2.182785987854004, 2.042285680770874, -0.5059595108032227, -0.0104818195104599, -0.005921972915530205, 0.4541979432106018, -0.4318270683288574, 0, 0, 0, 0.0, 0.0, 0.0, 0.0, 2.042285680770874, -0.5059595108032227, -0.0104818195104599, -0.008637120015919209, 0.45819181203842163, 0.427542507648468
364003, -88.3551254272461, 2.6262130737304688, 2.237309217453003, 2.0422720909118652, -0.5045016407966614, -0.011917216703295708, -0.005804418586194515, 0.5034345984458923, -0.47805917263031006, 0, 0, 0, 0.0, 0.0, 0.0, 0.0, 2.0422720909118652, -0.5045016407966614, -0.011917216703295708, -0.008740085177123547, 0.5068179965019226, 0.4744277894496918
364013, -88.30412292480469, 2.485856533050537, 2.144270420074463, 2.0422284603118896, -0.500627875328064, -0.017510131001472473, -0.006499627139419317, 0.5839595198631287, -0.5857219696044922, 0, 0, 0, 0.0, 0.0, 0.0, 0.0, 2.0422284603118896, -0.500627875328064, -0.017510131001472473, -0.010552761144936085, 0.6023703217506409, 0.5667121410369873
364023, -88.2388916015625, 2.3351967334747314, 2.075502634048462, 2.0422284603118896, -0.49985426664352417, -0.01827167347073555, -0.006122290156781673, 0.6174595355987549, -0.6171151399612427, 0, 0, 0, 0.0, 0.0, 0.0, 0.0, 2.0422284603118896, -0.49985426664352417, -0.01827167347073555, -0.009797281585633755, 0.6352691650390625, 0.5987194180488586
364033, -86.59713745117188, 2.2225613594055176, 1.9533545970916748, 2.042227268218994, -0.4971887469291687, -0.020673779770731926, -0.005580406170338392, 0.6737428307533264, -0.6674563884735107, 0, 0, 0, 0.0, 0.0, 0.0, 0.0, 2.042227268218994, -0.4971887469291687, -0.020673779770731926, -0.0083877919241786, 0.68805330991745, 0.652667224407196
364043, -86.63019561767578, 2.0801265239715576, 1.924458384513855, 2.042224884033203, -0.4956215023994446, -0.02221093885600567, -0.005234031938016415, 0.7145899534225464, -0.7065508961677551, 0, 0, 0, 0.0, 0.0, 0.0, 0.0, 2.042224884033203, -0.4956215023994446, -0.02221093885600567, -0.006850057747215033, 0.7287466526031494, 0.6919289827346802
364054, -86.65727996826172, 1.9405264854431152, 1.9023483991622925, 2.042245626449585, -0.4936659634113312, -0.024059370160102844, -0.004587707109749317, 0.7587472200393677, -0.7486209869384766, 0, 0, 0, 0.0, 0.0, 0.0, 0.0, 2.042245626449585, -0.4936659634113312, -0.024059370160102844, -0.004690283909440041, 0.7722761631011963, 0.7346590161323547
364063, -86.6244125366211, 1.7957228422164917, 1.9079996347427368, 2.0422472953796387, -0.4913308918476105, -0.026331555098295212, -0.004118975717574358, 0.8053662180900574, -0.7938462495803833, 0, 0, 0, 0.0, 0.0, 0.0, 0.0, 2.0422472953796387, -0.4913308918476105, -0.026331555098295212, -0.0024630343541502953, 0.8190858960151672, 0.7796927690505981
364073, -86.61509704589844, 1.6540679931640625, 1.9239884614944458, 2.0422444343566895, -0.48877280950546265, -0.028817759826779366, -0.004027259536087513, 0.8534929752349854, -0.8391789793968201, 0, 0, 0, 0.0, 0.0, 0.0, 0.0, 2.0422444343566895, -0.48877280950546265, -0.028817759826779366, 0.00020380645582918078, 0.8668042421340942, 0.8254356384277344
364083, -88.06302642822266, 1.6071527004241943, 2.026010513305664, 2.0422024726867676, -0.4837765097618103, -0.03224797174334526, -0.003901471383869648, 0.9210885763168335, -0.8754279017448425, 0, 0, 0, 0.0, 0.0, 0.0, 0.0, 2.0422024726867676, -0.4837765097618103, -0.03224797174334526, 0.0017445432022213936, 0.9286782145500183, 0.8673832416534424
364093, -88.00917053222656, 1.4713622331619263, 2.0635812282562256, 2.042191505432129, -0.48157018423080444, -0.03431382030248642, -0.0040998938493430614, 0.9632070660591125, -0.9138973951339722, 0, 0, 0, 0.0, 0.0, 0.0, 0.0, 2.042191505432129, -0.48157018423080444, -0.03431382030248642, 0.004594889935106039, 0.969828724861145, 0.9068686962127686
364103, -87.97801208496094, 1.3434244394302368, 2.119046211242676, 2.0421559810638428, -0.4789963662624359, -0.03683384135365486, -0.0047149364836514, 1.0074882507324219, -0.955379068851471, 0, 0, 0, 0.0, 0.0, 0.0, 0.0, 2.0421559810638428, -0.4789963662624359, -0.03683384135365486, 0.007444277871400118, 1.01442289352417, 0.9479993581771851
364114, -87.98399353027344, 1.2215651273727417, 2.1908700466156006, 2.0421230792999268, -0.47210976481437683, -0.04492993652820587, -0.005570045672357082, 1.0785174369812012, -1.0522723197937012, 0, 0, 0, 0.0, 0.0, 0.0, 0.0, 2.0421230792999268, -0.47210976481437683, -0.04492993652820587, 0.009632891975343227, 1.090168833732605, 1.0401713848114014
364123, -88.01477813720703, 1.1065336465835571, 2.273446798324585, 2.0420877933502197, -0.4729003310203552, -0.0426996648311615, -0.0060762627981603146, 1.0998073816299438, -1.0428674221038818, 0, 0, 0, 0.0, 0.0, 0.0, 0.0, 2.0420877933502197, -0.4729003310203552, -0.0426996648311615, 0.014223688282072544, 1.1070643663406372, 1.0350847244262695
364133, -86.4921875, 1.039090871810913, 2.2254912853240967, 2.042025327682495, -0.46662870049476624, -0.05027882009744644, -0.007578039076179266, 1.1594616174697876, -1.1339190006256104, 0, 0, 0, 0.0, 0.0, 0.0, 0.0, 2.042025327682495, -0.46662870049476624, -0.05027882009744644, 0.016517482697963715, 1.1739153861999512, 1.1188571453094482
364143, -88.04680633544922, 0.9100476503372192, 2.480522871017456, 2.041971445083618, -0.463968425989151, -0.05299660190939903, -0.00904869195073843, 1.1981236934661865, -1.1746386289596558, 0, 0, 0, 0.0, 0.0, 0.0, 0.0, 2.041971445083618, -0.463968425989151, -0.05299660190939903, 0.019915476441383362, 1.2153006792068481, 1.1567270755767822
364153, -86.51478576660156, 0.8559648990631104, 2.4439921379089355, 2.041879415512085, -0.4608929753303528, -0.056104402989149094, -0.010920368134975433, 1.23963463306427, -1.2166748046875, 0, 0, 0, 0.0, 0.0, 0.0, 0.0, 2.041879415512085, -0.4608929753303528, -0.056104402989149094, 0.023411555215716362, 1.2587226629257202, 1.1967425346374512
364163, -86.51929473876953, 0.7831504344940186, 2.5676119327545166, 2.041796922683716, -0.45751556754112244, -0.05951075255870819, -0.012884257361292839, 1.2819328308105469, -1.260047435760498, 0, 0, 0, 0.0, 0.0, 0.0, 0.0, 2.041796922683716, -0.45751556754112244, -0.05951075255870819, 0.027078764513134956, 1.3033853769302368, 1.2376198768615723
364173, -86.5339126586914, 0.7235478162765503, 2.6977782249450684, 2.0416955947875977, -0.4483707845211029, -0.06666074693202972, -0.013776800595223904, 1.3660786151885986, -1.3049955368041992, 0, 0, 0, 0.0, 0.0, 0.0, 0.0, 2.0416955947875977, -0.4483707845211029, -0.06666074693202972, 0.0296834297478199, 1.3794599771499634, 1.283945083618164
364183, -86.50262451171875, 0.6928088068962097, 2.833794355392456, 2.0415616035461426, -0.44289952516555786, -0.07208844274282455, -0.01634788326919079, 1.4197908639907837, -1.3520606756210327, 0, 0, 0, 0.0, 0.0, 0.0, 0.0, 2.0415616035461426, -0.44289952516555786, -0.07208844274282455, 0.03341880068182945, 1.4359078407287598, 1.334619402885437
364193, -88.0677490234375, 0.6857138872146606, 3.004014253616333, 2.041379451751709, -0.43735843896865845, -0.07760323584079742, -0.01934826374053955, 1.4728813171386719, -1.403725504875183, 0, 0, 0, 0.0, 0.0, 0.0, 0.0, 2.041379451751709, -0.43735843896865845, -0.07760323584079742, 0.036515973508358, 1.4914554357528687, 1.3836337327957153
364203, -88.0240478515625, 0.6706007122993469, 3.1431500911712646, 2.0412678718566895, -0.434789776802063, -0.0804625153541565, -0.021639617159962654, 1.5051040649414062, -1.4391990900039673, 0, 0, 0, 0.0, 0.0, 0.0, 0.0, 2.0412678718566895, -0.434789776802063, -0.0804625153541565, 0.03960054740309715, 1.5282295942306519, 1.4142365455627441
364213, -87.99480438232422, 0.6730844974517822, 3.281888961791992, 2.041038751602173, -0.42574530839920044, -0.09171704947948456, -0.025275295600295067, 1.5593374967575073, -1.5438144207000732, 0, 0, 0, 0.0, 0.0, 0.0, 0.0, 2.041038751602173, -0.42574530839920044, -0.09171704947948456, 0.04218969866633415, 1.5972316265106201, 1.5042027235031128
364223, -87.98806762695312, 0.6873574256896973, 3.4220495223999023, 2.040964365005493, -0.4282541871070862, -0.08756551146507263, -0.027109695598483086, 1.5758870840072632, -1.5151554346084595, 0, 0, 0, 0.0, 0.0, 0.0, 0.0, 2.0408642292022705, -0.42231231927871704, -0.09547390043735504, 0.044534895569086075, 1.6372491121292114, 1.5369913578033447
364233, -88.03797149658203, 0.7152889370918274, 3.564523935317993, 2.0406975746154785, -0.4186006784439087, -0.09958997368812561, -0.031017284840345383, 1.6296306848526, -1.6216121912002563, 0, 0, 0, 0.0, 0.0, 0.0, 0.0, 2.0406975746154785, -0.4186006784439087, -0.09958997368812561, 0.04685336351394653, 1.6784694194793701, 1.5706207752227783
364243, -88.02711486816406, 0.7644822001457214, 3.703011989593506, 2.0405056476593018, -0.4146420359611511, -0.10406017303466797, -0.03390682488679886, 1.663758397102356, -1.6641440391540527, 0, 0, 0, 0.0, 0.0, 0.0, 0.0, 2.0405056476593018, -0.4146420359611511, -0.10406017303466797, 0.04881863296031952, 1.7208346128463745, 1.60467529296875
364253, -86.52323150634766, 0.7801137566566467, 3.659791946411133, 2.0402750968933105, -0.4087401330471039, -0.11052289605140686, -0.036971401423215866, 1.7093820571899414, -1.715253472328186, 0, 0, 0, 0.0, 0.0, 0.0, 0.0, 2.0402750968933105, -0.4087401330471039, -0.11052289605140686, 0.050613850355148315, 1.7738749980926514, 1.6481133699417114
364264, -86.56907653808594, 0.8522064089775085, 3.7856688499450684, 2.0400378704071045, -0.39744895696640015, -0.11916498839855194, -0.03878452628850937, 1.7947883605957031, -1.7370320558547974, 0, 0, 0, 0.0, 0.0, 0.0, 0.0, 2.0400378704071045, -0.39744895696640015, -0.11916498839855194, 0.05211680009961128, 1.845800518989563, 1.6823729276657104
364273, -86.51602172851562, 0.9410591721534729, 3.8990063667297363, 2.040001392364502, -0.4029843807220459, -0.11793945729732513, -0.04091561585664749, 1.7604625225067139, -1.7868086099624634, 0, 0, 0, 0.0, 0.0, 0.0, 0.0, 2.040001392364502, -0.4029843807220459, -0.11793945729732513, 0.05218106135725975, 1.8472615480422974, 1.6966185569763184
364283, -86.52410125732422, 1.0450563430786133, 3.999274492263794, 2.039872884750366, -0.3995944559574127, -0.12222859263420105, -0.04258400946855545, 1.7879637479782104, -1.8244001865386963, 0, 0, 0, 0.0, 0.0, 0.0, 0.0, 2.0397489070892334, -0.39102789759635925, -0.12731701135635376, 0.05298112332820892, 1.921201229095459, 1.732016682624817
364293, -86.53437805175781, 1.1502797603607178, 4.08458948135376, 2.039623737335205, -0.3873639404773712, -0.13194434344768524, -0.04448021948337555, 1.8775461912155151, -1.8464659452438354, 0, 0, 0, 0.0, 0.0, 0.0, 0.0, 2.039623737335205, -0.3873639404773712, -0.13194434344768524, 0.05277379974722862, 1.9605116844177246, 1.7579052448272705
364304, -86.47027587890625, 1.2770522832870483, 4.145911693572998, 2.0395281314849854, -0.3835058808326721, -0.13685882091522217, -0.04568665474653244, 1.9055771827697754, -1.8845866918563843, 0, 0, 0, 0.0, 0.0, 0.0, 0.0, 2.0395281314849854, -0.3835058808326721, -0.13685882091522217, 0.052152227610349655, 2.000094413757324, 1.7837908267974854
364313, -88.0750961303711, 1.3586219549179077, 4.298771381378174, 2.0394856929779053, -0.381022185087204, -0.14071360230445862, -0.045815978199243546, 1.9241907596588135, -1.9173616170883179, 0, 0, 0, 0.0, 0.0, 0.0, 0.0, 2.0394856929779053, -0.381022185087204, -0.14071360230445862, 0.050661250948905945, 2.0336902141571045, 1.8006805181503296
364323, -88.10708618164062, 1.493765950202942, 4.354057312011719, 2.0392043590545654, -0.3706238567829132, -0.15545833110809326, -0.048424139618873596, 1.9602670669555664, -2.029940128326416, 0, 0, 0, 0.0, 0.0, 0.0, 0.0, 2.0392043590545654, -0.3706238567829132, -0.15545833110809326, 0.050229061394929886, 2.0989654064178467, 1.8861340284347534
364333, -88.03052520751953, 1.63359797000885, 4.387548923492432, 2.039210081100464, -0.36763817071914673, -0.16011497378349304, -0.048158127814531326, 1.9782538414001465, -2.0657684803009033, 0, 0, 0, 0.0, 0.0, 0.0, 0.0, 2.039210081100464, -0.36763817071914673, -0.16011497378349304, 0.04813488572835922, 2.1345574855804443, 1.9038351774215698
364343, -88.05474853515625, 1.7747842073440552, 4.413086891174316, 2.0392377376556396, -0.3644600510597229, -0.16504117846488953, -0.04762671887874603, 1.997318148612976, -2.101182222366333, 0, 0, 0, 0.0, 0.0, 0.0, 0.0, 2.0392377376556396, -0.3644600510597229, -0.16504117846488953, 0.045369457453489304, 2.1706583499908447, 1.9216485023498535
364353, -86.51396179199219, 1.8225432634353638, 4.293961048126221, 2.0392847061157227, -0.3611365258693695, -0.17027848958969116, -0.04664912447333336, 2.0158796310424805, -2.137869119644165, 0, 0, 0, 0.0, 0.0, 0.0, 0.0, 2.0392847061157227, -0.3611365258693695, -0.17027848958969116, 0.042340800166130066, 2.2073252201080322, 1.939687967300415
364363, -86.42039489746094, 1.965820074081421, 4.27482795715332, 2.039095878601074, -0.34816792607307434, -0.1807970553636551, -0.0482759028673172, 2.1044938564300537, -2.148738384246826, 0, 0, 0, 0.0, 0.0, 0.0, 0.0, 2.039095878601074, -0.34816792607307434, -0.1807970553636551, 0.040812719613313675, 2.2776553630828857, 1.9644228219985962
364373, -86.42381286621094, 2.101534605026245, 4.247329235076904, 2.039260149002075, -0.34608182311058044, -0.1852205991744995, -0.045792460441589355, 2.1158361434936523, -2.1787452697753906, 0, 0, 0, 0.0, 0.0, 0.0, 0.0, 2.039260149002075, -0.34608182311058044, -0.1852205991744995, 0.03724652901291847, 2.3090035915374756, 1.9730541706085205
364383, -86.44062805175781, 2.232840061187744, 4.204355716705322, 2.039466619491577, -0.34376955032348633, -0.1900101751089096, -0.0431826151907444, 2.1273553371429443, -2.210096597671509, 0, 0, 0, 0.0, 0.0, 0.0, 0.0, 2.039466619491577, -0.34376955032348633, -0.1900101751089096, 0.03336980938911438, 2.341034412384033, 1.9825522899627686
364393, -86.44062805175781, 2.232840061187744, 4.204355716705322, 2.039691925048828, -0.3412512242794037, -0.19506576657295227, -0.04022909700870514, 2.1383187770843506, -2.2423791885375977, 0, 0, 0, 0.0, 0.0, 0.0, 0.0, 2.039691925048828, -0.3412512242794037, -0.19506576657295227, 0.029194911941885948, 2.3734734058380127, 1.9920088052749634
364403, -88.22734069824219, 2.4535439014434814, 4.256433010101318, 2.0399038791656494, -0.33662155270576477, -0.2028750330209732, -0.037614479660987854, 2.1535799503326416, -2.290562868118286, 0, 0, 0, 0.0, 0.0, 0.0, 0.0, 2.0399038791656494, -0.33662155270576477, -0.2028750330209732, 0.02456892468035221, 2.4155051708221436, 2.012652635574341
364414, -88.18121337890625, 2.5630366802215576, 4.177233695983887, 2.040196418762207, -0.3342359662055969, -0.2081698775291443, -0.034425485879182816, 2.162848949432373, -2.3215224742889404, 0, 0, 0, 0.0, 0.0, 0.0, 0.0, 2.040196418762207, -0.3342359662055969, -0.2081698775291443, 0.01989629864692688, 2.4468469619750977, 2.020185947418213
364423, -88.15907287597656, 2.6661221981048584, 4.084409713745117, 2.0405704975128174, -0.33342885971069336, -0.2122974991798401, -0.03061983920633793, 2.162069082260132, -2.346820831298828, 0, 0, 0, 0.0, 0.0, 0.0, 0.0, 2.0405704975128174, -0.33342885971069336, -0.2122974991798401, 0.015013434924185276, 2.4720358848571777, 2.0178959369659424
364433, -88.11857604980469, 2.753502130508423, 3.98966646194458, 2.040661573410034, -0.32321855425834656, -0.22972048819065094, -0.029207956045866013, 2.183044672012329, -2.4575517177581787, 0, 0, 0, 0.0, 0.0, 0.0, 0.0, 2.040661573410034, -0.32321855425834656, -0.22972048819065094, 0.011640755459666252, 2.5324559211730957, 2.0958707332611084
364443, -86.61866760253906, 2.759803533554077, 3.821547508239746, 2.0410618782043457, -0.3220440745353699, -0.23434509336948395, -0.025566602125763893, 2.1847290992736816, -2.4821174144744873, 0, 0, 0, 0.0, 0.0, 0.0, 0.0, 2.0410618782043457, -0.3220440745353699, -0.23434509336948395, 0.006796032655984163, 2.55851411819458, 2.0948996543884277
364453, -86.65052795410156, 2.82039475440979, 3.716125249862671, 2.041515827178955, -0.32242247462272644, -0.23773565888404846, -0.021627873182296753, 2.1762290000915527, -2.5017848014831543, 0, 0, 0, 0.0, 0.0, 0.0, 0.0, 2.041515827178955, -0.32242247462272644, -0.23773565888404846, 0.0018116902792826295, 2.57861590385437, 2.0847420692443848
364465, -88.00592803955078, 2.937784194946289, 3.6430370807647705, 2.041741132736206, -0.3313433825969696, -0.22490747272968292, -0.019989680498838425, 2.156032085418701, -2.420511484146118, 0, 0, 0, 0.0, 0.0, 0.0, 0.0, 2.041938304901123, -0.32240915298461914, -0.24155640602111816, -0.003214756026864052, 2.599949836730957, 2.0777323246002197
364473, -86.66776275634766, 2.9199721813201904, 3.4864163398742676, 2.042353630065918, -0.3221301734447479, -0.24566298723220825, -0.014940762892365456, 2.166105031967163, -2.545203685760498, 0, 0, 0, 0.0, 0.0, 0.0, 0.0, 2.042353630065918, -0.3221301734447479, -0.24566298723220825, -0.007883087731897831, 2.6218628883361816, 2.0727062225341797
364494, -86.49710083007812, 2.964555501937866, 3.2414581775665283, 2.042750597000122, -0.3081553280353546, -0.2627241313457489, -0.014953969977796078, 2.2501964569091797, -2.5778911113739014, 0, 0, 0, 0.0, 0.0, 0.0, 0.0, 2.0428836345672607, -0.33013108372688293, -0.2373819649219513, -0.01330205611884594, 2.611720085144043, 1.9955934286117554
364503, -87.90916442871094, 3.003227710723877, 3.281444787979126, 2.0431289672851562, -0.30722111463546753, -0.267496794462204, -0.012389481998980045, 2.2528138160705566, -2.5987024307250977, 0, 0, 0, 0.0, 0.0, 0.0, 0.0, 2.0431289672851562, -0.30722111463546753, -0.267496794462204, -0.01954105868935585, 2.733786106109619, 2.0867817401885986
364513, -87.89777374267578, 2.998119592666626, 3.1553335189819336, 2.043501138687134, -0.30786314606666565, -0.27101531624794006, -0.010147287510335445, 2.2443175315856934, -2.6158807277679443, 0, 0, 0, 0.0, 0.0, 0.0, 0.0, 2.0434463024139404, -0.3197404444217682, -0.25932034850120544, -0.020825142040848732, 2.690042018890381, 2.067406415939331
364523, -87.83560943603516, 2.9773013591766357, 3.040494441986084, 2.0438122749328613, -0.3081096410751343, -0.2748032510280609, -0.00887362565845251, 2.239917039871216, -2.6322877407073975, 0, 0, 0, 0.0, 0.0, 0.0, 0.0, 2.0437958240509033, -0.32017821073532104, -0.2628661096096039, -0.02459188736975193, 2.706993341445923, 2.059000015258789
364553, -86.4381103515625, 2.85085129737854, 2.6612226963043213, 2.0445570945739746, -0.29775679111480713, -0.3020385801792145, -0.004230520687997341, 2.2484915256500244, -2.774388551712036, 0, 0, 0, 0.0, 0.0, 0.0, 0.0, 2.0445570945739746, -0.29775679111480713, -0.3020385801792145, -0.03529786691069603, 2.861532688140869, 2.136211633682251
364563, -86.41869354248047, 2.7966768741607666, 2.5533108711242676, 2.044764995574951, -0.29726356267929077, -0.3065590262413025, -0.003511463524773717, 2.2456881999969482, -2.7935080528259277, 0, 0, 0, 0.0, 0.0, 0.0, 0.0, 2.044790267944336, -0.319192111492157, -0.27907201647758484, -0.035728782415390015, 2.780856132507324, 2.038658618927002
364573, -86.39875793457031, 2.728400230407715, 2.457292079925537, 2.044764995574951, -0.29726356267929077, -0.3065590262413025, -0.003511463524773717, 2.2456881999969482, -2.7935080528259277, 0, 0, 0, 0.0, 0.0, 0.0, 0.0, 2.044818639755249, -0.2967032492160797, -0.31963396072387695, -0.04123392328619957, 2.9404661655426025, 2.0840508937835693
364583, -87.73255157470703, 2.7237625122070312, 2.4968957901000977, 2.044764995574951, -0.29726356267929077, -0.3065590262413025, -0.003511463524773717, 2.2456881999969482, -2.7935080528259277, 0, 0, 0, 0.0, 0.0, 0.0, 0.0, 2.044945240020752, -0.30767685174942017, -0.29515084624290466, -0.038891296833753586, 2.855318546295166, 2.0410289764404297
364593, -86.43325805664062, 2.5682499408721924, 2.2989919185638428, 2.044764995574951, -0.29726356267929077, -0.3065590262413025, -0.003511463524773717, 2.2456881999969482, -2.7935080528259277, 0, 0, 0, 0.0, 0.0, 0.0, 0.0, 2.0450432300567627, -0.30816853046417236, -0.29856595396995544, -0.03993723541498184, 2.8682918548583984, 2.0322635173797607
364603, -87.74186706542969, 2.5531680583953857, 2.346426248550415, 2.0450351238250732, -0.28587284684181213, -0.33014607429504395, -0.0068841613829135895, 2.3040692806243896, -2.8393285274505615, 0, 0, 0, 0.0, 0.0, 0.0, 0.0, 2.0450968742370605, -0.30838510394096375, -0.3021882474422455, -0.040563877671957016, 2.8816184997558594, 2.0253822803497314
364613, -87.79351806640625, 2.45453143119812, 2.281752109527588, 2.045069694519043, -0.28768834471702576, -0.3325424790382385, -0.007658779621124268, 2.289585590362549, -2.8472483158111572, 0, 0, 0, 0.0, 0.0, 0.0, 0.0, 2.0450968742370605, -0.30838510394096375, -0.3021882474422455, -0.040563877671957016, 2.8816184997558594, 2.0253822803497314
364623, -87.81233215332031, 2.3534622192382812, 2.235558032989502, 2.0451836585998535, -0.3009685277938843, -0.32280901074409485, -0.006021426524966955, 2.1960768699645996, -2.8564436435699463, 0, 0, 0, 0.0, 0.0, 0.0, 0.0, 2.0450968742370605, -0.30838510394096375, -0.3021882474422455, -0.040563877671957016, 2.8816184997558594, 2.0253822803497314
364633, -87.83194732666016, 2.2384908199310303, 2.2014148235321045, 2.0451836585998535, -0.3009685277938843, -0.32280901074409485, -0.006021426524966955, 2.1960768699645996, -2.8564436435699463, 0, 0, 0, 0.0, 0.0, 0.0, 0.0, 2.0451347827911377, -0.30214014649391174, -0.32547202706336975, -0.04016057401895523, 2.9475924968719482, 2.0715982913970947
364643, -86.37335205078125, 2.150620460510254, 2.0962886810302734, 2.044908046722412, -0.2807730734348297, -0.3575778007507324, -0.010695860721170902, 2.2755372524261475, -2.968113660812378, 0, 0, 0, 0.0, 0.0, 0.0, 0.0, 2.045010566711426, -0.30299678444862366, -0.32834431529045105, -0.03885708004236221, 2.956223487854004, 2.0617480278015137
364654, -86.39985656738281, 2.038090705871582, 2.0767428874969482, 2.044908046722412, -0.2807730734348297, -0.3575778007507324, -0.010695860721170902, 2.2755372524261475, -2.968113660812378, 0, 0, 0, 0.0, 0.0, 0.0, 0.0, 2.0448591709136963, -0.3036077618598938, -0.3313416540622711, -0.037196602672338486, 2.965451240539551, 2.0529568195343018
364663, -86.39935302734375, 1.9170399904251099, 2.0631325244903564, 2.0445098876953125, -0.2797456383705139, -0.3669000566005707, -0.015770718455314636, 2.26712703704834, -2.998185873031616, 0, 0, 0, 0.0, 0.0, 0.0, 0.0, 2.0445098876953125, -0.2797456383705139, -0.3669000566005707, -0.035548459738492966, 3.0839035511016846, 2.1488523483276367
364673, -86.36804962158203, 1.7953740358352661, 2.070058584213257, 2.0442349910736084, -0.2781922221183777, -0.3730059564113617, -0.018779849633574486, 2.2675728797912598, -3.016937732696533, 0, 0, 0, 0.0, 0.0, 0.0, 0.0, 2.0444109439849854, -0.2898235619068146, -0.35028427839279175, -0.0342252179980278, 3.0404293537139893, 2.0639641284942627
364683, -86.3707275390625, 1.675032615661621, 2.0842065811157227, 2.044123411178589, -0.28825730085372925, -0.35615426301956177, -0.02144080400466919, 2.2542238235473633, -2.9203453063964844, 0, 0, 0, 0.0, 0.0, 0.0, 0.0, 2.0444109439849854, -0.2898235619068146, -0.35028427839279175, -0.0342252179980278, 3.0404293537139893, 2.0639641284942627
364694, -87.79878234863281, 1.6411350965499878, 2.1860320568084717, 2.044123411178589, -0.28825730085372925, -0.35615426301956177, -0.02144080400466919, 2.2542238235473633, -2.9203453063964844, 0, 0, 0, 0.0, 0.0, 0.0, 0.0, 2.043862819671631, -0.29048994183540344, -0.35755032300949097, -0.02844284474849701, 3.057865858078003, 2.045250415802002
364704, -87.80409240722656, 1.523429274559021, 2.2207348346710205, 2.044123411178589, -0.28825730085372925, -0.35615426301956177, -0.02144080400466919, 2.2542238235473633, -2.9203453063964844, 0, 0, 0, 0.0, 0.0, 0.0, 0.0, 2.0435662269592285, -0.2923584282398224, -0.3591907024383545, -0.02526967227458954, 3.0586295127868652, 2.0294806957244873
364713, -87.80377197265625, 1.4155231714248657, 2.2727856636047363, 2.0432233810424805, -0.2939110994338989, -0.3610200583934784, -0.03091665916144848, 2.2066612243652344, -2.9250245094299316, 0, 0, 0, 0.0, 0.0, 0.0, 0.0, 2.0432233810424805, -0.2939110994338989, -0.3610200583934784, -0.021669555455446243, 3.0595479011535645, 2.0161421298980713
364723, -87.81150817871094, 1.3137919902801514, 2.334333658218384, 2.0429370403289795, -0.285979300737381, -0.37930262088775635, -0.03202277794480324, 2.2026774883270264, -3.0214006900787354, 0, 0, 0, 0.0, 0.0, 0.0, 0.0, 2.0432233810424805, -0.2939110994338989, -0.3610200583934784, -0.021669555455446243, 3.0595479011535645, 2.0161421298980713
364733, -87.82542419433594, 1.2125099897384644, 2.414943218231201, 2.0429370403289795, -0.285979300737381, -0.37930262088775635, -0.03202277794480324, 2.2026774883270264, -3.0214006900787354, 0, 0, 0, 0.0, 0.0, 0.0, 0.0, 2.0432233810424805, -0.2939110994338989, -0.3610200583934784, -0.021669555455446243, 3.0595479011535645, 2.0161421298980713
364743, -86.279052734375, 1.1500853300094604, 2.360616683959961, 2.042095422744751, -0.2861507833003998, -0.3862348794937134, -0.039064496755599976, 2.1884708404541016, -3.0344314575195312, 0, 0, 0, 0.0, 0.0, 0.0, 0.0, 2.0432233810424805, -0.2939110994338989, -0.3610200583934784, -0.021669555455446243, 3.0595479011535645, 2.0161421298980713
364753, -86.28888702392578, 1.066525936126709, 2.454087257385254, 2.041699171066284, -0.2889288663864136, -0.38656988739967346, -0.042187243700027466, 2.1665232181549072, -3.02836537361145, 0, 0, 0, 0.0, 0.0, 0.0, 0.0, 2.0432233810424805, -0.2939110994338989, -0.3610200583934784, -0.021669555455446243, 3.0595479011535645, 2.0161421298980713
364773, -86.29560852050781, 0.936087965965271, 2.6638572216033936, 2.040886163711548, -0.2797493636608124, -0.3990972936153412, -0.046957746148109436, 2.2354722023010254, -3.0108532905578613, 0, 0, 0, 0.0, 0.0, 0.0, 0.0, 2.0413103103637695, -0.2912825644016266, -0.3870546221733093, -0.0025055024307221174, 3.101810932159424, 2.0316364765167236
364783, -86.3160171508789, 0.8867889642715454, 2.7750422954559326, 2.040503740310669, -0.28187456727027893, -0.3998206555843353, -0.04947821423411369, 2.2176454067230225, -3.006831407546997, 0, 0, 0, 0.0, 0.0, 0.0, 0.0, 2.0413103103637695, -0.2912825644016266, -0.3870546221733093, -0.0025055024307221174, 3.101810932159424, 2.0316364765167236
364793, -87.77894592285156, 0.8923718333244324, 2.9305126667022705, 2.0400891304016113, -0.2817325294017792, -0.40352439880371094, -0.05188046395778656, 2.209909439086914, -3.0118088722229004, 0, 0, 0, 0.0, 0.0, 0.0, 0.0, 2.0413103103637695, -0.2912825644016266, -0.3870546221733093, -0.0025055024307221174, 3.101810932159424, 2.0316364765167236
364803, -87.78353118896484, 0.8672600984573364, 3.043884515762329, 2.0400891304016113, -0.2817325294017792, -0.40352439880371094, -0.05188046395778656, 2.209909439086914, -3.0118088722229004, 0, 0, 0, 0.0, 0.0, 0.0, 0.0, 2.0397918224334717, -0.2837632894515991, -0.4041520059108734, 0.012050607241690159, 3.1416051387786865, 1.9959187507629395
364823, -87.78562927246094, 0.8572917580604553, 3.279794216156006, 2.038986921310425, -0.27342477440834045, -0.42978522181510925, -0.05602644383907318, 2.194645643234253, -3.1162595748901367, 0, 0, 0, 0.0, 0.0, 0.0, 0.0, 2.0397918224334717, -0.2837632894515991, -0.4041520059108734, 0.012050607241690159, 3.1416051387786865, 1.9959187507629395
364843, -86.2481689453125, 0.8701028227806091, 3.361936092376709, 2.038335084915161, -0.26148390769958496, -0.4446389079093933, -0.0580064058303833, 2.2759385108947754, -3.102386236190796, 0, 0, 0, 0.0, 0.0, 0.0, 0.0, 2.0397918224334717, -0.2837632894515991, -0.4041520059108734, 0.012050607241690159, 3.1416051387786865, 1.9959187507629395
364864, -86.22289276123047, 0.9615793824195862, 3.5918989181518555, 2.0381875038146973, -0.26916059851646423, -0.44125232100486755, -0.056538745760917664, 2.2254886627197266, -3.0714821815490723, 0, 0, 0, 0.0, 0.0, 0.0, 0.0, 2.0384998321533203, -0.2812475562095642, -0.4293764531612396, 0.027715714648365974, 3.1655771732330322, 2.012019157409668
364873, -86.22702026367188, 1.025099277496338, 3.687312364578247, 2.0381875038146973, -0.26916059851646423, -0.44125232100486755, -0.056538745760917664, 2.2254886627197266, -3.0714821815490723, 0, 0, 0, 0.0, 0.0, 0.0, 0.0, 2.038485288619995, -0.28734177350997925, -0.4266667068004608, 0.03144652396440506, 3.135118246078491, 1.9725223779678345
364883, -86.24651336669922, 1.1022944450378418, 3.786344289779663, 2.0381875038146973, -0.26916059851646423, -0.44125232100486755, -0.056538745760917664, 2.2254886627197266, -3.0714821815490723, 0, 0, 0, 0.0, 0.0, 0.0, 0.0, 2.038485288619995, -0.28734177350997925, -0.4266667068004608, 0.03144652396440506, 3.135118246078491, 1.9725223779678345
364933, -87.78009796142578, 1.6063588857650757, 4.181215286254883, 2.038821220397949, -0.27954190969467163, -0.4487336277961731, -0.04376682639122009, 2.111140012741089, -3.080171585083008, 0, 0, 0, 0.0, 0.0, 0.0, 0.0, 2.038485288619995, -0.28734177350997925, -0.4266667068004608, 0.03144652396440506, 3.135118246078491, 1.9725223779678345
364944, -86.19924926757812, 1.6411550045013428, 4.076334476470947, 2.038821220397949, -0.27954190969467163, -0.4487336277961731, -0.04376682639122009, 2.111140012741089, -3.080171585083008, 0, 0, 0, 0.0, 0.0, 0.0, 0.0, 2.038485288619995, -0.28734177350997925, -0.4266667068004608, 0.03144652396440506, 3.135118246078491, 1.9725223779678345
364954, -86.20745849609375, 1.7577629089355469, 4.101619720458984, 2.038821220397949, -0.27954190969467163, -0.4487336277961731, -0.04376682639122009, 2.111140012741089, -3.080171585083008, 0, 0, 0, 0.0, 0.0, 0.0, 0.0, 2.0400452613830566, -0.28883957862854004, -0.442038357257843, 0.02837071195244789, 3.105118751525879, 1.933321475982666
364983, -86.29461669921875, 2.109088897705078, 4.0609893798828125, 2.0410995483398438, -0.2838174104690552, -0.4463123083114624, -0.024165434762835503, 2.1080234050750732, -2.9753785133361816, 0, 0, 0, 0.0, 0.0, 0.0, 0.0, 2.0400452613830566, -0.28883957862854004, -0.442038357257843, 0.02837071195244789, 3.105118751525879, 1.933321475982666
364994, -87.7442626953125, 2.196408748626709, 4.156735897064209, 2.0410995483398438, -0.2838174104690552, -0.4463123083114624, -0.024165434762835503, 2.1080234050750732, -2.9753785133361816, 0, 0, 0, 0.0, 0.0, 0.0, 0.0, 2.0400452613830566, -0.28883957862854004, -0.442038357257843, 0.02837071195244789, 3.105118751525879, 1.933321475982666
365003, -87.72233581542969, 2.3007240295410156, 4.108304500579834, 2.0410995483398438, -0.2838174104690552, -0.4463123083114624, -0.024165434762835503, 2.1080234050750732, -2.9753785133361816, 0, 0, 0, 0.0, 0.0, 0.0, 0.0, 2.0400452613830566, -0.28883957862854004, -0.442038357257843, 0.02837071195244789, 3.105118751525879, 1.933321475982666
365023, -87.7281265258789, 2.4857351779937744, 3.9861011505126953, 2.0431365966796875, -0.28837645053863525, -0.45014896988868713, -0.011150176636874676, 2.0537214279174805, -2.9901678562164307, 0, 0, 0, 0.0, 0.0, 0.0, 0.0, 2.0400452613830566, -0.28883957862854004, -0.442038357257843, 0.02837071195244789, 3.105118751525879, 1.933321475982666
365043, -87.73594665527344, 2.6363484859466553, 3.837764024734497, 2.043699026107788, -0.291072279214859, -0.4465901255607605, -0.008030842989683151, 2.042722702026367, -2.9706642627716064, 0, 0, 0, 0.0, 0.0, 0.0, 0.0, 2.0400452613830566, -0.28883957862854004, -0.442038357257843, 0.02837071195244789, 3.105118751525879, 1.933321475982666
365053, -86.30120849609375, 2.6331279277801514, 3.689256429672241, 2.043699026107788, -0.291072279214859, -0.4465901255607605, -0.008030842989683151, 2.042722702026367, -2.9706642627716064, 0, 0, 0, 0.0, 0.0, 0.0, 0.0, 2.044759511947632, -0.29830971360206604, -0.4370904266834259, -0.002714994130656123, 3.0040860176086426, 1.8866541385650635
365073, -86.26691436767578, 2.7293338775634766, 3.493199586868286, 2.045344829559326, -0.2913849949836731, -0.4414036273956299, -0.003015173366293311, 2.0741186141967773, -2.890817403793335, 0, 0, 0, 0.0, 0.0, 0.0, 0.0, 2.044759511947632, -0.29830971360206604, -0.4370904266834259, -0.002714994130656123, 3.0040860176086426, 1.8866541385650635
365083, -87.5550537109375, 2.7898077964782715, 3.5413529872894287, 2.045344829559326, -0.2913849949836731, -0.4414036273956299, -0.003015173366293311, 2.0741186141967773, -2.890817403793335, 0, 0, 0, 0.0, 0.0, 0.0, 0.0, 2.0457494258880615, -0.2934279441833496, -0.4379316568374634, -0.012455098330974579, 3.006284236907959, 1.8738734722137451
365103, -87.55146026611328, 2.840466022491455, 3.3357033729553223, 2.045344829559326, -0.2913849949836731, -0.4414036273956299, -0.003015173366293311, 2.0741186141967773, -2.890817403793335, 0, 0, 0, 0.0, 0.0, 0.0, 0.0, 2.0457494258880615, -0.2934279441833496, -0.4379316568374634, -0.012455098330974579, 3.006284236907959, 1.8738734722137451
365113, -87.56743621826172, 2.845128297805786, 3.2350685596466064, 2.045344829559326, -0.2913849949836731, -0.4414036273956299, -0.003015173366293311, 2.0741186141967773, -2.890817403793335, 0, 0, 0, 0.0, 0.0, 0.0, 0.0, 2.0467708110809326, -0.29168474674224854, -0.44443532824516296, -0.02186467871069908, 3.005291700363159, 1.9352420568466187
365123, -87.5747299194336, 2.845252275466919, 3.1356441974639893, 2.045344829559326, -0.2913849949836731, -0.4414036273956299, -0.003015173366293311, 2.0741186141967773, -2.890817403793335, 0, 0, 0, 0.0, 0.0, 0.0, 0.0, 2.0467708110809326, -0.29168474674224854, -0.44443532824516296, -0.02186467871069908, 3.005291700363159, 1.9352420568466187
365133, -86.27565002441406, 2.8055174350738525, 2.993701219558716, 2.0472941398620605, -0.29681894183158875, -0.43560370802879333, 0.003942733630537987, 2.0479373931884766, -2.883441686630249, 0, 0, 0, 0.0, 0.0, 0.0, 0.0, 2.0467708110809326, -0.29168474674224854, -0.44443532824516296, -0.02186467871069908, 3.005291700363159, 1.9352420568466187
365143, -86.2808837890625, 2.780440092086792, 2.887080669403076, 2.0472941398620605, -0.29681894183158875, -0.43560370802879333, 0.003942733630537987, 2.0479373931884766, -2.883441686630249, 0, 0, 0, 0.0, 0.0, 0.0, 0.0, 2.0467708110809326, -0.29168474674224854, -0.44443532824516296, -0.02186467871069908, 3.005291700363159, 1.9352420568466187
365153, -86.18252563476562, 2.7503724098205566, 2.7881126403808594, 2.0476441383361816, -0.30142080783843994, -0.4271390438079834, 0.0038733778055757284, 2.033837080001831, -2.8526108264923096, 0, 0, 0, 0.0, 0.0, 0.0, 0.0, 2.0476441383361816, -0.30142080783843994, -0.4271390438079834, -0.031838711351156235, 2.9368512630462646, 1.9099318981170654
365173, -87.57288360595703, 2.7217600345611572, 2.740006685256958, 2.0476441383361816, -0.30142080783843994, -0.4271390438079834, 0.0038733778055757284, 2.033837080001831, -2.8526108264923096, 0, 0, 0, 0.0, 0.0, 0.0, 0.0, 2.0476441383361816, -0.30142080783843994, -0.4271390438079834, -0.031838711351156235, 2.9368512630462646, 1.9099318981170654
365184, -87.53663635253906, 2.658571243286133, 2.654540777206421, 2.0476441383361816, -0.30142080783843994, -0.4271390438079834, 0.0038733778055757284, 2.033837080001831, -2.8526108264923096, 0, 0, 0, 0.0, 0.0, 0.0, 0.0, 2.0476441383361816, -0.30142080783843994, -0.4271390438079834, -0.031838711351156235, 2.9368512630462646, 1.9099318981170654
365193, -87.56704711914062, 2.591989040374756, 2.5767295360565186, 2.0476458072662354, -0.2957877814769745, -0.42512616515159607, -0.0016629861202090979, 2.1024951934814453, -2.8070616722106934, 0, 0, 0, 0.0, 0.0, 0.0, 0.0, 2.0476441383361816, -0.30142080783843994, -0.4271390438079834, -0.031838711351156235, 2.9368512630462646, 1.9099318981170654
365203, -87.53194427490234, 2.5198514461517334, 2.5024876594543457, 2.0475752353668213, -0.2974441647529602, -0.42148956656455994, -0.002856240840628743, 2.0991709232330322, -2.7939469814300537, 0, 0, 0, 0.0, 0.0, 0.0, 0.0, 2.0476441383361816, -0.30142080783843994, -0.4271390438079834, -0.031838711351156235, 2.9368512630462646, 1.9099318981170654
365213, -87.54199981689453, 2.44023060798645, 2.4422154426574707, 2.0476136207580566, -0.28912749886512756, -0.43728941679000854, -0.002408806001767516, 2.1152546405792236, -2.8817007541656494, 0, 0, 0, 0.0, 0.0, 0.0, 0.0, 2.0476136207580566, -0.28912749886512756, -0.43728941679000854, -0.036831457167863846, 2.9712061882019043, 1.9872429370880127
365223, -87.55870056152344, 2.3543739318847656, 2.389403820037842, 2.0474815368652344, -0.29026827216148376, -0.43421676754951477, -0.0038905348628759384, 2.112229585647583, -2.872891902923584, 0, 0, 0, 0.0, 0.0, 0.0, 0.0, 2.0474815368652344, -0.29026827216148376, -0.43421676754951477, -0.03627914562821388, 2.961826801300049, 1.9852838516235352
365233, -87.57780456542969, 2.2535643577575684, 2.350698232650757, 2.0474815368652344, -0.29026827216148376, -0.43421676754951477, -0.0038905348628759384, 2.112229585647583, -2.872891902923584, 0, 0, 0, 0.0, 0.0, 0.0, 0.0, 2.047300338745117, -0.29112738370895386, -0.4315447211265564, -0.035406336188316345, 2.953911542892456, 1.9845222234725952
365243, -86.1744613647461, 2.1716864109039307, 2.2422046661376953, 2.0474815368652344, -0.29026827216148376, -0.43421676754951477, -0.0038905348628759384, 2.112229585647583, -2.872891902923584, 0, 0, 0, 0.0, 0.0, 0.0, 0.0, 2.047060489654541, -0.2896624207496643, -0.4321063160896301, -0.03407999500632286, 2.9573044776916504, 1.993871808052063
365253, -86.1592788696289, 2.070219039916992, 2.217617988586426, 2.0468010902404785, -0.2882879674434662, -0.4326755106449127, -0.010324201546609402, 2.1261067390441895, -2.873039484024048, 0, 0, 0, 0.0, 0.0, 0.0, 0.0, 2.0468010902404785, -0.2882879674434662, -0.4326755106449127, -0.032330222427845, 2.9604687690734863, 2.0023539066314697
365283, -86.22877502441406, 1.758641242980957, 2.200421094894409, 2.0459115505218506, -0.2804420590400696, -0.43547964096069336, -0.018163291737437248, 2.1908140182495117, -2.84220027923584, 0, 0, 0, 0.0, 0.0, 0.0, 0.0, 2.0468010902404785, -0.2882879674434662, -0.4326755106449127, -0.032330222427845, 2.9604687690734863, 2.0023539066314697
365293, -87.69023895263672, 1.7330083847045898, 2.301874876022339, 2.0459115505218506, -0.2804420590400696, -0.43547964096069336, -0.018163291737437248, 2.1908140182495117, -2.84220027923584, 0, 0, 0, 0.0, 0.0, 0.0, 0.0, 2.0457704067230225, -0.3033042252063751, -0.40471333265304565, -0.02419455349445343, 2.8750760555267334, 1.8955389261245728
365303, -87.71363067626953, 1.632185935974121, 2.327306032180786, 2.0451951026916504, -0.2832898199558258, -0.43016138672828674, -0.02337484620511532, 2.175992727279663, -2.827204465866089, 0, 0, 0, 0.0, 0.0, 0.0, 0.0, 2.0451951026916504, -0.2832898199558258, -0.43016138672828674, -0.02081896923482418, 2.9662349224090576, 1.982332468032837
365313, -87.72842407226562, 1.5339246988296509, 2.3578474521636963, 2.0451767444610596, -0.2967819273471832, -0.4173886179924011, -0.023393863812088966, 2.0781946182250977, -2.8266944885253906, 0, 0, 0, 0.0, 0.0, 0.0, 0.0, 2.0451767444610596, -0.2967819273471832, -0.4173886179924011, -0.019521433860063553, 2.9079177379608154, 1.9629889726638794
365324, -87.65019226074219, 1.5339856147766113, 2.35493803024292, 2.0451767444610596, -0.2967819273471832, -0.4173886179924011, -0.023393863812088966, 2.0781946182250977, -2.8266944885253906, 0, 0, 0, 0.0, 0.0, 0.0, 0.0, 2.044811964035034, -0.2991634011268616, -0.4138876795768738, -0.01649782620370388, 2.8943164348602295, 1.950077772140503
365333, -87.65081024169922, 1.4338150024414062, 2.4125359058380127, 2.0451767444610596, -0.2967819273471832, -0.4173886179924011, -0.023393863812088966, 2.0781946182250977, -2.8266944885253906, 0, 0, 0, 0.0, 0.0, 0.0, 0.0, 2.044811964035034, -0.2991634011268616, -0.4138876795768738, -0.01649782620370388, 2.8943164348602295, 1.950077772140503
365354, -86.19409942626953, 1.2017124891281128, 2.4842844009399414, 2.0436437129974365, -0.29147931933403015, -0.41935187578201294, -0.03451372683048248, 2.125255823135376, -2.784522533416748, 0, 0, 0, 0.0, 0.0, 0.0, 0.0, 2.044811964035034, -0.2991634011268616, -0.4138876795768738, -0.01649782620370388, 2.8943164348602295, 1.950077772140503
365373, -86.21171569824219, 1.0649892091751099, 2.6572885513305664, 2.0427932739257812, -0.30676713585853577, -0.40248727798461914, -0.03999475762248039, 2.015998125076294, -2.7690024375915527, 0, 0, 0, 0.0, 0.0, 0.0, 0.0, 2.0432093143463135, -0.30552560091018677, -0.4046843945980072, -0.0021419734694063663, 2.8552422523498535, 1.9108747243881226
365383, -87.68505859375, 1.0545744895935059, 2.802582025527954, 2.0427932739257812, -0.30676713585853577, -0.40248727798461914, -0.03999475762248039, 2.015998125076294, -2.7690024375915527, 0, 0, 0, 0.0, 0.0, 0.0, 0.0, 2.0432093143463135, -0.30552560091018677, -0.4046843945980072, -0.0021419734694063663, 2.8552422523498535, 1.9108747243881226
365413, -87.64300537109375, 0.9834397435188293, 3.12021803855896, 2.0415666103363037, -0.29460886120796204, -0.41320592164993286, -0.04577834904193878, 2.102684497833252, -2.763091802597046, 0, 0, 0, 0.0, 0.0, 0.0, 0.0, 2.0419063568115234, -0.29313674569129944, -0.41541630029678345, 0.008135835640132427, 2.9051706790924072, 1.9236518144607544
365433, -87.66708374023438, 0.9967705607414246, 3.338299512863159, 2.0406627655029297, -0.29294076561927795, -0.42149657011032104, -0.048650238662958145, 2.070923089981079, -2.823305606842041, 0, 0, 0, 0.0, 0.0, 0.0, 0.0, 2.0419063568115234, -0.29313674569129944, -0.41541630029678345, 0.008135835640132427, 2.9051706790924072, 1.9236518144607544
365443, -86.0861587524414, 0.9954934120178223, 3.285031795501709, 2.0406627655029297, -0.29294076561927795, -0.42149657011032104, -0.048650238662958145, 2.070923089981079, -2.823305606842041, 0, 0, 0, 0.0, 0.0, 0.0, 0.0, 2.0419063568115234, -0.29313674569129944, -0.41541630029678345, 0.008135835640132427, 2.9051706790924072, 1.9236518144607544
365454, -86.13672637939453, 1.0187736749649048, 3.3819332122802734, 2.0406627655029297, -0.29294076561927795, -0.42149657011032104, -0.048650238662958145, 2.070923089981079, -2.823305606842041, 0, 0, 0, 0.0, 0.0, 0.0, 0.0, 2.0403051376342773, -0.29824045300483704, -0.41471317410469055, 0.024039728567004204, 2.8775949478149414, 1.9209779500961304
365483, -87.6231460571289, 1.1627782583236694, 3.732140302658081, 2.039764404296875, -0.288500040769577, -0.42299988865852356, -0.04902650788426399, 2.110582113265991, -2.7765743732452393, 0, 0, 0, 0.0, 0.0, 0.0, 0.0, 2.0403051376342773, -0.29824045300483704, -0.41471317410469055, 0.024039728567004204, 2.8775949478149414, 1.9209779500961304
365493, -87.62047576904297, 1.2255949974060059, 3.8162660598754883, 2.039764404296875, -0.288500040769577, -0.42299988865852356, -0.04902650788426399, 2.110582113265991, -2.7765743732452393, 0, 0, 0, 0.0, 0.0, 0.0, 0.0, 2.0403051376342773, -0.29824045300483704, -0.41471317410469055, 0.024039728567004204, 2.8775949478149414, 1.9209779500961304
365504, -87.62387084960938, 1.3026320934295654, 3.8952245712280273, 2.039813756942749, -0.2940971553325653, -0.41615962982177734, -0.04621574282646179, 2.0785677433013916, -2.7487261295318604, 0, 0, 0, 0.0, 0.0, 0.0, 0.0, 2.039813756942749, -0.2940971553325653, -0.41615962982177734, 0.02996029704809189, 2.88460636138916, 1.8858070373535156
365523, -87.65941619873047, 1.4851298332214355, 4.00739860534668, 2.039813756942749, -0.2940971553325653, -0.41615962982177734, -0.04621574282646179, 2.0785677433013916, -2.7487261295318604, 0, 0, 0, 0.0, 0.0, 0.0, 0.0, 2.039813756942749, -0.2940971553325653, -0.41615962982177734, 0.02996029704809189, 2.88460636138916, 1.8858070373535156
365533, -87.63713073730469, 1.5833081007003784, 4.046438217163086, 2.039813756942749, -0.2940971553325653, -0.41615962982177734, -0.04621574282646179, 2.0785677433013916, -2.7487261295318604, 0, 0, 0, 0.0, 0.0, 0.0, 0.0, 2.039813756942749, -0.2940971553325653, -0.41615962982177734, 0.02996029704809189, 2.88460636138916, 1.8858070373535156
365553, -86.10794830322266, 1.7201502323150635, 3.9568798542022705, 2.0402042865753174, -0.28536489605903625, -0.42895442247390747, -0.039418578147888184, 2.1140263080596924, -2.778716564178467, 0, 0, 0, 0.0, 0.0, 0.0, 0.0, 2.039813756942749, -0.2940971553325653, -0.41615962982177734, 0.02996029704809189, 2.88460636138916, 1.8858070373535156
365593, -87.60246276855469, 2.0893659591674805, 4.0446696281433105, 2.0414836406707764, -0.2911410331726074, -0.4288519024848938, -0.027707500383257866, 2.046071767807007, -2.8076674938201904, 0, 0, 0, 0.0, 0.0, 0.0, 0.0, 2.039813756942749, -0.2940971553325653, -0.41615962982177734, 0.02996029704809189, 2.88460636138916, 1.8858070373535156
365603, -87.60443878173828, 2.177790641784668, 4.01277494430542, 2.0414836406707764, -0.2911410331726074, -0.4288519024848938, -0.027707500383257866, 2.046071767807007, -2.8076674938201904, 0, 0, 0, 0.0, 0.0, 0.0, 0.0, 2.039813756942749, -0.2940971553325653, -0.41615962982177734, 0.02996029704809189, 2.88460636138916, 1.8858070373535156
365613, -87.58032989501953, 2.2649195194244385, 3.9778990745544434, 2.0422346591949463, -0.2954053580760956, -0.4220006763935089, -0.02344684675335884, 2.033515214920044, -2.7813217639923096, 0, 0, 0, 0.0, 0.0, 0.0, 0.0, 2.039813756942749, -0.2940971553325653, -0.41615962982177734, 0.02996029704809189, 2.88460636138916, 1.8858070373535156
365623, -87.54965209960938, 2.3405368328094482, 3.92948055267334, 2.0422346591949463, -0.2954053580760956, -0.4220006763935089, -0.02344684675335884, 2.033515214920044, -2.7813217639923096, 0, 0, 0, 0.0, 0.0, 0.0, 0.0, 2.039813756942749, -0.2940971553325653, -0.41615962982177734, 0.02996029704809189, 2.88460636138916, 1.8858070373535156
365633, -86.13661193847656, 2.347653388977051, 3.797741651535034, 2.0430338382720947, -0.30132439732551575, -0.41335299611091614, -0.018697576597332954, 2.0106236934661865, -2.7478339672088623, 0, 0, 0, 0.0, 0.0, 0.0, 0.0, 2.0430338382720947, -0.30132439732551575, -0.41335299611091614, 0.0068140518851578236, 2.8337113857269287, 1.8877571821212769
365653, -86.3580093383789, 2.479304313659668, 3.68967866897583, 2.043393850326538, -0.29217177629470825, -0.419197678565979, -0.01914558932185173, 2.0849051475524902, -2.7345550060272217, 0, 0, 0, 0.0, 0.0, 0.0, 0.0, 2.0430338382720947, -0.30132439732551575, -0.41335299611091614, 0.0068140518851578236, 2.8337113857269287, 1.8877571821212769
365663, -86.31256866455078, 2.535332679748535, 3.6118345260620117, 2.043393850326538, -0.29217177629470825, -0.419197678565979, -0.01914558932185173, 2.0849051475524902, -2.7345550060272217, 0, 0, 0, 0.0, 0.0, 0.0, 0.0, 2.0430338382720947, -0.30132439732551575, -0.41335299611091614, 0.0068140518851578236, 2.8337113857269287, 1.8877571821212769
365673, -86.31653594970703, 2.5930421352386475, 3.5381863117218018, 2.0441057682037354, -0.2970099449157715, -0.41189318895339966, -0.015057834796607494, 2.065110445022583, -2.7142961025238037, 0, 0, 0, 0.0, 0.0, 0.0, 0.0, 2.0430338382720947, -0.30132439732551575, -0.41335299611091614, 0.0068140518851578236, 2.8337113857269287, 1.8877571821212769
365683, -87.71353912353516, 2.655142307281494, 3.5970048904418945, 2.0441057682037354, -0.2970099449157715, -0.41189318895339966, -0.015057834796607494, 2.065110445022583, -2.7142961025238037, 0, 0, 0, 0.0, 0.0, 0.0, 0.0, 2.0444583892822266, -0.29948171973228455, -0.407987505197525, -0.00846727192401886, 2.8303048610687256, 1.8752307891845703
365693, -87.67610931396484, 2.6936166286468506, 3.503053665161133, 2.044647693634033, -0.2916930317878723, -0.42317044734954834, -0.011789301410317421, 2.07049822807312, -2.789572238922119, 0, 0, 0, 0.0, 0.0, 0.0, 0.0, 2.0444583892822266, -0.29948171973228455, -0.407987505197525, -0.00846727192401886, 2.8303048610687256, 1.8752307891845703
365704, -86.2245101928711, 2.672090768814087, 3.361272096633911, 2.045067310333252, -0.3032428026199341, -0.401399701833725, -0.009721432812511921, 2.045675754547119, -2.6812069416046143, 0, 0, 0, 0.0, 0.0, 0.0, 0.0, 2.0444583892822266, -0.29948171973228455, -0.407987505197525, -0.00846727192401886, 2.8303048610687256, 1.8752307891845703
365713, -87.68827056884766, 2.7367849349975586, 3.321481466293335, 2.045067310333252, -0.3032428026199341, -0.401399701833725, -0.009721432812511921, 2.045675754547119, -2.6812069416046143, 0, 0, 0, 0.0, 0.0, 0.0, 0.0, 2.0444583892822266, -0.29948171973228455, -0.407987505197525, -0.00846727192401886, 2.8303048610687256, 1.8752307891845703
365723, -87.70720672607422, 2.7390432357788086, 3.22963285446167, 2.045535087585449, -0.29766398668289185, -0.41268789768218994, -0.007145448122173548, 2.052361249923706, -2.757840633392334, 0, 0, 0, 0.0, 0.0, 0.0, 0.0, 2.045535087585449, -0.29766398668289185, -0.41268789768218994, -0.020031532272696495, 2.840453624725342, 1.936334490776062
365733, -87.67915344238281, 2.737076759338379, 3.1388094425201416, 2.045535087585449, -0.29766398668289185, -0.41268789768218994, -0.007145448122173548, 2.052361249923706, -2.757840633392334, 0, 0, 0, 0.0, 0.0, 0.0, 0.0, 2.045535087585449, -0.29766398668289185, -0.41268789768218994, -0.020031532272696495, 2.840453624725342, 1.936334490776062
365744, -86.23722076416016, 2.694913864135742, 2.992035150527954, 2.0459635257720947, -0.3018069863319397, -0.4056326150894165, -0.005668026860803366, 2.0389137268066406, -2.737231969833374, 0, 0, 0, 0.0, 0.0, 0.0, 0.0, 2.0459635257720947, -0.3018069863319397, -0.4056326150894165, -0.0248502716422081, 2.8193843364715576, 1.9235756397247314
365753, -86.26009368896484, 2.674221992492676, 2.907101631164551, 2.0461585521698, -0.3047535717487335, -0.40125516057014465, -0.004959736950695515, 2.0267815589904785, -2.72298264503479, 0, 0, 0, 0.0, 0.0, 0.0, 0.0, 2.0459635257720947, -0.3018069863319397, -0.4056326150894165, -0.0248502716422081, 2.8193843364715576, 1.9235756397247314
365763, -86.28507995605469, 2.6444554328918457, 2.8184235095977783, 2.0460710525512695, -0.2928165793418884, -0.4112536311149597, -0.008034344762563705, 2.1128759384155273, -2.723315477371216, 0, 0, 0, 0.0, 0.0, 0.0, 0.0, 2.0460710525512695, -0.2928165793418884, -0.4112536311149597, -0.02803594246506691, 2.856843948364258, 1.928330898284912
365773, -86.32099151611328, 2.608164072036743, 2.739696979522705, 2.0460710525512695, -0.2928165793418884, -0.4112536311149597, -0.008034344762563705, 2.1128759384155273, -2.723315477371216, 0, 0, 0, 0.0, 0.0, 0.0, 0.0, 2.0460710525512695, -0.2928165793418884, -0.4112536311149597, -0.02803594246506691, 2.856843948364258, 1.928330898284912
365784, -87.6295394897461, 2.6198313236236572, 2.7882015705108643, 2.0460710525512695, -0.2928165793418884, -0.4112536311149597, -0.008034344762563705, 2.1128759384155273, -2.723315477371216, 0, 0, 0, 0.0, 0.0, 0.0, 0.0, 2.0460710525512695, -0.2928165793418884, -0.4112536311149597, -0.02803594246506691, 2.856843948364258, 1.928330898284912
365793, -87.62237548828125, 2.567796468734741, 2.7083678245544434, 2.0460710525512695, -0.2928165793418884, -0.4112536311149597, -0.008034344762563705, 2.1128759384155273, -2.723315477371216, 0, 0, 0, 0.0, 0.0, 0.0, 0.0, 2.046314001083374, -0.2975502014160156, -0.4026387631893158, -0.03176474943757057, 2.834488868713379, 1.9179919958114624
365803, -87.61079406738281, 2.5058817863464355, 2.644833564758301, 2.0460710525512695, -0.2928165793418884, -0.4112536311149597, -0.008034344762563705, 2.1128759384155273, -2.723315477371216, 0, 0, 0, 0.0, 0.0, 0.0, 0.0, 2.046314001083374, -0.2975502014160156, -0.4026387631893158, -0.03176474943757057, 2.834488868713379, 1.9179919958114624
365853, -86.21118927001953, 2.124675989151001, 2.352177619934082, 2.045823574066162, -0.2816241383552551, -0.41964948177337646, -0.01502563152462244, 2.188218355178833, -2.7729239463806152, 0, 0, 0, 0.0, 0.0, 0.0, 0.0, 2.046314001083374, -0.2975502014160156, -0.4026387631893158, -0.03176474943757057, 2.834488868713379, 1.9179919958114624
365863, -86.18869018554688, 2.031064987182617, 2.327707290649414, 2.045640468597412, -0.283130019903183, -0.417140930891037, -0.016701670363545418, 2.1819519996643066, -2.768754482269287, 0, 0, 0, 0.0, 0.0, 0.0, 0.0, 2.046314001083374, -0.2975502014160156, -0.4026387631893158, -0.03176474943757057, 2.834488868713379, 1.9179919958114624
365884, -87.60722351074219, 1.9270529747009277, 2.4130592346191406, 2.045640468597412, -0.283130019903183, -0.417140930891037, -0.016701670363545418, 2.1819519996643066, -2.768754482269287, 0, 0, 0, 0.0, 0.0, 0.0, 0.0, 2.046314001083374, -0.2975502014160156, -0.4026387631893158, -0.03176474943757057, 2.834488868713379, 1.9179919958114624
365894, -87.64009094238281, 1.8365769386291504, 2.4089291095733643, 2.045640468597412, -0.283130019903183, -0.417140930891037, -0.016701670363545418, 2.1819519996643066, -2.768754482269287, 0, 0, 0, 0.0, 0.0, 0.0, 0.0, 2.044985294342041, -0.2901570498943329, -0.4075651168823242, -0.024108855053782463, 2.879678249359131, 1.9618337154388428
365923, -87.64212036132812, 1.561727523803711, 2.479668140411377, 2.0441009998321533, -0.2941301763057709, -0.40145909786224365, -0.029183024540543556, 2.1299965381622314, -2.729999303817749, 0, 0, 0, 0.0, 0.0, 0.0, 0.0, 2.044715642929077, -0.29173749685287476, -0.4051932394504547, -0.021863719448447227, 2.8738884925842285, 1.9546433687210083
365933, -86.12322235107422, 1.4945480823516846, 2.4114670753479004, 2.0437774658203125, -0.28330928087234497, -0.4207035303115845, -0.030611369758844376, 2.149575710296631, -2.8361759185791016, 0, 0, 0, 0.0, 0.0, 0.0, 0.0, 2.044715642929077, -0.29173749685287476, -0.4051932394504547, -0.021863719448447227, 2.8738884925842285, 1.9546433687210083
365945, -86.13684844970703, 1.4162285327911377, 2.453059196472168, 2.0433855056762695, -0.2712610363960266, -0.43047818541526794, -0.03348569571971893, 2.235146999359131, -2.8268754482269287, 0, 0, 0, 0.0, 0.0, 0.0, 0.0, 2.044715642929077, -0.29173749685287476, -0.4051932394504547, -0.021863719448447227, 2.8738884925842285, 1.9546433687210083
365953, -86.1653823852539, 1.3467957973480225, 2.5115106105804443, 2.0433855056762695, -0.2712610363960266, -0.43047818541526794, -0.03348569571971893, 2.235146999359131, -2.8268754482269287, 0, 0, 0, 0.0, 0.0, 0.0, 0.0, 2.044715642929077, -0.29173749685287476, -0.4051932394504547, -0.021863719448447227, 2.8738884925842285, 1.9546433687210083
365983, -87.80131530761719, 1.2148462533950806, 2.7869763374328613, 2.042771816253662, -0.2778335511684418, -0.42347100377082825, -0.03722858428955078, 2.194962501525879, -2.8062357902526855, 0, 0, 0, 0.0, 0.0, 0.0, 0.0, 2.044715642929077, -0.29173749685287476, -0.4051932394504547, -0.021863719448447227, 2.8738884925842285, 1.9546433687210083
366024, -86.18511199951172, 1.0890135765075684, 2.9976868629455566, 2.040930986404419, -0.284344345331192, -0.42461395263671875, -0.04641321673989296, 2.113037109375, -2.85030460357666, 0, 0, 0, 0.0, 0.0, 0.0, 0.0, 2.044715642929077, -0.29173749685287476, -0.4051932394504547, -0.021863719448447227, 2.8738884925842285, 1.9546433687210083
366074, -87.80873107910156, 1.16387939453125, 3.5214531421661377, 2.039984703063965, -0.2789313793182373, -0.4282088875770569, -0.049206994473934174, 2.1609151363372803, -2.818864107131958, 0, 0, 0, 0.0, 0.0, 0.0, 0.0, 2.044715642929077, -0.29173749685287476, -0.4051932394504547, -0.021863719448447227, 2.8738884925842285, 1.9546433687210083
366084, -87.81106567382812, 1.210831642150879, 3.603774070739746, 2.039984703063965, -0.2789313793182373, -0.4282088875770569, -0.049206994473934174, 2.1609151363372803, -2.818864107131958, 0, 0, 0, 0.0, 0.0, 0.0, 0.0, 2.0398459434509277, -0.2848873436450958, -0.4217873811721802, 0.02311994507908821, 2.9280450344085693, 1.9394131898880005
366094, -87.81468200683594, 1.2666964530944824, 3.6839873790740967, 2.039984703063965, -0.2789313793182373, -0.4282088875770569, -0.049206994473934174, 2.1609151363372803, -2.818864107131958, 0, 0, 0, 0.0, 0.0, 0.0, 0.0, 2.0398459434509277, -0.2848873436450958, -0.4217873811721802, 0.02311994507908821, 2.9280450344085693, 1.9394131898880005
366123, -87.76809692382812, 1.4743895530700684, 3.8713219165802, 2.039944648742676, -0.29217013716697693, -0.41430720686912537, -0.043456584215164185, 2.087554693222046, -2.76031756401062, 0, 0, 0, 0.0, 0.0, 0.0, 0.0, 2.0398459434509277, -0.2848873436450958, -0.4217873811721802, 0.02311994507908821, 2.9280450344085693, 1.9394131898880005
366133, -86.20842742919922, 1.4916577339172363, 3.7790751457214355, 2.039950132369995, -0.28712329268455505, -0.42744719982147217, -0.04192846268415451, 2.0800304412841797, -2.840977668762207, 0, 0, 0, 0.0, 0.0, 0.0, 0.0, 2.0398459434509277, -0.2848873436450958, -0.4217873811721802, 0.02311994507908821, 2.9280450344085693, 1.9394131898880005
366184, -86.2693862915039, 1.9005249738693237, 3.867279052734375, 2.0406293869018555, -0.2855284512042999, -0.42586928606033325, -0.03557055443525314, 2.1079752445220947, -2.789583444595337, 0, 0, 0, 0.0, 0.0, 0.0, 0.0, 2.04073166847229, -0.2970351576805115, -0.4161175489425659, 0.021907275542616844, 2.874507188796997, 1.9095662832260132
