timeTick, roll, pitch, yaw, whisker1, whisker2, whisker3, motor1, motor2, motor3, motor4, ext_pos_X,ext_pos_Y,ext_pos_Z, kalX, kalY, kalZ, kalPX, kalPY, kalPZ
718993, 0.2433462291955948, -0.9936645030975342, -0.259492963552475, 0, 0, 0, 0, 0, 0, 0, 0, 0, 0, 0, 0, 0, 0, 0, 0
719003, 0.2710169851779938, -1.007470965385437, -0.5479223132133484, 0, 0, 0, 0.0, 0.0, 0.0, 0.0, 0.0, 0.0, 0.0, -0.02961578406393528, -0.9146456122398376, 0.01937091164290905, -0.001813601003959775, 0.0017252805409952998, -0.0007026892271824181
719013, 0.2778090238571167, -1.0503517389297485, -0.6750398874282837, 0, 0, 0, 0.0, 0.0, 0.0, 0.0, 0.0, 0.0, 0.0, -0.02956364117562771, -0.9146342277526855, 0.01923886314034462, 0.003149487776681781, 0.0015126741491258144, -0.0012681972002610564
719023, 0.27934321761131287, -1.0495858192443848, -0.9740260243415833, 0, 0, 0, 0.0, 0.0, 0.0, 0.0, 0.0, 0.0, 0.0, -0.029813384637236595, -0.9147710204124451, 0.018950557336211205, 0.003262746147811413, 0.0013313961680978537, -0.0026407791301608086
719033, 0.29139184951782227, -0.9879339933395386, -0.9902396202087402, 0, 0, 0, 0.0, 0.0, 0.0, 0.0, 0.0, 0.0, 0.0, -0.02995351143181324, -0.9146809577941895, 0.01867583394050598, -0.005508481990545988, 0.0011397183407098055, -0.004198076203465462
719044, 0.29339832067489624, -1.0569429397583008, -0.9737326502799988, 0, 0, 0, 0.0, 0.0, 0.0, 0.0, 0.0, 0.0, 0.0, -0.02977914921939373, -0.9146955609321594, 0.018944676965475082, 0.0035176377277821302, 0.0009726024582050741, -0.0021967825014144182
719053, 0.29667049646377563, -0.971652626991272, -0.9413425922393799, 0, 0, 0, 0.0, 0.0, 0.0, 0.0, 0.0, 0.0, 0.0, -0.030070381239056587, -0.9146585464477539, 0.0188420582562685, -0.007543787360191345, 0.0009259767830371857, -0.0026905557606369257
719063, 0.2809979021549225, -1.013707160949707, -0.9495863318443298, 0, 0, 0, 0.0, 0.0, 0.0, 0.0, 0.0, 0.0, 0.0, -0.029978850856423378, -0.9146031141281128, 0.018619615584611893, -0.0020071740727871656, 0.003152739256620407, -0.0038109554443508387
719073, 0.29894667863845825, -1.0158321857452393, -0.937306821346283, 0, 0, 0, 0.0, 0.0, 0.0, 0.0, 0.0, 0.0, 0.0, -0.02994038537144661, -0.9146636128425598, 0.018376382067799568, -0.0016595229972153902, 0.0006639976054430008, -0.004876981023699045
719084, 0.30493462085723877, -1.0476354360580444, -0.9850755333900452, 0, 0, 0, 0.0, 0.0, 0.0, 0.0, 0.0, 0.0, 0.0, -0.029820110648870468, -0.9147070050239563, 0.01840164139866829, 0.002074754098430276, 0.00031553368899039924, -0.0040421742014586926
719093, 0.30463680624961853, -1.065598487854004, -0.9925161600112915, 0, 0, 0, 0.0, 0.0, 0.0, 0.0, 0.0, 0.0, 0.0, -0.029664406552910805, -0.9146580100059509, 0.018212733790278435, 0.004352231975644827, 0.00014853282482363284, -0.004625281319022179
719103, 0.37543821334838867, -1.0536099672317505, -0.9925346374511719, 0, 0, 0, 0.0, 0.0, 0.0, 0.0, 0.0, 0.0, 0.0, -0.029697692021727562, -0.9150874614715576, 0.01801683008670807, 0.0032465974800288677, -0.009451514109969139, -0.005299856886267662
719113, 0.3025786578655243, -1.0251224040985107, -0.9969695806503296, 0, 0, 0, 0.0, 0.0, 0.0, 0.0, 0.0, 0.0, 0.0, -0.02983766980469227, -0.9146389961242676, 0.017912961542606354, -0.00017251494864467531, 0.00018467369955033064, -0.005639989860355854
719123, 0.3857637941837311, -1.0323359966278076, -1.0090727806091309, 0, 0, 0, 0.0, 0.0, 0.0, 0.0, 0.0, 0.0, 0.0, -0.029865724965929985, -0.9152286648750305, 0.017685161903500557, 0.00014850734442006797, -0.010427271947264671, -0.006695879157632589
719133, 0.38283175230026245, -1.0714824199676514, -1.008448839187622, 0, 0, 0, 0.0, 0.0, 0.0, 0.0, 0.0, 0.0, 0.0, -0.029595617204904556, -0.9152500629425049, 0.017621895298361778, 0.00487976660951972, -0.010242514312267303, -0.006424594204872847
719144, 0.35091355443000793, -1.062316656112671, -1.0078479051589966, 0, 0, 0, 0.0, 0.0, 0.0, 0.0, 0.0, 0.0, 0.0, -0.0296286903321743, -0.9150659441947937, 0.01745353825390339, 0.003767716232687235, -0.006601656787097454, -0.006615846883505583
719153, 0.35341301560401917, -1.0651315450668335, -1.0472524166107178, 0, 0, 0, 0.0, 0.0, 0.0, 0.0, 0.0, 0.0, 0.0, -0.029665064066648483, -0.9151957035064697, 0.017252961173653603, 0.003728638868778944, -0.007681854069232941, -0.007233398500829935
719163, 0.29326143860816956, -1.0435867309570312, -1.0519299507141113, 0, 0, 0, 0.0, 0.0, 0.0, 0.0, 0.0, 0.0, 0.0, -0.02989562228322029, -0.9147258996963501, 0.01712959073483944, 0.00024065545585472137, 0.00026106805307790637, -0.007614134345203638
719173, 0.2965647578239441, -1.104934573173523, -1.0375101566314697, 0, 0, 0, 0.0, 0.0, 0.0, 0.0, 0.0, 0.0, 0.0, -0.029289884492754936, -0.9146878719329834, 0.016953639686107635, 0.008037700317800045, 0.00030777015490457416, -0.007962976582348347
719184, 0.3029271066188812, -1.0684078931808472, -1.0415765047073364, 0, 0, 0, 0.0, 0.0, 0.0, 0.0, 0.0, 0.0, 0.0, -0.029636910185217857, -0.9147077798843384, 0.016767486929893494, 0.0030365525744855404, 0.0001546731509733945, -0.008543437346816063
719193, 0.31145918369293213, -1.0351200103759766, -1.041049838066101, 0, 0, 0, 0.0, 0.0, 0.0, 0.0, 0.0, 0.0, 0.0, -0.029913729056715965, -0.9147669076919556, 0.01662410981953144, -0.0012681408552452922, -0.0009305619751103222, -0.008887785486876965
719203, 0.32979142665863037, -1.0552854537963867, -1.0705797672271729, 0, 0, 0, 0.0, 0.0, 0.0, 0.0, 0.0, 0.0, 0.0, -0.029779838398098946, -0.9149888157844543, 0.016481265425682068, 0.0008876590873114765, -0.0031987072434276342, -0.009198769927024841
719213, 0.3072049021720886, -1.041967749595642, -1.0654102563858032, 0, 0, 0, 0.0, 0.0, 0.0, 0.0, 0.0, 0.0, 0.0, -0.029916593804955482, -0.9146929383277893, 0.016304759308695793, -0.0011494940845295787, 0.00015918219287414104, -0.009673959575593472
719223, 0.32633426785469055, -1.0447977781295776, -1.0631593465805054, 0, 0, 0, 0.0, 0.0, 0.0, 0.0, 0.0, 0.0, 0.0, -0.029896222054958344, -0.9148530960083008, 0.016076305881142616, -0.0008332657744176686, -0.002027861773967743, -0.010198171250522137
719234, 0.3116619288921356, -1.0466289520263672, -1.0626299381256104, 0, 0, 0, 0.0, 0.0, 0.0, 0.0, 0.0, 0.0, 0.0, -0.02987530082464218, -0.914671003818512, 0.015930434688925743, -0.0006372798816300929, 9.346334263682365e-05, -0.01019642036408186
719243, 0.3109866678714752, -1.0442757606506348, -1.062343716621399, 0, 0, 0, 0.0, 0.0, 0.0, 0.0, 0.0, 0.0, 0.0, -0.029889844357967377, -0.9146968126296997, 0.015780624002218246, -0.0005461653345264494, -0.00020625941397156566, -0.010281230323016644
719253, 0.31130632758140564, -1.0231995582580566, -1.0616602897644043, 0, 0, 0, 0.0, 0.0, 0.0, 0.0, 0.0, 0.0, 0.0, -0.030080385506153107, -0.914696991443634, 0.015653954818844795, -0.002722072182223201, -0.00039262473001144826, -0.010288121178746223
719263, 0.3107788562774658, -1.0487977266311646, -1.0611953735351562, 0, 0, 0, 0.0, 0.0, 0.0, 0.0, 0.0, 0.0, 0.0, -0.0297431331127882, -0.914716362953186, 0.01749681867659092, 0.000823691429104656, -0.0005169818759895861, 0.001968183321878314
719273, 0.37893620133399963, -1.0768182277679443, -1.0591075420379639, 0, 0, 0, 0.0, 0.0, 0.0, 0.0, 0.0, 0.0, 0.0, -0.02944168634712696, -0.9155289530754089, 0.01740347035229206, 0.004124516621232033, -0.009168863296508789, 0.0016216823132708669
719284, 0.312539666891098, -1.043654203414917, -1.0852346420288086, 0, 0, 0, 0.0, 0.0, 0.0, 0.0, 0.0, 0.0, 0.0, -0.029862338677048683, -0.914766788482666, 0.017310548573732376, -0.0004418425087351352, -0.0004830792313441634, 0.0010587439173832536
719293, 0.3408623933792114, -1.0538500547409058, -1.0634779930114746, 0, 0, 0, 0.0, 0.0, 0.0, 0.0, 0.0, 0.0, 0.0, -0.029753731563687325, -0.9150670766830444, 0.017200730741024017, 0.0006904765614308417, -0.003961693495512009, 0.0002492514904588461
719303, 0.32023677229881287, -1.0476685762405396, -1.073215126991272, 0, 0, 0, 0.0, 0.0, 0.0, 0.0, 0.0, 0.0, 0.0, -0.029835980385541916, -0.9147794842720032, 0.017073726281523705, -0.0003060502640437335, -0.0009504130575805902, -0.0006354336510412395
719313, 0.32009193301200867, -1.0871753692626953, -1.0721648931503296, 0, 0, 0, 0.0, 0.0, 0.0, 0.0, 0.0, 0.0, 0.0, -0.029304267838597298, -0.9147824048995972, 0.017000144347548485, 0.005004053469747305, -0.0009804170113056898, -0.0010058290790766478
719323, 0.37798812985420227, -1.1197199821472168, -1.0699080228805542, 0, 0, 0, 0.0, 0.0, 0.0, 0.0, 0.0, 0.0, 0.0, -0.028886884450912476, -0.9155108332633972, 0.016888439655303955, 0.009043876081705093, -0.008286241441965103, -0.0015203688526526093
719333, 0.3453119993209839, -1.0621377229690552, -1.0701651573181152, 0, 0, 0, 0.0, 0.0, 0.0, 0.0, 0.0, 0.0, 0.0, -0.029606355354189873, -0.9150863289833069, 0.016805307939648628, 0.001358499052003026, -0.0037578775081783533, -0.0020282615441828966
719343, 0.3434983789920807, -1.0454813241958618, -1.069234848022461, 0, 0, 0, 0.0, 0.0, 0.0, 0.0, 0.0, 0.0, 0.0, -0.029798313975334167, -0.9150673151016235, 0.01668812707066536, -0.0006504665361717343, -0.0034046496730297804, -0.002749760402366519
719353, 0.3181188106536865, -1.0427594184875488, -1.0687910318374634, 0, 0, 0, 0.0, 0.0, 0.0, 0.0, 0.0, 0.0, 0.0, -0.02980065532028675, -0.9147520065307617, 0.016110677272081375, -0.0005892997141927481, -9.234572644345462e-05, -0.006205338053405285
719363, 0.32177621126174927, -1.067737102508545, -1.0861374139785767, 0, 0, 0, 0.0, 0.0, 0.0, 0.0, 0.0, 0.0, 0.0, -0.029505737125873566, -0.9148077964782715, 0.015982311218976974, 0.002659943886101246, -0.0005310157430358231, -0.00647844560444355
719373, 0.3660462200641632, -1.0528674125671387, -1.0972858667373657, 0, 0, 0, 0.0, 0.0, 0.0, 0.0, 0.0, 0.0, 0.0, -0.029749996960163116, -0.9153467416763306, 0.0158536396920681, 0.0006120973266661167, -0.006057132966816425, -0.006890700664371252
719383, 0.32544782757759094, -1.0555013418197632, -1.0930041074752808, 0, 0, 0, 0.0, 0.0, 0.0, 0.0, 0.0, 0.0, 0.0, -0.02972768247127533, -0.9148086905479431, 0.015736743807792664, 0.0009009100031107664, -0.0007935089524835348, -0.007072910666465759
719393, 0.33332884311676025, -1.0532346963882446, -1.0911281108856201, 0, 0, 0, 0.0, 0.0, 0.0, 0.0, 0.0, 0.0, 0.0, -0.02970554679632187, -0.9149149656295776, 0.01563013345003128, 0.0009112479165196419, -0.0020734616555273533, -0.007157505955547094
719403, 0.37367478013038635, -1.091111421585083, -1.083562970161438, 0, 0, 0, 0.0, 0.0, 0.0, 0.0, 0.0, 0.0, 0.0, -0.029188500717282295, -0.9154697060585022, 0.015623031184077263, 0.0060064601711928844, -0.007095128297805786, -0.006589869037270546
719413, 0.384642094373703, -1.0782479047775269, -1.10161292552948, 0, 0, 0, 0.0, 0.0, 0.0, 0.0, 0.0, 0.0, 0.0, -0.029396316036581993, -0.915595293045044, 0.015538912266492844, 0.003728169249370694, -0.007743600755929947, -0.006633704993873835
719423, 0.33276498317718506, -1.0597175359725952, -1.104167103767395, 0, 0, 0, 0.0, 0.0, 0.0, 0.0, 0.0, 0.0, 0.0, -0.02970898523926735, -0.9148297309875488, 0.015463986434042454, 0.0004711708752438426, -0.0001435413141734898, -0.006622933782637119
719433, 0.3363403081893921, -1.0608580112457275, -1.0953638553619385, 0, 0, 0, 0.0, 0.0, 0.0, 0.0, 0.0, 0.0, 0.0, -0.029701314866542816, -0.914841890335083, 0.015365744940936565, 0.0005475211655721068, -0.00040176897891797125, -0.006790651008486748
719445, 0.3424626290798187, -1.0661845207214355, -1.1022976636886597, 0, 0, 0, 0.0, 0.0, 0.0, 0.0, 0.0, 0.0, 0.0, -0.029692189767956734, -0.9148557782173157, 0.015492498874664307, 0.0007839074824005365, -0.0006875951658003032, -0.005490696057677269
719453, 0.4196803569793701, -1.1350852251052856, -1.0940618515014648, 0, 0, 0, 0.0, 0.0, 0.0, 0.0, 0.0, 0.0, 0.0, -0.02874879352748394, -0.9159895777702332, 0.015393663197755814, 0.009947169572114944, -0.011082635261118412, -0.005818220786750317
719463, 0.35061168670654297, -1.0596429109573364, -1.0945589542388916, 0, 0, 0, 0.0, 0.0, 0.0, 0.0, 0.0, 0.0, 0.0, -0.029818598181009293, -0.9149681925773621, 0.015378677286207676, -0.0005116155371069908, -0.0017206345219165087, -0.005924088880419731
719473, 0.36713436245918274, -1.0648481845855713, -1.1013399362564087, 0, 0, 0, 0.0, 0.0, 0.0, 0.0, 0.0, 0.0, 0.0, -0.029856890439987183, -0.9151409268379211, 0.015249939635396004, -0.0007330472581088543, -0.002948674140498042, -0.006625255104154348
719483, 0.36647048592567444, -1.062962293624878, -1.099752426147461, 0, 0, 0, 0.0, 0.0, 0.0, 0.0, 0.0, 0.0, 0.0, -0.029804546386003494, -0.9151036143302917, 0.015175364911556244, -0.0005565768224187195, -0.002822011010721326, -0.00664459727704525
719494, 0.4230952560901642, -1.1057628393173218, -1.1175671815872192, 0, 0, 0, 0.0, 0.0, 0.0, 0.0, 0.0, 0.0, 0.0, -0.029245292767882347, -0.9159223437309265, 0.01604009047150612, 0.004964333958923817, -0.009957797825336456, -0.0001950904552359134
719503, 0.38710644841194153, -1.0735658407211304, -1.1023036241531372, 0, 0, 0, 0.0, 0.0, 0.0, 0.0, 0.0, 0.0, 0.0, -0.02970147505402565, -0.9153843522071838, 0.016029207035899162, 0.00014159890997689217, -0.005005962681025267, -0.0002190308878198266
719513, 0.3832818865776062, -1.0712988376617432, -1.107115626335144, 0, 0, 0, 0.0, 0.0, 0.0, 0.0, 0.0, 0.0, 0.0, -0.02982957474887371, -0.9152750968933105, 0.015970172360539436, -0.0008327104151248932, -0.003875468857586384, -0.0004380783357191831
719523, 0.3575061857700348, -1.0748945474624634, -1.1170439720153809, 0, 0, 0, 0.0, 0.0, 0.0, 0.0, 0.0, 0.0, 0.0, -0.029826758429408073, -0.9148966073989868, 0.015891682356595993, -0.0007453698781318963, -0.0005079522379674017, -0.000890041294042021
719534, 0.358050137758255, -1.0719057321548462, -1.1170419454574585, 0, 0, 0, 0.0, 0.0, 0.0, 0.0, 0.0, 0.0, 0.0, -0.02980741299688816, -0.9148818254470825, 0.015868788585066795, -0.0005861408426426351, -0.0004911503638140857, -0.0009116942528635263
719543, 0.3635081648826599, -1.0328342914581299, -1.110439658164978, 0, 0, 0, 0.0, 0.0, 0.0, 0.0, 0.0, 0.0, 0.0, -0.030438410118222237, -0.9148762226104736, 0.015827562659978867, -0.0062464214861392975, -0.0007572988979518414, -0.0010200251126661897
719553, 0.37150123715400696, -1.0867911577224731, -1.1082508563995361, 0, 0, 0, 0.0, 0.0, 0.0, 0.0, 0.0, 0.0, 0.0, -0.029651634395122528, -0.9149994850158691, 0.015767933800816536, 0.0008745138766244054, -0.0021118829026818275, -0.0010413603158667684
719563, 0.37898051738739014, -1.091360092163086, -1.115864634513855, 0, 0, 0, 0.0, 0.0, 0.0, 0.0, 0.0, 0.0, 0.0, -0.02967572771012783, -0.915052056312561, 0.015711724758148193, 0.0008235704735852778, -0.0024855954106897116, -0.0011581587605178356
719573, 0.4068359136581421, -1.085521936416626, -1.1099951267242432, 0, 0, 0, 0.0, 0.0, 0.0, 0.0, 0.0, 0.0, 0.0, -0.02981531247496605, -0.9154444932937622, 0.0156355369836092, -0.00022945906675886363, -0.00592467188835144, -0.0013301848666742444
719583, 0.38875240087509155, -1.0954818725585938, -1.1100916862487793, 0, 0, 0, 0.0, 0.0, 0.0, 0.0, 0.0, 0.0, 0.0, -0.029647476971149445, -0.915166974067688, 0.016706589609384537, 0.0010640481486916542, -0.003439006395637989, 0.005617097951471806
719593, 0.3883165419101715, -1.0925215482711792, -1.1095685958862305, 0, 0, 0, 0.0, 0.0, 0.0, 0.0, 0.0, 0.0, 0.0, -0.029640603810548782, -0.9151896238327026, 0.016675960272550583, 0.001164232031442225, -0.003617038019001484, 0.005158509127795696
719603, 0.37149888277053833, -1.0840734243392944, -1.1201988458633423, 0, 0, 0, 0.0, 0.0, 0.0, 0.0, 0.0, 0.0, 0.0, -0.029801582917571068, -0.9149595499038696, 0.016673360019922256, -0.00020566397870425135, -0.0014216454001143575, 0.004831430967897177
719613, 0.3818717300891876, -1.0856808423995972, -1.115849494934082, 0, 0, 0, 0.0, 0.0, 0.0, 0.0, 0.0, 0.0, 0.0, -0.029761454090476036, -0.9150631427764893, 0.016617408022284508, 6.742382538504899e-05, -0.0026737514417618513, 0.004261401016265154
719623, 0.3904111087322235, -1.0862118005752563, -1.1120846271514893, 0, 0, 0, 0.0, 0.0, 0.0, 0.0, 0.0, 0.0, 0.0, -0.029752150177955627, -0.9150986671447754, 0.01734009012579918, 0.00010111155279446393, -0.003246650565415621, 0.008707852102816105
719633, 0.3973807692527771, -1.0862079858779907, -1.1101728677749634, 0, 0, 0, 0.0, 0.0, 0.0, 0.0, 0.0, 0.0, 0.0, -0.02972712740302086, -0.9151949882507324, 0.0173224788159132, 0.00014718761667609215, -0.004218502435833216, 0.008115396834909916
719643, 0.4250551760196686, -1.0881115198135376, -1.1104599237442017, 0, 0, 0, 0.0, 0.0, 0.0, 0.0, 0.0, 0.0, 0.0, -0.029737230390310287, -0.915593683719635, 0.01727905124425888, 0.00024767202557995915, -0.007539017591625452, 0.007343183271586895
719653, 0.3959001302719116, -1.0952595472335815, -1.1103801727294922, 0, 0, 0, 0.0, 0.0, 0.0, 0.0, 0.0, 0.0, 0.0, -0.02958505041897297, -0.9152066111564636, 0.017291564494371414, 0.0014158625854179263, -0.00425654835999012, 0.007049896288663149
719663, 0.3787436783313751, -1.0872560739517212, -1.1209464073181152, 0, 0, 0, 0.0, 0.0, 0.0, 0.0, 0.0, 0.0, 0.0, -0.029706276953220367, -0.9149506092071533, 0.01723213493824005, 0.00045987757039256394, -0.002278316533192992, 0.006418519653379917
719673, 0.4575808644294739, -1.1335575580596924, -1.1145395040512085, 0, 0, 0, 0.0, 0.0, 0.0, 0.0, 0.0, 0.0, 0.0, -0.029108133167028427, -0.9161245226860046, 0.01839466206729412, 0.0055705043487250805, -0.011671040207147598, 0.013042157515883446
719683, 0.37765657901763916, -1.086628794670105, -1.1128860712051392, 0, 0, 0, 0.0, 0.0, 0.0, 0.0, 0.0, 0.0, 0.0, -0.029730001464486122, -0.9149718880653381, 0.018391156569123268, 0.0004511172301135957, -0.002253584796562791, 0.012174596078693867
719693, 0.38599589467048645, -1.0931512117385864, -1.111739158630371, 0, 0, 0, 0.0, 0.0, 0.0, 0.0, 0.0, 0.0, 0.0, -0.029573287814855576, -0.9150814414024353, 0.01833939552307129, 0.001765008200891316, -0.0034395039547234774, 0.011110424064099789
719703, 0.37938177585601807, -1.093942403793335, -1.1216219663619995, 0, 0, 0, 0.0, 0.0, 0.0, 0.0, 0.0, 0.0, 0.0, -0.029592357575893402, -0.9150004982948303, 0.018343886360526085, 0.0016481600468978286, -0.002433442510664463, 0.010403829626739025
719713, 0.39479905366897583, -1.0981560945510864, -1.123740315437317, 0, 0, 0, 0.0, 0.0, 0.0, 0.0, 0.0, 0.0, 0.0, -0.029558444395661354, -0.9150937795639038, 0.01816876046359539, 0.0018762241816148162, -0.0032892420422285795, 0.008692899718880653
719723, 0.3865123391151428, -1.0920658111572266, -1.1195496320724487, 0, 0, 0, 0.0, 0.0, 0.0, 0.0, 0.0, 0.0, 0.0, -0.029681382700800896, -0.9149797558784485, 0.018102530390024185, 0.0008782480726949871, -0.0023783904034644365, 0.007813208736479282
719733, 0.3857109546661377, -1.1106516122817993, -1.1184548139572144, 0, 0, 0, 0.0, 0.0, 0.0, 0.0, 0.0, 0.0, 0.0, -0.029447218403220177, -0.9149775505065918, 0.018018661066889763, 0.002778893569484353, -0.0026238018181174994, 0.007080767769366503
719743, 0.40897953510284424, -1.1076056957244873, -1.1171066761016846, 0, 0, 0, 0.0, 0.0, 0.0, 0.0, 0.0, 0.0, 0.0, -0.029430007562041283, -0.9153037071228027, 0.017922883853316307, 0.0026465128175914288, -0.005582124926149845, 0.006050726864486933
719753, 0.40951886773109436, -1.099321961402893, -1.123504638671875, 0, 0, 0, 0.0, 0.0, 0.0, 0.0, 0.0, 0.0, 0.0, -0.029581662267446518, -0.9153428673744202, 0.017815714702010155, 0.001327946549281478, -0.005661098286509514, 0.005093986634165049
719763, 0.40919652581214905, -1.1317135095596313, -1.1206008195877075, 0, 0, 0, 0.0, 0.0, 0.0, 0.0, 0.0, 0.0, 0.0, -0.02911515347659588, -0.9153504371643066, 0.0172184556722641, 0.004927837755531073, -0.005645936820656061, 0.0013527583796530962
719773, 0.4021204710006714, -1.132555365562439, -1.1180037260055542, 0, 0, 0, 0.0, 0.0, 0.0, 0.0, 0.0, 0.0, 0.0, -0.02910434454679489, -0.9152126908302307, 0.01712222956120968, 0.0048016333021223545, -0.004478663671761751, 0.0008045108988881111
719783, 0.38519611954689026, -1.126867413520813, -1.1284254789352417, 0, 0, 0, 0.0, 0.0, 0.0, 0.0, 0.0, 0.0, 0.0, -0.02928583323955536, -0.9150253534317017, 0.017006313428282738, 0.003459623549133539, -0.0024913218803703785, 9.108171070693061e-05
719793, 0.3839341998100281, -1.1138408184051514, -1.1282552480697632, 0, 0, 0, 0.0, 0.0, 0.0, 0.0, 0.0, 0.0, 0.0, -0.029374631121754646, -0.9150162935256958, 0.01695583574473858, 0.0023880871012806892, -0.0023548786994069815, -0.0001691834768280387
719803, 0.4479594826698303, -1.1310019493103027, -1.1262866258621216, 0, 0, 0, 0.0, 0.0, 0.0, 0.0, 0.0, 0.0, 0.0, -0.029123902320861816, -0.915907084941864, 0.017836006358265877, 0.004374888259917498, -0.009850299917161465, 0.0055313995108008385
719813, 0.3822270333766937, -1.1061151027679443, -1.1262998580932617, 0, 0, 0, 0.0, 0.0, 0.0, 0.0, 0.0, 0.0, 0.0, -0.029467154294252396, -0.9149759411811829, 0.01779160462319851, 0.001528121531009674, -0.0017974656075239182, 0.004768577869981527
719823, 0.3844747543334961, -1.092453956604004, -1.1242828369140625, 0, 0, 0, 0.0, 0.0, 0.0, 0.0, 0.0, 0.0, 0.0, -0.02968769147992134, -0.9149734973907471, 0.017696361988782883, -0.00022946886019781232, -0.0018942548194900155, 0.0038837874308228493
719833, 0.3864819407463074, -1.0618031024932861, -1.1321706771850586, 0, 0, 0, 0.0, 0.0, 0.0, 0.0, 0.0, 0.0, 0.0, -0.03017018735408783, -0.9150065779685974, 0.017573805525898933, -0.00423410814255476, -0.0021092058159410954, 0.002750573679804802
719843, 0.3697771728038788, -1.084155559539795, -1.1326061487197876, 0, 0, 0, 0.0, 0.0, 0.0, 0.0, 0.0, 0.0, 0.0, -0.02980763465166092, -0.9147568345069885, 0.01753600686788559, -0.0010719277197495103, -0.00017140002455562353, 0.0024865681771188974
719853, 0.38172629475593567, -1.1435763835906982, -1.1388119459152222, 0, 0, 0, 0.0, 0.0, 0.0, 0.0, 0.0, 0.0, 0.0, -0.029040729627013206, -0.9149108529090881, 0.016956474632024765, 0.005822002422064543, -0.0015485198237001896, -0.0008630640804767609
719863, 0.38088658452033997, -1.081683874130249, -1.138508677482605, 0, 0, 0, 0.0, 0.0, 0.0, 0.0, 0.0, 0.0, 0.0, -0.02980637177824974, -0.9148746728897095, 0.01687416061758995, -0.0008294202270917594, -0.0017395404865965247, -0.001561844372190535
719873, 0.40453264117240906, -1.0939512252807617, -1.139507532119751, 0, 0, 0, 0.0, 0.0, 0.0, 0.0, 0.0, 0.0, 0.0, -0.02971283532679081, -0.9151378870010376, 0.016750376671552658, 0.0002473701606504619, -0.003978145774453878, -0.002236920176073909
719883, 0.3953567147254944, -1.1409435272216797, -1.138485312461853, 0, 0, 0, 0.0, 0.0, 0.0, 0.0, 0.0, 0.0, 0.0, -0.029029060155153275, -0.9150059819221497, 0.016612425446510315, 0.006074323784559965, -0.002944601234048605, -0.00285775656811893
719893, 0.39673322439193726, -1.100275993347168, -1.1466983556747437, 0, 0, 0, 0.0, 0.0, 0.0, 0.0, 0.0, 0.0, 0.0, -0.02959652990102768, -0.9150192141532898, 0.017005901783704758, 0.0011382412631064653, -0.0031907823868095875, -0.00029251386877149343
719903, 0.40362581610679626, -1.1245702505111694, -1.1445738077163696, 0, 0, 0, 0.0, 0.0, 0.0, 0.0, 0.0, 0.0, 0.0, -0.029266711324453354, -0.9151608943939209, 0.016908228397369385, 0.004171818494796753, -0.004541290923953056, -0.0009454951505176723
719913, 0.39292195439338684, -1.0895463228225708, -1.1436468362808228, 0, 0, 0, 0.0, 0.0, 0.0, 0.0, 0.0, 0.0, 0.0, -0.02971741370856762, -0.9150437116622925, 0.016805319115519524, 0.0002471428597345948, -0.0035419093910604715, -0.0015614675357937813
719924, 0.3930750787258148, -1.0887168645858765, -1.1430729627609253, 0, 0, 0, 0.0, 0.0, 0.0, 0.0, 0.0, 0.0, 0.0, -0.029687874019145966, -0.9150511026382446, 0.016691191121935844, 0.0004741674929391593, -0.0036808999720960855, -0.0021360008977353573
719934, 0.4201718866825104, -1.0911980867385864, -1.1392139196395874, 0, 0, 0, 0.0, 0.0, 0.0, 0.0, 0.0, 0.0, 0.0, -0.02969658374786377, -0.9153962135314941, 0.01654604636132717, 0.0004865736118517816, -0.006665869615972042, -0.002942105056717992
719943, 0.4095611572265625, -1.1302164793014526, -1.1382672786712646, 0, 0, 0, 0.0, 0.0, 0.0, 0.0, 0.0, 0.0, 0.0, -0.029123829677700996, -0.9152871370315552, 0.015959877520799637, 0.005508849397301674, -0.005725440103560686, -0.006016134284436703
719953, 0.39654988050460815, -1.0844846963882446, -1.140810489654541, 0, 0, 0, 0.0, 0.0, 0.0, 0.0, 0.0, 0.0, 0.0, -0.029705921187996864, -0.9150804877281189, 0.01585627719759941, 0.0003353743813931942, -0.004015090875327587, -0.0062056067399680614
719963, 0.39579859375953674, -1.0844604969024658, -1.139772891998291, 0, 0, 0, 0.0, 0.0, 0.0, 0.0, 0.0, 0.0, 0.0, -0.0296921506524086, -0.9150905013084412, 0.015768270939588547, 0.000322419626172632, -0.004163323435932398, -0.006132703274488449
719973, 0.3994094431400299, -1.130129337310791, -1.1380739212036133, 0, 0, 0, 0.0, 0.0, 0.0, 0.0, 0.0, 0.0, 0.0, -0.02907201647758484, -0.9151124358177185, 0.01568393036723137, 0.005558060482144356, -0.004313190467655659, -0.006185173988342285
719984, 0.40599870681762695, -1.0805641412734985, -1.1361355781555176, 0, 0, 0, 0.0, 0.0, 0.0, 0.0, 0.0, 0.0, 0.0, -0.02969355508685112, -0.9152222871780396, 0.015373404137790203, 0.00018339049711357802, -0.005509682931005955, -0.007954228669404984
719993, 0.4271963834762573, -1.124334692955017, -1.1346544027328491, 0, 0, 0, 0.0, 0.0, 0.0, 0.0, 0.0, 0.0, 0.0, -0.029137492179870605, -0.9154980778694153, 0.015246772207319736, 0.005225395318120718, -0.007521980442106724, -0.008335624821484089
720003, 0.39870885014533997, -1.098745584487915, -1.1333726644515991, 0, 0, 0, 0.0, 0.0, 0.0, 0.0, 0.0, 0.0, 0.0, -0.029467063024640083, -0.9151361584663391, 0.015173188410699368, 0.0018493696115911007, -0.004181500058621168, -0.00854816846549511
720014, 0.42212018370628357, -1.082709550857544, -1.1343687772750854, 0, 0, 0, 0.0, 0.0, 0.0, 0.0, 0.0, 0.0, 0.0, -0.029707154259085655, -0.9154855012893677, 0.015042307786643505, -0.0003252819296903908, -0.007291716989129782, -0.008618691936135292
720023, 0.43487855792045593, -1.0854302644729614, -1.1317214965820312, 0, 0, 0, 0.0, 0.0, 0.0, 0.0, 0.0, 0.0, 0.0, -0.029737012460827827, -0.9157423377037048, 0.014926590956747532, -0.0003760447143577039, -0.009233067743480206, -0.008619321510195732
720033, 0.3906727135181427, -1.1221853494644165, -1.1321184635162354, 0, 0, 0, 0.0, 0.0, 0.0, 0.0, 0.0, 0.0, 0.0, -0.029098566621541977, -0.9151439070701599, 0.01585966721177101, 0.004881389904767275, -0.003822371596470475, -0.0023105256259441376
720043, 0.38934317231178284, -1.085982084274292, -1.130387544631958, 0, 0, 0, 0.0, 0.0, 0.0, 0.0, 0.0, 0.0, 0.0, -0.029593251645565033, -0.9151331782341003, 0.01579456217586994, 0.0006783076096326113, -0.0037380103021860123, -0.002589825540781021
720053, 0.3869130611419678, -1.0768864154815674, -1.1289937496185303, 0, 0, 0, 0.0, 0.0, 0.0, 0.0, 0.0, 0.0, 0.0, -0.029712116345763206, -0.9151382446289062, 0.015731211751699448, -0.0003435495018493384, -0.003669477067887783, -0.002831260208040476
720063, 0.3864770233631134, -1.074684500694275, -1.1292462348937988, 0, 0, 0, 0.0, 0.0, 0.0, 0.0, 0.0, 0.0, 0.0, -0.02970762550830841, -0.9151523113250732, 0.015646804124116898, -0.0002197111607529223, -0.003832235699519515, -0.0032127494923770428
720073, 0.4028695821762085, -1.0768061876296997, -1.128147840499878, 0, 0, 0, 0.0, 0.0, 0.0, 0.0, 0.0, 0.0, 0.0, -0.029691753908991814, -0.9154121279716492, 0.016658706590533257, -5.992560545564629e-05, -0.00617486285045743, 0.00336512946523726
720083, 0.38547033071517944, -1.0842121839523315, -1.127700686454773, 0, 0, 0, 0.0, 0.0, 0.0, 0.0, 0.0, 0.0, 0.0, -0.02955746278166771, -0.9151521325111389, 0.01661187782883644, 0.0010509351268410683, -0.003899938892573118, 0.0029370142146945
720093, 0.38992026448249817, -1.074642539024353, -1.124941110610962, 0, 0, 0, 0.0, 0.0, 0.0, 0.0, 0.0, 0.0, 0.0, -0.029692096635699272, -0.9151602387428284, 0.016543924808502197, -0.00017653995018918067, -0.003983194008469582, 0.0023304978385567665
720103, 0.39066082239151, -1.1268247365951538, -1.1233233213424683, 0, 0, 0, 0.0, 0.0, 0.0, 0.0, 0.0, 0.0, 0.0, -0.029001792892813683, -0.9151447415351868, 0.01649727113544941, 0.0061800251714885235, -0.0038167228922247887, 0.002107730135321617
720113, 0.38984107971191406, -1.0307697057724, -1.1240644454956055, 0, 0, 0, 0.0, 0.0, 0.0, 0.0, 0.0, 0.0, 0.0, -0.03034946322441101, -0.9151054620742798, 0.016449570655822754, -0.006824856624007225, -0.003701678477227688, 0.0016272999346256256
720124, 0.4305662214756012, -1.1219464540481567, -1.1224634647369385, 0, 0, 0, 0.0, 0.0, 0.0, 0.0, 0.0, 0.0, 0.0, -0.029049241915345192, -0.9157779812812805, 0.016949625685811043, 0.0057227821089327335, -0.009220586158335209, 0.004499095492064953
720134, 0.4319925010204315, -1.122818946838379, -1.1257524490356445, 0, 0, 0, 0.0, 0.0, 0.0, 0.0, 0.0, 0.0, 0.0, -0.02908325009047985, -0.9158612489700317, 0.016861094161868095, 0.005433887243270874, -0.009452386759221554, 0.003596171038225293
720143, 0.38605496287345886, -1.0740697383880615, -1.1261992454528809, 0, 0, 0, 0.0, 0.0, 0.0, 0.0, 0.0, 0.0, 0.0, -0.02968519553542137, -0.9151686429977417, 0.016815973445773125, -0.0005657303263433278, -0.0033228590618819, 0.002849651500582695
720153, 0.3860282599925995, -1.0727171897888184, -1.124760389328003, 0, 0, 0, 0.0, 0.0, 0.0, 0.0, 0.0, 0.0, 0.0, -0.02970336750149727, -0.9152144193649292, 0.016784923151135445, -0.00066742132185027, -0.003668497083708644, 0.0024085959885269403
720163, 0.40475887060165405, -1.074911117553711, -1.123085379600525, 0, 0, 0, 0.0, 0.0, 0.0, 0.0, 0.0, 0.0, 0.0, -0.029693452641367912, -0.9154649376869202, 0.01679058186709881, -0.0005125572788529098, -0.005822068080306053, 0.0022555540781468153
720173, 0.43022334575653076, -1.1526944637298584, -1.120150089263916, 0, 0, 0, 0.0, 0.0, 0.0, 0.0, 0.0, 0.0, 0.0, -0.028534840792417526, -0.9158725142478943, 0.016713105142116547, 0.00962938740849495, -0.00899407360702753, 0.0018561234464868903
720184, 0.3862529695034027, -1.0836279392242432, -1.1195683479309082, 0, 0, 0, 0.0, 0.0, 0.0, 0.0, 0.0, 0.0, 0.0, -0.029573213309049606, -0.9151743054389954, 0.01667826808989048, 0.00034802741720341146, -0.0033667092211544514, 0.0014752874849364161
720193, 0.38595888018608093, -1.0818651914596558, -1.1193691492080688, 0, 0, 0, 0.0, 0.0, 0.0, 0.0, 0.0, 0.0, 0.0, -0.029564976692199707, -0.9151915907859802, 0.016587302088737488, 0.00043465159251354635, -0.0035390262492001057, 0.0008557412656955421
720203, 0.41088443994522095, -1.0759578943252563, -1.1264710426330566, 0, 0, 0, 0.0, 0.0, 0.0, 0.0, 0.0, 0.0, 0.0, -0.029725076630711555, -0.9155527353286743, 0.01651797816157341, -0.0006953694391995668, -0.006681833881884813, 0.0003920654999092221
720213, 0.4097079932689667, -1.0760258436203003, -1.1248747110366821, 0, 0, 0, 0.0, 0.0, 0.0, 0.0, 0.0, 0.0, 0.0, -0.02973788231611252, -0.9155872464179993, 0.01627388782799244, -0.00062471505952999, -0.006730137392878532, -0.0012524370104074478
720223, 0.37461358308792114, -1.0774067640304565, -1.1301443576812744, 0, 0, 0, 0.0, 0.0, 0.0, 0.0, 0.0, 0.0, 0.0, -0.02973771095275879, -0.9150757193565369, 0.01619214378297329, -0.0004287414194550365, -0.0021089524962008, -0.0018013706430792809
720233, 0.37302955985069275, -1.0777084827423096, -1.1297188997268677, 0, 0, 0, 0.0, 0.0, 0.0, 0.0, 0.0, 0.0, 0.0, -0.029726248234510422, -0.9150816202163696, 0.01607142761349678, -0.0002844395930878818, -0.002045322908088565, -0.0024458004627376795
720243, 0.37357398867607117, -1.0764127969741821, -1.128190040588379, 0, 0, 0, 0.0, 0.0, 0.0, 0.0, 0.0, 0.0, 0.0, -0.029710490256547928, -0.9150710701942444, 0.016045713797211647, -0.0001583689299877733, -0.0020895451307296753, -0.0026095875073224306
720253, 0.3748067021369934, -1.0420981645584106, -1.123984456062317, 0, 0, 0, 0.0, 0.0, 0.0, 0.0, 0.0, 0.0, 0.0, -0.030254965648055077, -0.9150728583335876, 0.015952017158269882, -0.004463095683604479, -0.0022284777369350195, -0.0030846293084323406
720263, 0.46721553802490234, -1.1566004753112793, -1.1179537773132324, 0, 0, 0, 0.0, 0.0, 0.0, 0.0, 0.0, 0.0, 0.0, -0.028690945357084274, -0.9164513945579529, 0.01721704937517643, 0.009360822848975658, -0.01352215651422739, 0.005417658947408199
720273, 0.3788364827632904, -1.0759462118148804, -1.11911141872406, 0, 0, 0, 0.0, 0.0, 0.0, 0.0, 0.0, 0.0, 0.0, -0.02972290851175785, -0.9152296781539917, 0.01718847081065178, 0.00010043422662420198, -0.0032460312359035015, 0.004702829290181398
720283, 0.37775108218193054, -1.0736799240112305, -1.1176953315734863, 0, 0, 0, 0.0, 0.0, 0.0, 0.0, 0.0, 0.0, 0.0, -0.02973189949989319, -0.9152621030807495, 0.017123684287071228, 9.60273391683586e-05, -0.003432855475693941, 0.0038280223961919546
720293, 0.3810613751411438, -1.0496596097946167, -1.122948169708252, 0, 0, 0, 0.0, 0.0, 0.0, 0.0, 0.0, 0.0, 0.0, -0.030145511031150818, -0.9152876734733582, 0.017082126811146736, -0.0032525048591196537, -0.0035218812990933657, 0.0030724438838660717
720303, 0.3800482749938965, -1.1055424213409424, -1.1218845844268799, 0, 0, 0, 0.0, 0.0, 0.0, 0.0, 0.0, 0.0, 0.0, -0.029349228367209435, -0.9152874946594238, 0.01635347306728363, 0.0035688653588294983, -0.003645668039098382, -0.0017021603416651487
720313, 0.37722113728523254, -1.0856389999389648, -1.1216204166412354, 0, 0, 0, 0.0, 0.0, 0.0, 0.0, 0.0, 0.0, 0.0, -0.029616951942443848, -0.9152851700782776, 0.016277557238936424, 0.0011775674065575004, -0.0038656978867948055, -0.0021868671756237745
720323, 0.3841502070426941, -1.1127310991287231, -1.119459629058838, 0, 0, 0, 0.0, 0.0, 0.0, 0.0, 0.0, 0.0, 0.0, -0.029163355007767677, -0.91541987657547, 0.016168029978871346, 0.004461008124053478, -0.0047551365569233894, -0.0023197676055133343
720333, 0.3727414608001709, -1.0747253894805908, -1.1181825399398804, 0, 0, 0, 0.0, 0.0, 0.0, 0.0, 0.0, 0.0, 0.0, -0.029707511886954308, -0.9152638912200928, 0.016077857464551926, 0.00028488345560617745, -0.003633518237620592, -0.002809887984767556
720343, 0.3796692192554474, -1.0766021013259888, -1.117942214012146, 0, 0, 0, 0.0, 0.0, 0.0, 0.0, 0.0, 0.0, 0.0, -0.02970043197274208, -0.915350079536438, 0.016036972403526306, 0.0003970844845753163, -0.004472899250686169, -0.0030547953210771084
720353, 0.38050416111946106, -1.0763611793518066, -1.1163841485977173, 0, 0, 0, 0.0, 0.0, 0.0, 0.0, 0.0, 0.0, 0.0, -0.029661865904927254, -0.9153532981872559, 0.017225515097379684, 0.0005059451214037836, -0.004350136034190655, 0.0043523721396923065
720363, 0.3622152507305145, -1.0792897939682007, -1.121077537536621, 0, 0, 0, 0.0, 0.0, 0.0, 0.0, 0.0, 0.0, 0.0, -0.029677435755729675, -0.9151208400726318, 0.017145942896604538, 0.0003407099284231663, -0.002248224336653948, 0.003560435026884079
720373, 0.3627152740955353, -1.089578628540039, -1.1225457191467285, 0, 0, 0, 0.0, 0.0, 0.0, 0.0, 0.0, 0.0, 0.0, -0.0295950286090374, -0.915155827999115, 0.017073703929781914, 0.0012209507403895259, -0.002387301530689001, 0.003061552532017231
720383, 0.3683459460735321, -1.0840739011764526, -1.1251749992370605, 0, 0, 0, 0.0, 0.0, 0.0, 0.0, 0.0, 0.0, 0.0, -0.029685162007808685, -0.9151297211647034, 0.017050957307219505, 0.00025381543673574924, -0.002343775238841772, 0.0026809917762875557
720393, 0.4449605643749237, -1.094872236251831, -1.1195961236953735, 0, 0, 0, 0.0, 0.0, 0.0, 0.0, 0.0, 0.0, 0.0, -0.029583055526018143, -0.9162182807922363, 0.01786321960389614, 0.0011712457053363323, -0.011430185288190842, 0.007393986918032169
720403, 0.3729325234889984, -1.109086036682129, -1.1191418170928955, 0, 0, 0, 0.0, 0.0, 0.0, 0.0, 0.0, 0.0, 0.0, -0.029325684532523155, -0.9152517318725586, 0.01782633550465107, 0.00313958921469748, -0.0029266413766890764, 0.006756430491805077
720413, 0.3720704913139343, -1.0835726261138916, -1.1154714822769165, 0, 0, 0, 0.0, 0.0, 0.0, 0.0, 0.0, 0.0, 0.0, -0.02967304363846779, -0.9152321219444275, 0.017755873501300812, 4.021405038656667e-05, -0.0027053782250732183, 0.006043695844709873
720423, 0.37741872668266296, -1.0841333866119385, -1.11024808883667, 0, 0, 0, 0.0, 0.0, 0.0, 0.0, 0.0, 0.0, 0.0, -0.02971646748483181, -0.9153016805648804, 0.017725419253110886, -0.0003778905957005918, -0.0028934678994119167, 0.005487683229148388
720433, 0.37971365451812744, -1.077087163925171, -1.117668628692627, 0, 0, 0, 0.0, 0.0, 0.0, 0.0, 0.0, 0.0, 0.0, -0.029855594038963318, -0.9153280854225159, 0.018366510048508644, -0.0015386563027277589, -0.0030221031047403812, 0.00889029074460268
720443, 0.3789217472076416, -1.1015459299087524, -1.1172380447387695, 0, 0, 0, 0.0, 0.0, 0.0, 0.0, 0.0, 0.0, 0.0, -0.02945788949728012, -0.9152653217315674, 0.01822657696902752, 0.0017803130904212594, -0.00280655175447464, 0.008052650839090347
720453, 0.36133870482444763, -1.0936120748519897, -1.122624397277832, 0, 0, 0, 0.0, 0.0, 0.0, 0.0, 0.0, 0.0, 0.0, -0.029590889811515808, -0.9150388836860657, 0.018215708434581757, 0.000667098443955183, -0.0009354155627079308, 0.007500790525227785
720463, 0.36795714497566223, -1.0851085186004639, -1.121991515159607, 0, 0, 0, 0.0, 0.0, 0.0, 0.0, 0.0, 0.0, 0.0, -0.02969641238451004, -0.9151377081871033, 0.01812751404941082, -6.267581284191692e-06, -0.0021407860331237316, 0.006504338700324297
720474, 0.36547988653182983, -1.0765490531921387, -1.120896577835083, 0, 0, 0, 0.0, 0.0, 0.0, 0.0, 0.0, 0.0, 0.0, -0.02978627011179924, -0.9151047468185425, 0.01801948994398117, -0.0007767435745336115, -0.002077643293887377, 0.005279067438095808
720483, 0.38812944293022156, -1.0965983867645264, -1.11911141872406, 0, 0, 0, 0.0, 0.0, 0.0, 0.0, 0.0, 0.0, 0.0, -0.029565172269940376, -0.9154146909713745, 0.016673900187015533, 0.0013731790240854025, -0.005249032750725746, -0.003621343756094575
720493, 0.38895082473754883, -1.164244532585144, -1.1187254190444946, 0, 0, 0, 0.0, 0.0, 0.0, 0.0, 0.0, 0.0, 0.0, -0.028668956831097603, -0.915424108505249, 0.01655665971338749, 0.009061495773494244, -0.00541479280218482, -0.004150227177888155
720503, 0.37080568075180054, -1.1513272523880005, -1.117953896522522, 0, 0, 0, 0.0, 0.0, 0.0, 0.0, 0.0, 0.0, 0.0, -0.028760336339473724, -0.9152101874351501, 0.016481339931488037, 0.007815364748239517, -0.003500069957226515, -0.004571972414851189
720513, 0.3716777265071869, -1.1005396842956543, -1.1158463954925537, 0, 0, 0, 0.0, 0.0, 0.0, 0.0, 0.0, 0.0, 0.0, -0.029440999031066895, -0.9151874780654907, 0.016368171200156212, 0.0017047484871000051, -0.0035762216430157423, -0.005079445894807577
720523, 0.3785463273525238, -1.0820831060409546, -1.1196472644805908, 0, 0, 0, 0.0, 0.0, 0.0, 0.0, 0.0, 0.0, 0.0, -0.02972344122827053, -0.9152435064315796, 0.016744563356041908, -0.00018011592328548431, -0.00393799040466547, -0.0024290720466524363
720534, 0.4184053838253021, -1.1606241464614868, -1.1183292865753174, 0, 0, 0, 0.0, 0.0, 0.0, 0.0, 0.0, 0.0, 0.0, -0.028585074469447136, -0.9157541990280151, 0.016640854999423027, 0.009849184192717075, -0.008526662364602089, -0.002933407435193658
720543, 0.37430641055107117, -1.0908948183059692, -1.1179932355880737, 0, 0, 0, 0.0, 0.0, 0.0, 0.0, 0.0, 0.0, 0.0, -0.02948436141014099, -0.9152542948722839, 0.016528131440281868, 0.001414923695847392, -0.003729721065610647, -0.003325284458696842
720553, 0.3737686276435852, -1.0899711847305298, -1.1165566444396973, 0, 0, 0, 0.0, 0.0, 0.0, 0.0, 0.0, 0.0, 0.0, -0.029591048136353493, -0.9152058362960815, 0.016484415158629417, 0.0004868299001827836, -0.0035305125638842583, -0.0036201956681907177
720563, 0.3955044448375702, -1.085677146911621, -1.1213127374649048, 0, 0, 0, 0.0, 0.0, 0.0, 0.0, 0.0, 0.0, 0.0, -0.029686886817216873, -0.9153943657875061, 0.016360187903046608, -0.00037508108653128147, -0.0055599212646484375, -0.004170272033661604
720574, 0.3790019154548645, -1.1591073274612427, -1.1167991161346436, 0, 0, 0, 0.0, 0.0, 0.0, 0.0, 0.0, 0.0, 0.0, -0.02875412255525589, -0.9152356386184692, 0.016454456374049187, 0.008256379514932632, -0.0036878101527690887, -0.0032202096190303564
720584, 0.37963372468948364, -1.118859052658081, -1.1147772073745728, 0, 0, 0, 0.0, 0.0, 0.0, 0.0, 0.0, 0.0, 0.0, -0.029278922826051712, -0.9151994585990906, 0.01636434718966484, 0.0032055138144642115, -0.003581720171496272, -0.0037686447612941265
720593, 0.4340054392814636, -1.154603123664856, -1.1124228239059448, 0, 0, 0, 0.0, 0.0, 0.0, 0.0, 0.0, 0.0, 0.0, -0.028794797137379646, -0.9159876108169556, 0.016231387853622437, 0.008051309734582901, -0.010439752601087093, -0.004401613492518663
720603, 0.37461572885513306, -1.0971155166625977, -1.1123138666152954, 0, 0, 0, 0.0, 0.0, 0.0, 0.0, 0.0, 0.0, 0.0, -0.029522083699703217, -0.9152002930641174, 0.016186930239200592, 0.0011564948363229632, -0.0031100891064852476, -0.004427687264978886
720613, 0.38320544362068176, -1.0827815532684326, -1.110007643699646, 0, 0, 0, 0.0, 0.0, 0.0, 0.0, 0.0, 0.0, 0.0, -0.029723813757300377, -0.9153009653091431, 0.01697785034775734, -0.00070067128399387, -0.003978945780545473, 0.0011234171688556671
720624, 0.37318646907806396, -1.1439802646636963, -1.109496831893921, 0, 0, 0, 0.0, 0.0, 0.0, 0.0, 0.0, 0.0, 0.0, -0.028774360194802284, -0.9152091145515442, 0.01688566990196705, 0.007410862948745489, -0.002992849098518491, 0.00036084098974242806
720633, 0.38766324520111084, -1.1090550422668457, -1.1079376935958862, 0, 0, 0, 0.0, 0.0, 0.0, 0.0, 0.0, 0.0, 0.0, -0.02931315451860428, -0.9154084920883179, 0.016805749386548996, 0.003018972696736455, -0.004987665452063084, -0.0002204030897701159
720643, 0.3667258620262146, -1.0683314800262451, -1.1134051084518433, 0, 0, 0, 0.0, 0.0, 0.0, 0.0, 0.0, 0.0, 0.0, -0.029880642890930176, -0.9151155352592468, 0.016686858609318733, -0.0019396273419260979, -0.0024753857869654894, -0.000769470352679491
720653, 0.3658673167228699, -1.0637686252593994, -1.1130205392837524, 0, 0, 0, 0.0, 0.0, 0.0, 0.0, 0.0, 0.0, 0.0, -0.029879389330744743, -0.9151058793067932, 0.016620276495814323, -0.0018656151369214058, -0.0024790149182081223, -0.0012050983496010303
720663, 0.3680068254470825, -1.0830672979354858, -1.1098012924194336, 0, 0, 0, 0.0, 0.0, 0.0, 0.0, 0.0, 0.0, 0.0, -0.029645675793290138, -0.9151344895362854, 0.017629608511924744, 0.0002965276362374425, -0.002716674003750086, 0.005554528441280127
720674, 0.36781999468803406, -1.0947502851486206, -1.107872724533081, 0, 0, 0, 0.0, 0.0, 0.0, 0.0, 0.0, 0.0, 0.0, -0.02951403521001339, -0.9151331186294556, 0.01755986362695694, 0.001500843558460474, -0.002832196420058608, 0.004626318346709013
720684, 0.3784949779510498, -1.0882328748703003, -1.1049884557724, 0, 0, 0, 0.0, 0.0, 0.0, 0.0, 0.0, 0.0, 0.0, -0.02963671274483204, -0.9152292609214783, 0.01748562976717949, 0.0004005276714451611, -0.003863006131723523, 0.003744455287232995
720693, 0.3758276700973511, -1.0793321132659912, -1.1039389371871948, 0, 0, 0, 0.0, 0.0, 0.0, 0.0, 0.0, 0.0, 0.0, -0.02974560298025608, -0.915227472782135, 0.017449382692575455, -0.0008244074997492135, -0.003749122377485037, 0.0032385645899921656
720703, 0.37844881415367126, -1.0576205253601074, -1.103169560432434, 0, 0, 0, 0.0, 0.0, 0.0, 0.0, 0.0, 0.0, 0.0, -0.030094780027866364, -0.9152317643165588, 0.017303580418229103, -0.0038947209250181913, -0.003716655308380723, 0.002108347835019231
720713, 0.45197412371635437, -1.1260645389556885, -1.100136399269104, 0, 0, 0, 0.0, 0.0, 0.0, 0.0, 0.0, 0.0, 0.0, -0.0291907899081707, -0.9162620306015015, 0.01679597981274128, 0.005042131990194321, -0.01327134482562542, -0.000994766945950687
720723, 0.37326210737228394, -1.0677881240844727, -1.1001274585723877, 0, 0, 0, 0.0, 0.0, 0.0, 0.0, 0.0, 0.0, 0.0, -0.029968880116939545, -0.9151996970176697, 0.016728028655052185, -0.002676934003829956, -0.003112125676125288, -0.0014078172389417887
720733, 0.3747371733188629, -1.0772587060928345, -1.1042194366455078, 0, 0, 0, 0.0, 0.0, 0.0, 0.0, 0.0, 0.0, 0.0, -0.029858671128749847, -0.915198028087616, 0.016601959243416786, -0.0015028906054794788, -0.0031003195326775312, -0.0020172770600765944
720743, 0.37354975938796997, -1.075695276260376, -1.1021289825439453, 0, 0, 0, 0.0, 0.0, 0.0, 0.0, 0.0, 0.0, 0.0, -0.029851077124476433, -0.915203869342804, 0.016489703208208084, -0.0012424089945852757, -0.003438126528635621, -0.002541883150115609
720753, 0.37542563676834106, -1.1125789880752563, -1.101665735244751, 0, 0, 0, 0.0, 0.0, 0.0, 0.0, 0.0, 0.0, 0.0, -0.029367858543992043, -0.915225088596344, 0.017266448587179184, 0.0034543119836598635, -0.003295999253168702, 0.0030826148577034473
720763, 0.39888858795166016, -1.107161283493042, -1.101407766342163, 0, 0, 0, 0.0, 0.0, 0.0, 0.0, 0.0, 0.0, 0.0, -0.02937447652220726, -0.915558934211731, 0.017178533598780632, 0.003402507631108165, -0.006349258124828339, 0.002416401170194149
720773, 0.40385913848876953, -1.1642886400222778, -1.0996109247207642, 0, 0, 0, 0.0, 0.0, 0.0, 0.0, 0.0, 0.0, 0.0, -0.028564870357513428, -0.9156730771064758, 0.017053067684173584, 0.010598074644804, -0.007310308050364256, 0.0015749348094686866
720784, 0.4036397635936737, -1.0781558752059937, -1.0960553884506226, 0, 0, 0, 0.0, 0.0, 0.0, 0.0, 0.0, 0.0, 0.0, -0.02973533235490322, -0.915642499923706, 0.016989674419164658, -0.00019781601440627128, -0.007248599082231522, 0.0008945658337324858
720793, 0.3678969144821167, -1.059102177619934, -1.0966764688491821, 0, 0, 0, 0.0, 0.0, 0.0, 0.0, 0.0, 0.0, 0.0, -0.029943838715553284, -0.91517573595047, 0.017866451293230057, -0.0020204323809593916, -0.0030732753220945597, 0.006663305684924126
720803, 0.45370280742645264, -1.1312659978866577, -1.100786566734314, 0, 0, 0, 0.0, 0.0, 0.0, 0.0, 0.0, 0.0, 0.0, -0.029032910242676735, -0.9162545204162598, 0.01787257194519043, 0.0062129804864525795, -0.012244125828146935, 0.006445781793445349
720813, 0.39066392183303833, -1.0833895206451416, -1.0995548963546753, 0, 0, 0, 0.0, 0.0, 0.0, 0.0, 0.0, 0.0, 0.0, -0.029731187969446182, -0.9154459834098816, 0.017801735550165176, 5.33149104740005e-05, -0.00499453442171216, 0.005397023167461157
720823, 0.4480809271335602, -1.086281180381775, -1.0971287488937378, 0, 0, 0, 0.0, 0.0, 0.0, 0.0, 0.0, 0.0, 0.0, -0.029719144105911255, -0.9162055253982544, 0.017697429284453392, 0.0003161066852044314, -0.011753919534385204, 0.004254278261214495
720833, 0.3532763719558716, -1.084855318069458, -1.0986642837524414, 0, 0, 0, 0.0, 0.0, 0.0, 0.0, 0.0, 0.0, 0.0, -0.0297078974545002, -0.9149637222290039, 0.017694970592856407, 0.0002793284656945616, -0.0003551764239091426, 0.004047741647809744
720843, 0.3610011041164398, -1.099984884262085, -1.0961008071899414, 0, 0, 0, 0.0, 0.0, 0.0, 0.0, 0.0, 0.0, 0.0, -0.02945798821747303, -0.9150602221488953, 0.017375044524669647, 0.0024162596091628075, -0.0015688713174313307, 0.0018382014241069555
720854, 0.3576888144016266, -1.0789763927459717, -1.0963207483291626, 0, 0, 0, 0.0, 0.0, 0.0, 0.0, 0.0, 0.0, 0.0, -0.029818318784236908, -0.9150422811508179, 0.01727912947535515, -0.00045501242857426405, -0.001606661593541503, 0.001117174280807376
720863, 0.3595758378505707, -1.082703948020935, -1.101359486579895, 0, 0, 0, 0.0, 0.0, 0.0, 0.0, 0.0, 0.0, 0.0, -0.02986227348446846, -0.9151095747947693, 0.017139500007033348, -0.0003445649635978043, -0.0019869497045874596, 0.0001277780975215137
720873, 0.35934722423553467, -1.0802509784698486, -1.100022554397583, 0, 0, 0, 0.0, 0.0, 0.0, 0.0, 0.0, 0.0, 0.0, -0.029833262786269188, -0.9151033759117126, 0.017089540138840675, -0.00015229509153869003, -0.0021276213228702545, -1.908134618133772e-05
720883, 0.3829786777496338, -1.0901511907577515, -1.099467396736145, 0, 0, 0, 0.0, 0.0, 0.0, 0.0, 0.0, 0.0, 0.0, -0.0297173373401165, -0.9154587388038635, 0.016891125589609146, 0.00094562181038782, -0.0052788034081459045, -0.0011125565506517887
720893, 0.3717983067035675, -1.0881450176239014, -1.0985133647918701, 0, 0, 0, 0.0, 0.0, 0.0, 0.0, 0.0, 0.0, 0.0, -0.029689602553844452, -0.9153268337249756, 0.016874238848686218, 0.0010991228045895696, -0.004160551819950342, -0.0010833116248250008
720903, 0.36389991641044617, -1.093445062637329, -1.0955442190170288, 0, 0, 0, 0.0, 0.0, 0.0, 0.0, 0.0, 0.0, 0.0, -0.02966337464749813, -0.9151896238327026, 0.016769805923104286, 0.0013619668316096067, -0.0030603345949202776, -0.0016876829322427511
720913, 0.3638666868209839, -1.0907127857208252, -1.0941393375396729, 0, 0, 0, 0.0, 0.0, 0.0, 0.0, 0.0, 0.0, 0.0, -0.029672924429178238, -0.9152186512947083, 0.01666056551039219, 0.0014068989548832178, -0.003219174686819315, -0.0021947852801531553
720923, 0.39778801798820496, -1.0943721532821655, -1.093273401260376, 0, 0, 0, 0.0, 0.0, 0.0, 0.0, 0.0, 0.0, 0.0, -0.029654063284397125, -0.9156724214553833, 0.016521014273166656, 0.001400148612447083, -0.007242957595735788, -0.0027778695803135633
720933, 0.3647650182247162, -1.0941354036331177, -1.0992257595062256, 0, 0, 0, 0.0, 0.0, 0.0, 0.0, 0.0, 0.0, 0.0, -0.029673809185624123, -0.9152036905288696, 0.016263501718640327, 0.0011820237850770354, -0.0031092804856598377, -0.004142905119806528
720943, 0.3799618184566498, -1.1199967861175537, -1.095960021018982, 0, 0, 0, 0.0, 0.0, 0.0, 0.0, 0.0, 0.0, 0.0, -0.02931487374007702, -0.9153498411178589, 0.016178390011191368, 0.004080696031451225, -0.004112622234970331, -0.0042464896105229855
720953, 0.37700510025024414, -1.1057204008102417, -1.0919127464294434, 0, 0, 0, 0.0, 0.0, 0.0, 0.0, 0.0, 0.0, 0.0, -0.029543183743953705, -0.9152112007141113, 0.016092758625745773, 0.002068344270810485, -0.002879219828173518, -0.004291518125683069
720963, 0.37634560465812683, -1.1059328317642212, -1.090667963027954, 0, 0, 0, 0.0, 0.0, 0.0, 0.0, 0.0, 0.0, 0.0, -0.029508383944630623, -0.9152024388313293, 0.015986528247594833, 0.0020745417568832636, -0.0029851063154637814, -0.004525212105363607
720973, 0.38529694080352783, -1.0964854955673218, -1.0899704694747925, 0, 0, 0, 0.0, 0.0, 0.0, 0.0, 0.0, 0.0, 0.0, -0.029629288241267204, -0.915321409702301, 0.01621992327272892, 0.0009932048851624131, -0.003965702373534441, -0.002691885456442833
720984, 0.3854805529117584, -1.135342001914978, -1.0949163436889648, 0, 0, 0, 0.0, 0.0, 0.0, 0.0, 0.0, 0.0, 0.0, -0.029156289994716644, -0.9153182506561279, 0.016117623075842857, 0.005085071548819542, -0.0037152813747525215, -0.0030693511944264174
720993, 0.38950473070144653, -1.1092506647109985, -1.0976544618606567, 0, 0, 0, 0.0, 0.0, 0.0, 0.0, 0.0, 0.0, 0.0, -0.029503554105758667, -0.9152923822402954, 0.016064342111349106, 0.0019121329532936215, -0.0034629576839506626, -0.0033036014065146446
721003, 0.39797282218933105, -1.1443597078323364, -1.0941067934036255, 0, 0, 0, 0.0, 0.0, 0.0, 0.0, 0.0, 0.0, 0.0, -0.02904965914785862, -0.9154384136199951, 0.01595810428261757, 0.005843983963131905, -0.004476589150726795, -0.003696655621752143
721013, 0.3947473466396332, -1.0989298820495605, -1.0938135385513306, 0, 0, 0, 0.0, 0.0, 0.0, 0.0, 0.0, 0.0, 0.0, -0.029647108167409897, -0.9154237508773804, 0.01586931385099888, 0.0008184898761101067, -0.004417865537106991, -0.00413696002215147
721023, 0.37402474880218506, -1.098975658416748, -1.093541145324707, 0, 0, 0, 0.0, 0.0, 0.0, 0.0, 0.0, 0.0, 0.0, -0.029622673988342285, -0.9151595830917358, 0.015535886399447918, 0.0010716032702475786, -0.002413639100268483, -0.005945811979472637
721033, 0.37427353858947754, -1.0973401069641113, -1.092193365097046, 0, 0, 0, 0.0, 0.0, 0.0, 0.0, 0.0, 0.0, 0.0, -0.02960151620209217, -0.9151560664176941, 0.01543683372437954, 0.0013143158284947276, -0.0026458611246198416, -0.006057943683117628
721043, 0.3729948103427887, -1.098154067993164, -1.0917521715164185, 0, 0, 0, 0.0, 0.0, 0.0, 0.0, 0.0, 0.0, 0.0, -0.029590733349323273, -0.9151779413223267, 0.015362735837697983, 0.0014013308100402355, -0.0027829965110868216, -0.00616873987019062
721053, 0.37453266978263855, -1.0819286108016968, -1.0906001329421997, 0, 0, 0, 0.0, 0.0, 0.0, 0.0, 0.0, 0.0, 0.0, -0.029839521273970604, -0.9151695370674133, 0.015286841429769993, -0.0005778848426416516, -0.0031004587654024363, -0.006219516042619944
721064, 0.4553412199020386, -1.1107412576675415, -1.0886902809143066, 0, 0, 0, 0.0, 0.0, 0.0, 0.0, 0.0, 0.0, 0.0, -0.02948400378227234, -0.9162816405296326, 0.015185033902525902, 0.0027726152911782265, -0.012542815878987312, -0.0060820006765425205
721074, 0.6439909338951111, -1.3930891752243042, -1.091157078742981, 0, 0, 0, 0.0, 0.0, 0.0, 0.0, 0.0, 0.0, 0.0, -0.0286722369492054, -0.9158218502998352, 0.016009589657187462, 0.01153966598212719, -0.010571231134235859, -0.0007571803289465606
721084, 0.7549931406974792, -1.475154995918274, -1.0774341821670532, 0, 0, 0, 0.0, 0.0, 0.0, 0.0, 0.0, 0.0, 0.0, -0.028579074889421463, -0.9160668253898621, 0.015947366133332253, 0.01307594496756792, -0.0138162262737751, -0.0011098997201770544
721093, 0.039578765630722046, -0.06312395632266998, -0.030547868460416794, 0, 0, 0, 0.0, 0.0, 0.0, 0.0, 0.0, 0.0, 0.0, 0.0, 0.0, 0.0, 0.0, 0.0, 0.0
721103, 0.10722611099481583, -0.12758399546146393, -0.05152806267142296, 0, 0, 0, 0.0, 0.0, 0.0, 0.0, 0.0, 0.0, 0.0, -0.029702721163630486, -0.9145025014877319, 0.014888876117765903, -0.0007329528452828526, -0.00565539114177227, 3.234306859667413e-05
721113, 0.2355319857597351, -0.29199478030204773, -0.09733081609010696, 0, 0, 0, 0.0, 0.0, 0.0, 0.0, 0.0, 0.0, 0.0, -0.029767194762825966, -0.9146833419799805, 0.01975155808031559, 0.004812570754438639, -0.0041418238542973995, 0.000389144872315228
721124, 0.2661990523338318, -0.334512323141098, -0.14636285603046417, 0, 0, 0, 0.0, 0.0, 0.0, 0.0, 0.0, 0.0, 0.0, -0.02982054464519024, -0.9146313071250916, 0.019330032169818878, -0.002252518432214856, -0.0006030030781403184, 0.00042123955790884793
721133, 0.2858923673629761, -0.4376488924026489, -0.24060268700122833, 0, 0, 0, 0.0, 0.0, 0.0, 0.0, 0.0, 0.0, 0.0, -0.030186334624886513, -0.914919912815094, 0.018886007368564606, -0.003905698424205184, 0.0004895196761935949, 0.0002797988126985729
721143, 0.35514867305755615, -0.5953369140625, -0.26037922501564026, 0, 0, 0, 0.0, 0.0, 0.0, 0.0, 0.0, 0.0, 0.0, -0.03011500835418701, -0.9149075150489807, 0.018733026459813118, -0.0005450397729873657, 0.00011112683569081128, 0.0002466551086399704
721153, 0.5743565559387207, -0.6066259145736694, -0.3058450520038605, 0, 0, 0, 0.0, 0.0, 0.0, 0.0, 0.0, 0.0, 0.0, -0.03003552183508873, -0.914934515953064, 0.018433241173624992, -0.004570524673908949, -0.008867429569363594, -0.00019527209224179387
721163, 0.3971467614173889, -0.726296603679657, -0.31094422936439514, 0, 0, 0, 0.0, 0.0, 0.0, 0.0, 0.0, 0.0, 0.0, -0.029942844063043594, -0.91473788022995, 0.01626596786081791, -0.00024269643472507596, -0.00020127627067267895, -0.0034159966744482517
721173, 0.42994433641433716, -0.7184779644012451, -0.3636229932308197, 0, 0, 0, 0.0, 0.0, 0.0, 0.0, 0.0, 0.0, 0.0, -0.03007935918867588, -0.9147733449935913, 0.016146549955010414, -0.00404243404045701, -0.0007430908153764904, -0.0037836453411728144
721183, 0.585552990436554, -0.7842330932617188, -0.366510272026062, 0, 0, 0, 0.0, 0.0, 0.0, 0.0, 0.0, 0.0, 0.0, -0.03005022555589676, -0.9149352312088013, 0.016058743000030518, -0.0035745007917284966, -0.006834388244897127, -0.003865636419504881
721193, 0.7662143707275391, -0.9756905436515808, -0.3893027603626251, 0, 0, 0, 0.0, 0.0, 0.0, 0.0, 0.0, 0.0, 0.0, -0.02979743294417858, -0.9152544140815735, 0.015955356881022453, 0.0023247518111020327, -0.014262724667787552, -0.00392534164711833
721203, 0.7830855846405029, -1.049845814704895, -0.4099673330783844, 0, 0, 0, 0.0, 0.0, 0.0, 0.0, 0.0, 0.0, 0.0, -0.029691094532608986, -0.9153318405151367, 0.015883129090070724, 0.003869428066536784, -0.014776159077882767, -0.004022579174488783
721213, 0.48973095417022705, -0.9114466309547424, -0.42717114090919495, 0, 0, 0, 0.0, 0.0, 0.0, 0.0, 0.0, 0.0, 0.0, -0.030002586543560028, -0.9147132039070129, 0.015834426507353783, -0.003491772571578622, -0.0013739001005887985, -0.004278098698705435
721224, 0.5798429846763611, -0.9661990404129028, -0.4438464641571045, 0, 0, 0, 0.0, 0.0, 0.0, 0.0, 0.0, 0.0, 0.0, -0.03000481240451336, -0.9148412942886353, 0.0157444030046463, -0.0028987324330955744, -0.004140939097851515, -0.004490614403039217
721233, 0.5859425663948059, -0.9574263095855713, -0.46230804920196533, 0, 0, 0, 0.0, 0.0, 0.0, 0.0, 0.0, 0.0, 0.0, -0.03014567866921425, -0.9148035645484924, 0.015657804906368256, -0.005196878686547279, -0.0035266755148768425, -0.0045937951654195786
721243, 0.6091703772544861, -1.071010947227478, -0.484873503446579, 0, 0, 0, 0.0, 0.0, 0.0, 0.0, 0.0, 0.0, 0.0, -0.02996687777340412, -0.9147942662239075, 0.015632038936018944, -0.0015353142516687512, -0.003398576285690069, -0.004726580809801817
721253, 0.5958165526390076, -1.3316055536270142, -0.4993540942668915, 0, 0, 0, 0.0, 0.0, 0.0, 0.0, 0.0, 0.0, 0.0, -0.029400374740362167, -0.9148244857788086, 0.015970604494214058, 0.009925544261932373, -0.003679895307868719, -0.001880138530395925
721263, 0.6029598116874695, -1.1141622066497803, -0.5266700387001038, 0, 0, 0, 0.0, 0.0, 0.0, 0.0, 0.0, 0.0, 0.0, -0.029966814443469048, -0.9148807525634766, 0.015914367511868477, -0.0005497409147210419, -0.0042852540500462055, -0.0022494003642350435
721274, 0.7041733860969543, -1.1739213466644287, -0.5367738604545593, 0, 0, 0, 0.0, 0.0, 0.0, 0.0, 0.0, 0.0, 0.0, -0.029866624623537064, -0.9150925278663635, 0.015822404995560646, 0.001571396249346435, -0.00836525484919548, -0.0026803871151059866
721283, 0.6596083641052246, -1.1412264108657837, -0.5554153323173523, 0, 0, 0, 0.0, 0.0, 0.0, 0.0, 0.0, 0.0, 0.0, -0.030026167631149292, -0.9150288105010986, 0.015727955847978592, -0.0010037089232355356, -0.006430645938962698, -0.002735384739935398
721293, 0.6648461222648621, -1.3480793237686157, -0.5627983808517456, 0, 0, 0, 0.0, 0.0, 0.0, 0.0, 0.0, 0.0, 0.0, -0.02927938662469387, -0.9150410890579224, 0.017079360783100128, 0.009725302457809448, -0.006918736267834902, 0.0068697938695549965
721303, 0.6684854030609131, -1.2106752395629883, -0.5798982381820679, 0, 0, 0, 0.0, 0.0, 0.0, 0.0, 0.0, 0.0, 0.0, -0.029839903116226196, -0.915002703666687, 0.01704234816133976, 0.0015662143705412745, -0.006596704479306936, 0.006465112324804068
721313, 0.6922436952590942, -1.2356449365615845, -0.5903899669647217, 0, 0, 0, 0.0, 0.0, 0.0, 0.0, 0.0, 0.0, 0.0, -0.029783576726913452, -0.9150446057319641, 0.016989663243293762, 0.002479925751686096, -0.007551027461886406, 0.00582125224173069
721323, 0.6989414095878601, -1.2461190223693848, -0.5960033535957336, 0, 0, 0, 0.0, 0.0, 0.0, 0.0, 0.0, 0.0, 0.0, -0.029756581410765648, -0.9151343703269958, 0.01692095398902893, 0.0031358518172055483, -0.008748212829232216, 0.004882245324552059
721333, 0.7229336500167847, -1.269344687461853, -0.6080629825592041, 0, 0, 0, 0.0, 0.0, 0.0, 0.0, 0.0, 0.0, 0.0, -0.02968534640967846, -0.9152166247367859, 0.01683739572763443, 0.004005801863968372, -0.009970098733901978, 0.0038172488566488028
721343, 0.8149216771125793, -1.4430344104766846, -0.6261439323425293, 0, 0, 0, 0.0, 0.0, 0.0, 0.0, 0.0, 0.0, 0.0, -0.02889120951294899, -0.9158211946487427, 0.016842203214764595, 0.01420389860868454, -0.016439814120531082, 0.00372220273129642
721353, 0.7084111571311951, -1.559558629989624, -0.6424212455749512, 0, 0, 0, 0.0, 0.0, 0.0, 0.0, 0.0, 0.0, 0.0, -0.028464552015066147, -0.9152731895446777, 0.01679917797446251, 0.020289359614253044, -0.00946180522441864, 0.003444887697696686
721363, 0.7891890406608582, -1.4482306241989136, -0.6422045230865479, 0, 0, 0, 0.0, 0.0, 0.0, 0.0, 0.0, 0.0, 0.0, -0.028875846415758133, -0.9156980514526367, 0.016728438436985016, 0.014142313040792942, -0.014788967557251453, 0.002712300978600979
721374, 0.7002116441726685, -1.2780965566635132, -0.6496942639350891, 0, 0, 0, 0.0, 0.0, 0.0, 0.0, 0.0, 0.0, 0.0, -0.029642466455698013, -0.9152827262878418, 0.016693228855729103, 0.0036244818475097418, -0.009463784284889698, 0.0020563830621540546
721383, 0.6954190135002136, -1.5449323654174805, -0.6530898213386536, 0, 0, 0, 0.0, 0.0, 0.0, 0.0, 0.0, 0.0, 0.0, -0.028290027752518654, -0.915304958820343, 0.01704958640038967, 0.020456409081816673, -0.009695598855614662, 0.0048955813981592655
721393, 0.6991539597511292, -1.298956036567688, -0.6640048027038574, 0, 0, 0, 0.0, 0.0, 0.0, 0.0, 0.0, 0.0, 0.0, -0.029435686767101288, -0.9154165387153625, 0.017080923542380333, 0.005584059748798609, -0.010732410475611687, 0.004311033990234137
721403, 0.7626681327819824, -1.348762035369873, -0.6682593822479248, 0, 0, 0, 0.0, 0.0, 0.0, 0.0, 0.0, 0.0, 0.0, -0.029201285913586617, -0.9157353043556213, 0.017003459855914116, 0.008481129072606564, -0.014605219475924969, 0.003878234885632992
