timeTick, roll, pitch, yaw, gyroX, gyroY, gyroZ, stateX, stateY, stateZ, stateVX, stateVY, stateVZ, stateROLL, statePITCH, stateYAW, whisker1, whisker2, whisker3, motor1, motor2, motor3, motor4, laserHeight, flowX, flowY, ext_pos_X,ext_pos_Y,ext_pos_Z, kalX, kalY, kalZ, kalPX, kalPY, kalPZ
31652, 1.2610610723495483, -2.795736789703369, -0.023406626656651497, 0, 0, 0, 0, 0, 0, 0, 0, 0, 0, 0, 0, 0, 0, 0, 0, 0, 0, 0, 0, 0, 0, 0, 0, 0, 0, 0, 0, 0, 0, 0
31663, 1.6239330768585205, -3.2318434715270996, -8.110031127929688, 0.08457835763692856, -0.2588443458080292, -0.188784658908844, 0, 0, 0, 0, 0, 0, 0, 0, 0, 0, 0, 0, 0.0, 0.0, 0.0, 0.0, 10.0, 0.0, -1.0, 0, 0, 0, 0, 0, 0, 0, 0, 0
31672, 1.9587124586105347, -3.55146861076355, -7.47161340713501, 0.01122769434005022, 0.11226348578929901, 0.056494180113077164, 0, 0, 0, 0, 0, 0, 0, 0, 0, 0, 0, 0, 0.0, 0.0, 0.0, 0.0, 10.0, 0.0, 0.0, 0.0, 0.0, 0.0, -0.04753342270851135, -0.29664257168769836, 0.013463289476931095, 0.01959543116390705, -0.02928907796740532, -0.002119901590049267
31682, 2.210439682006836, -3.695063352584839, -7.4857177734375, -0.10544665902853012, 0.36458587646484375, -0.023999782279133797, 0, 0, 0, 0, 0, 0, 0, 0, 0, 0, 0, 0, 0.0, 0.0, 0.0, 0.0, 10.0, -4.0, 8.0, 0.0, 0.0, 0.0, -0.047035250812768936, -0.2965790331363678, 0.015315569005906582, 0.01625012792646885, -0.03335786983370781, 0.008755819872021675
31692, 2.297510862350464, -3.821622610092163, -7.454869270324707, 0.10856129229068756, 0.17543399333953857, -0.1364581137895584, 0, 0, 0, 0, 0, 0, 0, 0, 0, 0, 0, 0, 0.0, 0.0, 0.0, 0.0, 18.0, 1.0, 0.0, 0.0, 0.0, 0.0, -0.04685065895318985, -0.29677680134773254, 0.015521029941737652, 0.020494332537055016, -0.03724099323153496, 0.009901056997478008
31702, 2.4598426818847656, -3.9315481185913086, -7.413487911224365, -0.05173454433679581, 0.0861586406826973, -0.10732084512710571, 0, 0, 0, 0, 0, 0, 0, 0, 0, 0, 0, 0, 0.0, 0.0, 0.0, 0.0, 18.0, 3.0, -8.0, 0.0, 0.0, 0.0, -0.046498436480760574, -0.29732653498649597, 0.015596830286085606, 0.03042050078511238, -0.043253712356090546, 0.010556311346590519
31712, 2.441525459289551, -3.9506139755249023, -7.361953258514404, 0.10896476358175278, 0.05433255806565285, -0.07934150099754333, 0, 0, 0, 0, 0, 0, 0, 0, 0, 0, 0, 0, 0.0, 0.0, 0.0, 0.0, 18.0, 0.0, 0.0, 0.0, 0.0, 0.0, -0.0462539866566658, -0.2976197898387909, 0.015779150649905205, 0.034286439418792725, -0.046569064259529114, 0.01162296999245882
31723, 2.476369619369507, -4.025057792663574, -7.311980724334717, 0.17189224064350128, -0.46180447936058044, 0.026146387681365013, 0, 0, 0, 0, 0, 0, 0, 0, 0, 0, 0, 0, 0.0, 0.0, 0.0, 0.0, 18.0, 0.0, 0.0, 0.0, 0.0, 0.0, -0.046160757541656494, -0.29795193672180176, 0.01597464829683304, 0.037971869111061096, -0.04932904988527298, 0.012715457007288933
31732, 2.5577430725097656, -4.133563041687012, -7.250200271606445, 0.21727822721004486, 0.05341089144349098, 0.030453288927674294, 0, 0, 0, 0, 0, 0, 0, 0, 0, 0, 0, 0, 0.0, 0.0, 0.0, 0.0, 18.0, 11.0, 0.0, 0.0, 0.0, 0.0, -0.04591932147741318, -0.29851338267326355, 0.013365404680371284, 0.040744174271821976, -0.06227891147136688, -0.0019043775973841548
31742, 2.5630075931549072, -4.113480567932129, -7.2789716720581055, 0.035461895167827606, 0.06966715306043625, 0.016584308817982674, 0, 0, 0, 0, 0, 0, 0, 0, 0, 0, 0, 0, 0.0, 0.0, 0.0, 0.0, 8.0, 4.0, 0.0, 0.0, 0.0, 0.0, -0.04593835398554802, -0.29895254969596863, 0.01352505199611187, 0.04018919914960861, -0.06542805582284927, -0.00023216170666273683
31752, 2.5485446453094482, -4.102538585662842, -7.2891621589660645, -0.10944363474845886, 0.048020027577877045, 0.08878903836011887, 0, 0, 0, 0, 0, 0, 0, 0, 0, 0, 0, 0, 0.0, 0.0, 0.0, 0.0, 8.0, -13.0, 4.0, 0.0, 0.0, 0.0, -0.045857783406972885, -0.2986606955528259, 0.0139436274766922, 0.03598294034600258, -0.05045872554183006, 0.0022878372110426426
31763, 2.601041078567505, -4.111694812774658, -7.2911763191223145, -0.07665708661079407, -0.01804284006357193, -0.08740805834531784, 0, 0, 0, 0, 0, 0, 0, 0, 0, 0, 0, 0, 0.0, 0.0, 0.0, 0.0, 8.0, -4.0, 7.0, 0.0, 0.0, 0.0, -0.04606827720999718, -0.29859480261802673, 0.014328302815556526, 0.029266297817230225, -0.046910855919122696, 0.004527525510638952
31772, 2.5789873600006104, -4.167022705078125, -7.2385172843933105, -0.13509702682495117, -0.01650485210120678, 0.10019754618406296, 0, 0, 0, 0, 0, 0, 0, 0, 0, 0, 0, 0, 0.0, 0.0, 0.0, 0.0, 8.0, -2.0, -4.0, 0.0, 0.0, 0.0, -0.045699089765548706, -0.2986287772655487, 0.014536712318658829, 0.035068199038505554, -0.04408762976527214, 0.005962084047496319
31782, 2.6160519123077393, -4.161533832550049, -7.250739097595215, 0.03225075453519821, -0.04325130209326744, 0.026927359402179718, 0, 0, 0, 0, 0, 0, 0, 0, 0, 0, 0, 0, 0.0, 0.0, 0.0, 0.0, 18.0, -1.0, -3.0, 0.0, 0.0, 0.0, -0.04540981724858284, -0.29880085587501526, 0.015881234779953957, 0.038468725979328156, -0.04362265765666962, 0.01420644111931324
31792, 2.6072583198547363, -4.172581195831299, -7.20662260055542, 0.014742137864232063, -0.0372212678194046, -0.07853440940380096, 0, 0, 0, 0, 0, 0, 0, 0, 0, 0, 0, 0, 0.0, 0.0, 0.0, 0.0, 18.0, 0.0, 2.0, 0.0, 0.0, 0.0, -0.0457012802362442, -0.29856541752815247, 0.015986593440175056, 0.03483238443732262, -0.04137163981795311, 0.014687147922813892
31802, 2.585585832595825, -4.18556547164917, -7.23347806930542, 0.12266157567501068, 0.041074205189943314, 0.04660497605800629, 0, 0, 0, 0, 0, 0, 0, 0, 0, 0, 0, 0, 0.0, 0.0, 0.0, 0.0, 18.0, -1.0, 0.0, 0.0, 0.0, 0.0, -0.045556508004665375, -0.29859304428100586, 0.01621093414723873, 0.03538725897669792, -0.039847128093242645, 0.015633758157491684
31812, 2.6115829944610596, -4.191216945648193, -7.228468894958496, -0.11079048365354538, -0.14065320789813995, -0.25324979424476624, 0, 0, 0, 0, 0, 0, 0, 0, 0, 0, 0, 0, 0.0, 0.0, 0.0, 0.0, 18.0, 1.0, 1.0, 0.0, 0.0, 0.0, -0.04551750421524048, -0.2987555265426636, 0.01643511839210987, 0.034773871302604675, -0.04102031886577606, 0.01652682013809681
31822, 2.6472177505493164, -4.1882853507995605, -7.236347675323486, 0.06801972538232803, -0.07711883634328842, 0.24536839127540588, 0, 0, 0, 0, 0, 0, 0, 0, 0, 0, 0, 0, 0.0, 0.0, 0.0, 0.0, 11.0, 11.0, 3.0, 0.0, 0.0, 0.0, -0.04548201337456703, -0.30001571774482727, 0.01486777514219284, 0.03440645709633827, -0.05356329679489136, 0.005835722666233778
31832, 2.701953411102295, -4.206371784210205, -7.213577747344971, -0.23641999065876007, 0.33072420954704285, -0.015169388614594936, 0, 0, 0, 0, 0, 0, 0, 0, 0, 0, 0, 0, 0.0, 0.0, 0.0, 0.0, 11.0, -8.0, -6.0, 0.0, 0.0, 0.0, -0.045167941600084305, -0.2992521822452545, 0.015017032623291016, 0.03850662708282471, -0.04357683286070824, 0.0067983088083565235
31842, 2.6414008140563965, -4.215856552124023, -7.2130560874938965, -0.0815386027097702, 0.12574085593223572, 0.06611461937427521, 0, 0, 0, 0, 0, 0, 0, 0, 0, 0, 0, 0, 0.0, 0.0, 0.0, 0.0, 11.0, -3.0, 2.0, 0.0, 0.0, 0.0, -0.045200224965810776, -0.29918453097343445, 0.015251671895384789, 0.036817438900470734, -0.04129164665937424, 0.00801041629165411
31852, 2.604332208633423, -4.22332763671875, -7.183125019073486, 0.10227201133966446, -0.04414201155304909, -0.15232747793197632, 0, 0, 0, 0, 0, 0, 0, 0, 0, 0, 0, 0, 0.0, 0.0, 0.0, 0.0, 11.0, 0.0, 5.0, 0.0, 0.0, 0.0, -0.04546835646033287, -0.29920923709869385, 0.015501984395086765, 0.03295515477657318, -0.040095843374729156, 0.009011712856590748
31862, 2.5913639068603516, -4.230260372161865, -7.206642150878906, -0.05607592687010765, 0.11880959570407867, 0.012161592952907085, 0, 0, 0, 0, 0, 0, 0, 0, 0, 0, 0, 0, 0.0, 0.0, 0.0, 0.0, 11.0, -4.0, 0.0, 0.0, 0.0, 0.0, -0.04499262943863869, -0.2994097173213959, 0.01580338180065155, 0.036005064845085144, -0.03832077980041504, 0.010543323121964931
31872, 2.6224617958068848, -4.2203688621521, -7.228841304779053, 0.01581905037164688, 0.05649733543395996, 0.030366189777851105, 0, 0, 0, 0, 0, 0, 0, 0, 0, 0, 0, 0, 0.0, 0.0, 0.0, 0.0, 19.0, 7.0, -8.0, 0.0, 0.0, 0.0, -0.044345028698444366, -0.30016377568244934, 0.01691162772476673, 0.04320302605628967, -0.04502268135547638, 0.017382822930812836
31882, 2.5880253314971924, -4.231618881225586, -7.185858726501465, -0.18699930608272552, -0.08902589976787567, 0.038354627788066864, 0, 0, 0, 0, 0, 0, 0, 0, 0, 0, 0, 0, 0.0, 0.0, 0.0, 0.0, 19.0, 3.0, 8.0, 0.0, 0.0, 0.0, -0.04516904056072235, -0.30003058910369873, 0.01703025959432125, 0.03441754728555679, -0.04544949159026146, 0.017763672396540642
31892, 2.6357674598693848, -4.258783340454102, -7.160184860229492, -0.03876248002052307, 0.047218870371580124, -0.05739522725343704, 0, 0, 0, 0, 0, 0, 0, 0, 0, 0, 0, 0, 0.0, 0.0, 0.0, 0.0, 19.0, -9.0, 0.0, 0.0, 0.0, 0.0, -0.044985394924879074, -0.29945605993270874, 0.017310423776507378, 0.035413023084402084, -0.03774048388004303, 0.018858959898352623
31903, 2.6053683757781982, -4.250455856323242, -7.187977313995361, -0.10864799469709396, 0.23297013342380524, 0.1448141187429428, 0, 0, 0, 0, 0, 0, 0, 0, 0, 0, 0, 0, 0.0, 0.0, 0.0, 0.0, 19.0, 0.0, 0.0, 0.0, 0.0, 0.0, -0.04479432851076126, -0.2996548116207123, 0.017474809661507607, 0.03714684024453163, -0.038986336439847946, 0.019356537610292435
31913, 2.6380348205566406, -4.254194259643555, -7.209325790405273, -0.151685893535614, 0.20197217166423798, 0.1222706064581871, 0, 0, 0, 0, 0, 0, 0, 0, 0, 0, 0, 0, 0.0, 0.0, 0.0, 0.0, 10.0, 9.0, -2.0, 0.0, 0.0, 0.0, -0.0447637140750885, -0.30033835768699646, 0.015236252918839455, 0.039115194231271744, -0.04700206592679024, 0.004496890120208263
31922, 2.657672882080078, -4.25571870803833, -7.205554485321045, -0.02845010533928871, -0.02061770111322403, 0.15112583339214325, 0, 0, 0, 0, 0, 0, 0, 0, 0, 0, 0, 0, 0.0, 0.0, 0.0, 0.0, 10.0, -5.0, -1.0, 0.0, 0.0, 0.0, -0.044210609048604965, -0.3005300760269165, 0.015418125316500664, 0.04246627166867256, -0.044770870357751846, 0.005491573363542557
31932, 2.6445512771606445, -4.258910655975342, -7.198038101196289, 0.018296871334314346, 0.0709143728017807, -0.12806230783462524, 0, 0, 0, 0, 0, 0, 0, 0, 0, 0, 0, 0, 0.0, 0.0, 0.0, 0.0, 10.0, 0.0, 0.0, 0.0, 0.0, 0.0, -0.04433097317814827, -0.30041536688804626, 0.015470057725906372, 0.042092401534318924, -0.04429581016302109, 0.005760300904512405
31942, 2.620492935180664, -4.2618608474731445, -7.190866947174072, -0.008220929652452469, 0.11768234521150589, 0.19073498249053955, 0, 0, 0, 0, 0, 0, 0, 0, 0, 0, 0, 0, 0.0, 0.0, 0.0, 0.0, 10.0, 4.0, 3.0, 0.0, 0.0, 0.0, -0.044529788196086884, -0.30071648955345154, 0.01562244538217783, 0.03971824422478676, -0.04710601270198822, 0.006769816391170025
31953, 2.6322052478790283, -4.2677693367004395, -7.204408645629883, -0.10990465432405472, -0.10042444616556168, -0.06912501156330109, 0, 0, 0, 0, 0, 0, 0, 0, 0, 0, 0, 0, 0.0, 0.0, 0.0, 0.0, 10.0, -8.0, 0.0, 0.0, 0.0, 0.0, -0.04437898471951485, -0.3001135587692261, 0.01590391807258129, 0.03986668959259987, -0.040238380432128906, 0.008364584296941757
31963, 2.604025363922119, -4.2735748291015625, -7.1816840171813965, -0.08565758913755417, 0.014692136086523533, 0.17398421466350555, 0, 0, 0, 0, 0, 0, 0, 0, 0, 0, 0, 0, 0.0, 0.0, 0.0, 0.0, 20.0, 8.0, -4.0, 0.0, 0.0, 0.0, -0.044058363884687424, -0.3009110391139984, 0.017196640372276306, 0.043203745037317276, -0.04669981077313423, 0.01642482914030552
31972, 2.6449382305145264, -4.273703098297119, -7.205453872680664, 0.07078864425420761, -0.04346330836415291, -0.3028797507286072, 0, 0, 0, 0, 0, 0, 0, 0, 0, 0, 0, 0, 0.0, 0.0, 0.0, 0.0, 20.0, 0.0, -5.0, 0.0, 0.0, 0.0, -0.04357076436281204, -0.3010033071041107, 0.01730102300643921, 0.04737521708011627, -0.04669732227921486, 0.016477592289447784
31982, 2.6394858360290527, -4.269608974456787, -7.189399719238281, -0.07349960505962372, -0.029286468401551247, 0.00802094116806984, 0, 0, 0, 0, 0, 0, 0, 0, 0, 0, 0, 0, 0.0, 0.0, 0.0, 0.0, 20.0, -9.0, 9.0, 0.0, 0.0, 0.0, -0.04408058524131775, -0.3003256916999817, 0.0176998358219862, 0.04002338647842407, -0.039336204528808594, 0.01796327345073223
31992, 2.633632183074951, -4.278793811798096, -7.183065414428711, -0.07420513033866882, -0.09706497937440872, 0.057919759303331375, 0, 0, 0, 0, 0, 0, 0, 0, 0, 0, 0, 0, 0.0, 0.0, 0.0, 0.0, 20.0, 0.0, 0.0, 0.0, 0.0, 0.0, -0.043934889137744904, -0.3005475103855133, 0.01781749352812767, 0.04168695956468582, -0.04094521701335907, 0.018164392560720444
32002, 2.6496245861053467, -4.283018112182617, -7.189091205596924, 0.17766627669334412, -0.023565271869301796, -0.12274108827114105, 0, 0, 0, 0, 0, 0, 0, 0, 0, 0, 0, 0, 0.0, 0.0, 0.0, 0.0, 9.0, 0.0, -5.0, 0.0, 0.0, 0.0, -0.043598007410764694, -0.30049896240234375, 0.015219850465655327, 0.045836515724658966, -0.040596626698970795, 0.0013796957209706306
32012, 2.6614627838134766, -4.279466152191162, -7.171338081359863, -0.14480136334896088, 0.19889065623283386, -0.20105524361133575, 0, 0, 0, 0, 0, 0, 0, 0, 0, 0, 0, 0, 0.0, 0.0, 0.0, 0.0, 9.0, 2.0, 5.0, 0.0, 0.0, 0.0, -0.04402276873588562, -0.30066484212875366, 0.015358720906078815, 0.04132502153515816, -0.04250909388065338, 0.002528234850615263
32022, 2.658135414123535, -4.2788262367248535, -7.186779499053955, -0.05502616614103317, 0.30892375111579895, -0.1471811830997467, 0, 0, 0, 0, 0, 0, 0, 0, 0, 0, 0, 0, 0.0, 0.0, 0.0, 0.0, 9.0, 1.0, 0.0, 0.0, 0.0, 0.0, -0.04400106146931648, -0.30076470971107483, 0.01546555943787098, 0.041140101850032806, -0.04315152019262314, 0.003395841224119067
32032, 2.6546342372894287, -4.294187068939209, -7.1995015144348145, -0.09781132638454437, 0.07799118757247925, -0.11896355450153351, 0, 0, 0, 0, 0, 0, 0, 0, 0, 0, 0, 0, 0.0, 0.0, 0.0, 0.0, 9.0, 3.0, -8.0, 0.0, 0.0, 0.0, -0.042812321335077286, -0.30169692635536194, 0.015426320023834705, 0.05073204264044762, -0.047845594584941864, 0.004063394386321306
32042, 2.643272876739502, -4.28122091293335, -7.167488098144531, 0.17422106862068176, -0.13101303577423096, 0.1849096715450287, 0, 0, 0, 0, 0, 0, 0, 0, 0, 0, 0, 0, 0.0, 0.0, 0.0, 0.0, 9.0, -3.0, 4.0, 0.0, 0.0, 0.0, -0.04346281662583351, -0.30101221799850464, 0.01566113904118538, 0.04483107477426529, -0.04303407296538353, 0.0051835160702466965
32052, 2.649226427078247, -4.275552749633789, -7.169801235198975, 0.05961475521326065, -0.004281274508684874, 0.04624290391802788, 0, 0, 0, 0, 0, 0, 0, 0, 0, 0, 0, 0, 0.0, 0.0, 0.0, 0.0, 18.0, 0.0, 4.0, 0.0, 0.0, 0.0, -0.0437191016972065, -0.30105534195899963, 0.016543660312891006, 0.041536953300237656, -0.04307319223880768, 0.01040751300752163
32063, 2.647704839706421, -4.277017593383789, -7.189151763916016, 0.00022201497631613165, 0.2794129252433777, 0.00364098628051579, 0, 0, 0, 0, 0, 0, 0, 0, 0, 0, 0, 0, 0.0, 0.0, 0.0, 0.0, 18.0, 0.0, -3.0, 0.0, 0.0, 0.0, -0.04337390512228012, -0.3011460602283478, 0.01665148325264454, 0.044104866683483124, -0.04325024411082268, 0.01091421116143465
32072, 2.649479866027832, -4.268604278564453, -7.196943283081055, 0.007112346589565277, 0.21197496354579926, -0.0427822545170784, 0, 0, 0, 0, 0, 0, 0, 0, 0, 0, 0, 0, 0.0, 0.0, 0.0, 0.0, 18.0, -2.0, 3.0, 0.0, 0.0, 0.0, -0.04357011988759041, -0.3009786903858185, 0.016870195046067238, 0.04126942902803421, -0.04137732461094856, 0.0117568364366889
32082, 2.6397650241851807, -4.273695468902588, -7.190910816192627, -0.03682144731283188, -0.08419782668352127, 0.18287166953086853, 0, 0, 0, 0, 0, 0, 0, 0, 0, 0, 0, 0, 0.0, 0.0, 0.0, 0.0, 18.0, 0.0, 0.0, 0.0, 0.0, 0.0, -0.043372977524995804, -0.3012479245662689, 0.016972055658698082, 0.04289643093943596, -0.0430530309677124, 0.012185904197394848
32092, 2.6595590114593506, -4.282432556152344, -7.20905065536499, -0.06144601106643677, -0.18905219435691833, 0.005913112312555313, 0, 0, 0, 0, 0, 0, 0, 0, 0, 0, 0, 0, 0.0, 0.0, 0.0, 0.0, 11.0, 8.0, -5.0, 0.0, 0.0, 0.0, -0.04293586313724518, -0.3021739721298218, 0.015040134079754353, 0.047484587877988815, -0.04991721734404564, 0.0006221391377039254
32102, 2.6560914516448975, -4.278145790100098, -7.202596187591553, -0.17282558977603912, 0.40673214197158813, -0.17030303180217743, 0, 0, 0, 0, 0, 0, 0, 0, 0, 0, 0, 0, 0.0, 0.0, 0.0, 0.0, 11.0, 0.0, 1.0, 0.0, 0.0, 0.0, -0.043027568608522415, -0.30211666226387024, 0.015173676423728466, 0.04631253704428673, -0.049176350235939026, 0.0017502486007288098
32112, 2.6876142024993896, -4.272287368774414, -7.205712795257568, 0.05539543554186821, -0.06769885867834091, -0.1405610740184784, 0, 0, 0, 0, 0, 0, 0, 0, 0, 0, 0, 0, 0.0, 0.0, 0.0, 0.0, 11.0, 0.0, -4.0, 0.0, 0.0, 0.0, -0.042655300348997116, -0.3021431863307953, 0.015249732881784439, 0.049140896648168564, -0.04895342141389847, 0.002556714229285717
32122, 2.6453185081481934, -4.287867546081543, -7.213730335235596, 0.029181821271777153, 0.06548629701137543, 0.016305677592754364, 0, 0, 0, 0, 0, 0, 0, 0, 0, 0, 0, 0, 0.0, 0.0, 0.0, 0.0, 11.0, -4.0, 3.0, 0.0, 0.0, 0.0, -0.04287266358733177, -0.3016783595085144, 0.015525727532804012, 0.04644863307476044, -0.044657401740550995, 0.00440033245831728
32132, 2.663891315460205, -4.3353705406188965, -7.169910430908203, -0.10811688750982285, -0.06892929971218109, -0.012925686314702034, 0, 0, 0, 0, 0, 0, 0, 0, 0, 0, 0, 0, 0.0, 0.0, 0.0, 0.0, 11.0, 4.0, -2.0, 0.0, 0.0, 0.0, -0.04262838885188103, -0.3022146224975586, 0.015540826134383678, 0.048195045441389084, -0.047669582068920135, 0.0046560438349843025
32142, 2.6320793628692627, -4.313880443572998, -7.180778980255127, -0.16347014904022217, -0.11512022465467453, 0.04444720596075058, 0, 0, 0, 0, 0, 0, 0, 0, 0, 0, 0, 0, 0.0, 0.0, 0.0, 0.0, 21.0, 0.0, 3.0, 0.0, 0.0, 0.0, -0.04280349239706993, -0.30222347378730774, 0.017511028796434402, 0.04588964208960533, -0.04694352671504021, 0.016583353281021118
32152, 2.637298822402954, -4.304210186004639, -7.208158493041992, 0.04050649702548981, 0.0180666446685791, 0.05354345589876175, 0, 0, 0, 0, 0, 0, 0, 0, 0, 0, 0, 0, 0.0, 0.0, 0.0, 0.0, 21.0, -4.0, 0.0, 0.0, 0.0, 0.0, -0.04265589639544487, -0.3019302785396576, 0.017738783732056618, 0.046171318739652634, -0.04390404745936394, 0.017247626557946205
32163, 2.650367259979248, -4.2869696617126465, -7.198685169219971, 0.10689473152160645, -0.18414326012134552, 0.04587637633085251, 0, 0, 0, 0, 0, 0, 0, 0, 0, 0, 0, 0, 0.0, 0.0, 0.0, 0.0, 21.0, -4.0, 4.0, 0.0, 0.0, 0.0, -0.042950186878442764, -0.30152586102485657, 0.017999280244112015, 0.04285946860909462, -0.04082970693707466, 0.01793583296239376
32172, 2.611231803894043, -4.283120155334473, -7.199940204620361, 0.1333136409521103, 0.013135162182152271, -0.06123650446534157, 0, 0, 0, 0, 0, 0, 0, 0, 0, 0, 0, 0, 0.0, 0.0, 0.0, 0.0, 21.0, 7.0, -3.0, 0.0, 0.0, 0.0, -0.042795855551958084, -0.30223575234413147, 0.018024908378720284, 0.045034412294626236, -0.04588113725185394, 0.01757107675075531
32182, 2.6358871459960938, -4.284298896789551, -7.164710998535156, -0.05810709297657013, 0.11700063198804855, 0.049497563391923904, 0, 0, 0, 0, 0, 0, 0, 0, 0, 0, 0, 0, 0.0, 0.0, 0.0, 0.0, 9.0, 28.0, -3.0, 0.0, 0.0, 0.0, -0.042937252670526505, -0.30500298738479614, 0.014824550598859787, 0.047406233847141266, -0.06859026849269867, -0.0019283413421362638
32192, 2.666841745376587, -4.347065448760986, -7.136014938354492, 0.04623400419950485, -0.09902196377515793, 0.0659656897187233, 0, 0, 0, 0, 0, 0, 0, 0, 0, 0, 0, 0, 0.0, 0.0, 0.0, 0.0, 9.0, 1.0, -2.0, 0.0, 0.0, 0.0, -0.04270746558904648, -0.3050331473350525, 0.014859135262668133, 0.04939844086766243, -0.06775736808776855, -0.0010078937048092484
32203, 2.6483676433563232, -4.288905143737793, -7.166322708129883, -0.07809348404407501, -0.2204938530921936, 0.10391354560852051, 0, 0, 0, 0, 0, 0, 0, 0, 0, 0, 0, 0, 0.0, 0.0, 0.0, 0.0, 9.0, -5.0, 1.0, 0.0, 0.0, 0.0, -0.04275841638445854, -0.30446523427963257, 0.015108473598957062, 0.047356802970170975, -0.06187595799565315, 0.0008862663526087999
32213, 2.6700363159179688, -4.281760215759277, -7.1846842765808105, 0.049656547605991364, -0.06091831624507904, 0.052604664117097855, 0, 0, 0, 0, 0, 0, 0, 0, 0, 0, 0, 0, 0.0, 0.0, 0.0, 0.0, 9.0, 10.0, 3.0, 0.0, 0.0, 0.0, -0.04319095239043236, -0.30534130334854126, 0.015118976123631, 0.04448855668306351, -0.06867069005966187, 0.0014410975854843855
32222, 2.6720242500305176, -4.286617279052734, -7.149369716644287, 0.026223599910736084, -0.04378127679228783, -0.12958677113056183, 0, 0, 0, 0, 0, 0, 0, 0, 0, 0, 0, 0, 0.0, 0.0, 0.0, 0.0, 9.0, 0.0, -1.0, 0.0, 0.0, 0.0, -0.04309290274977684, -0.30538421869277954, 0.015275673940777779, 0.04535559564828873, -0.06728227436542511, 0.0029469660948961973
32232, 2.65940523147583, -4.291534900665283, -7.1387834548950195, -0.09443224966526031, -0.1910860687494278, 0.06383716315031052, 0, 0, 0, 0, 0, 0, 0, 0, 0, 0, 0, 0, 0.0, 0.0, 0.0, 0.0, 15.0, 0.0, -2.0, 0.0, 0.0, 0.0, -0.042856842279434204, -0.3053811192512512, 0.015277747064828873, 0.047064684331417084, -0.06566014885902405, 0.0035656208638101816
32242, 2.6664140224456787, -4.281490325927734, -7.163702487945557, 0.009358987212181091, 0.04446888342499733, -0.1134433001279831, 0, 0, 0, 0, 0, 0, 0, 0, 0, 0, 0, 0, 0.0, 0.0, 0.0, 0.0, 15.0, -4.0, 3.0, 0.0, 0.0, 0.0, -0.04334592819213867, -0.30443012714385986, 0.015489162877202034, 0.042328596115112305, -0.05908313766121864, 0.0046461280435323715
32252, 2.624880313873291, -4.275588035583496, -7.1768927574157715, -0.11729391664266586, -0.18790681660175323, 0.035685352981090546, 0, 0, 0, 0, 0, 0, 0, 0, 0, 0, 0, 0, 0.0, 0.0, 0.0, 0.0, 15.0, -33.0, 1.0, 0.0, 0.0, 0.0, -0.042987436056137085, -0.30139023065567017, 0.016166167333722115, 0.041332587599754333, -0.031139526516199112, 0.00901348888874054
32263, 2.6415672302246094, -4.295146942138672, -7.163044452667236, -0.046155501157045364, 0.06699781119823456, 0.01420834194868803, 0, 0, 0, 0, 0, 0, 0, 0, 0, 0, 0, 0, 0.0, 0.0, 0.0, 0.0, 15.0, 5.0, -4.0, 0.0, 0.0, 0.0, -0.04266970604658127, -0.3018789291381836, 0.016219398006796837, 0.04473529011011124, -0.035832807421684265, 0.009582209400832653
32272, 2.6389474868774414, -4.28386926651001, -7.186113357543945, -0.024905020371079445, -0.11130260676145554, -0.16935044527053833, 0, 0, 0, 0, 0, 0, 0, 0, 0, 0, 0, 0, 0.0, 0.0, 0.0, 0.0, 10.0, -7.0, 3.0, 0.0, 0.0, 0.0, -0.042854540050029755, -0.3012006878852844, 0.014349453151226044, 0.042405176907777786, -0.03061888925731182, -0.0032300499733537436
32282, 2.6346123218536377, -4.312124252319336, -7.157905101776123, -0.06489939987659454, -0.13031533360481262, -0.07967965304851532, 0, 0, 0, 0, 0, 0, 0, 0, 0, 0, 0, 0, 0.0, 0.0, 0.0, 0.0, 10.0, 1.0, 1.0, 0.0, 0.0, 0.0, -0.04305621236562729, -0.30105918645858765, 0.01448576059192419, 0.041131407022476196, -0.03135732561349869, -0.002061078092083335
32292, 2.6060569286346436, -4.2930521965026855, -7.185336589813232, 0.048258792608976364, 0.04556005820631981, -0.09038984030485153, 0, 0, 0, 0, 0, 0, 0, 0, 0, 0, 0, 0, 0.0, 0.0, 0.0, 0.0, 10.0, -4.0, 5.0, 0.0, 0.0, 0.0, -0.0434052012860775, -0.30070674419403076, 0.0146328741684556, 0.036948107182979584, -0.028515197336673737, -0.0008429728331975639
32302, 2.659914016723633, -4.289585590362549, -7.192086219787598, 0.11871281266212463, 0.22057169675827026, -0.05791223421692848, 0, 0, 0, 0, 0, 0, 0, 0, 0, 0, 0, 0, 0.0, 0.0, 0.0, 0.0, 10.0, 7.0, -6.0, 0.0, 0.0, 0.0, -0.04292397201061249, -0.3013620674610138, 0.014629737474024296, 0.04182780534029007, -0.0346519872546196, 0.0001703336020000279
32312, 2.643902063369751, -4.295705318450928, -7.190425872802734, 0.055171266198158264, -0.09625010192394257, 0.12939539551734924, 0, 0, 0, 0, 0, 0, 0, 0, 0, 0, 0, 0, 0.0, 0.0, 0.0, 0.0, 10.0, -3.0, 5.0, 0.0, 0.0, 0.0, -0.043359264731407166, -0.30097728967666626, 0.01490994356572628, 0.03771567344665527, -0.03216129168868065, 0.002379179932177067
32322, 2.644544839859009, -4.324480056762695, -7.122435569763184, 0.06284703314304352, 0.260329008102417, -0.012455840595066547, 0, 0, 0, 0, 0, 0, 0, 0, 0, 0, 0, 0, 0.0, 0.0, 0.0, 0.0, 17.0, 6.0, -2.0, 0.0, 0.0, 0.0, -0.04322248324751854, -0.30150389671325684, 0.015614614821970463, 0.039745911955833435, -0.037165287882089615, 0.007235066965222359
32332, 2.660757541656494, -4.29623556137085, -7.167623996734619, -0.14146381616592407, 0.14532099664211273, -0.03288499638438225, 0, 0, 0, 0, 0, 0, 0, 0, 0, 0, 0, 0, 0.0, 0.0, 0.0, 0.0, 17.0, -10.0, 2.0, 0.0, 0.0, 0.0, -0.04328463599085808, -0.3005787432193756, 0.015896743163466454, 0.03801846131682396, -0.029104547575116158, 0.008795630186796188
32342, 2.637519121170044, -4.294497489929199, -7.1722187995910645, 0.04022091627120972, -0.022211577743291855, 0.08008050918579102, 0, 0, 0, 0, 0, 0, 0, 0, 0, 0, 0, 0, 0.0, 0.0, 0.0, 0.0, 17.0, 5.0, -2.0, 0.0, 0.0, 0.0, -0.04315685108304024, -0.3010474443435669, 0.015998318791389465, 0.039918750524520874, -0.03354816511273384, 0.009480679407715797
32352, 2.636258125305176, -4.300107955932617, -7.1884870529174805, 0.018030453473329544, 0.3497121334075928, 0.16673319041728973, 0, 0, 0, 0, 0, 0, 0, 0, 0, 0, 0, 0, 0.0, 0.0, 0.0, 0.0, 17.0, 1.0, -1.0, 0.0, 0.0, 0.0, -0.04296577349305153, -0.301216185092926, 0.016110166907310486, 0.041193924844264984, -0.03464418277144432, 0.01020834781229496
32363, 2.650944948196411, -4.290830612182617, -7.196868419647217, -0.07254203408956528, -0.0004736531700473279, 0.02510221116244793, 0, 0, 0, 0, 0, 0, 0, 0, 0, 0, 0, 0, 0.0, 0.0, 0.0, 0.0, 7.0, 4.0, -2.0, 0.0, 0.0, 0.0, -0.04300837218761444, -0.30141931772232056, 0.013122844509780407, 0.042815547436475754, -0.037853602319955826, -0.010041740722954273
32372, 2.649801731109619, -4.277365684509277, -7.204699993133545, -0.024639112874865532, 0.03544307127594948, -0.02050985023379326, 0, 0, 0, 0, 0, 0, 0, 0, 0, 0, 0, 0, 0.0, 0.0, 0.0, 0.0, 7.0, -9.0, 6.0, 0.0, 0.0, 0.0, -0.04346996173262596, -0.3004567623138428, 0.013372332789003849, 0.037353288382291794, -0.03014301136136055, -0.007732602301985025
32382, 2.633244514465332, -4.2931294441223145, -7.192317008972168, 0.24243023991584778, 0.19768905639648438, 0.0932406559586525, 0, 0, 0, 0, 0, 0, 0, 0, 0, 0, 0, 0, 0.0, 0.0, 0.0, 0.0, 7.0, 5.0, -3.0, 0.0, 0.0, 0.0, -0.04327137768268585, -0.3009280860424042, 0.013404295779764652, 0.03987668454647064, -0.03447889909148216, -0.006461376789957285
32392, 2.6164324283599854, -4.289490222930908, -7.153951168060303, -0.07860448956489563, -0.0966387614607811, -0.12683813273906708, 0, 0, 0, 0, 0, 0, 0, 0, 0, 0, 0, 0, 0.0, 0.0, 0.0, 0.0, 7.0, 1.0, -5.0, 0.0, 0.0, 0.0, -0.04273618012666702, -0.30117350816726685, 0.013373691588640213, 0.04403280094265938, -0.03555211052298546, -0.00570053793489933
32403, 2.6251883506774902, -4.279898166656494, -7.187990665435791, 0.06489501148462296, -0.2538982629776001, 0.164322629570961, 0, 0, 0, 0, 0, 0, 0, 0, 0, 0, 0, 0, 0.0, 0.0, 0.0, 0.0, 7.0, -6.0, 8.0, 0.0, 0.0, 0.0, -0.043412983417510986, -0.30046752095222473, 0.013769032433629036, 0.03753044828772545, -0.0308793056756258, -0.002673619892448187
32412, 2.632796287536621, -4.287413120269775, -7.211169242858887, -0.01461310125887394, 0.1177736446261406, -0.0878010243177414, 0, 0, 0, 0, 0, 0, 0, 0, 0, 0, 0, 0, 0.0, 0.0, 0.0, 0.0, 20.0, 8.0, -6.0, 0.0, 0.0, 0.0, -0.042831797152757645, -0.30134379863739014, 0.015832532197237015, 0.042421385645866394, -0.03744169697165489, 0.011138145811855793
32422, 2.6123898029327393, -4.278736114501953, -7.159305572509766, -0.15107373893260956, 0.04236714169383049, -0.23569272458553314, 0, 0, 0, 0, 0, 0, 0, 0, 0, 0, 0, 0, 0.0, 0.0, 0.0, 0.0, 20.0, -3.0, 3.0, 0.0, 0.0, 0.0, -0.04314712435007095, -0.30101606249809265, 0.016091380268335342, 0.039560265839099884, -0.03508004546165466, 0.012246309779584408
32432, 2.6852657794952393, -4.337958335876465, -7.111968517303467, -0.10672205686569214, 0.1295456886291504, 0.12422782927751541, 0, 0, 0, 0, 0, 0, 0, 0, 0, 0, 0, 0, 0.0, 0.0, 0.0, 0.0, 20.0, -5.0, 3.0, 0.0, 0.0, 0.0, -0.04333776235580444, -0.3004828691482544, 0.016352755948901176, 0.03791026771068573, -0.03216325864195824, 0.013422328047454357
32442, 2.7008774280548096, -4.304156303405762, -7.149662494659424, -0.1128198429942131, -0.30700039863586426, -0.10615231096744537, 0, 0, 0, 0, 0, 0, 0, 0, 0, 0, 0, 0, 0.0, 0.0, 0.0, 0.0, 20.0, 2.0, -5.0, 0.0, 0.0, 0.0, -0.04280199483036995, -0.3008331060409546, 0.016423074528574944, 0.04196808487176895, -0.03446756303310394, 0.013630715198814869
32452, 2.646721601486206, -4.280980110168457, -7.1670355796813965, 0.14171254634857178, -0.21081742644309998, -0.02405921183526516, 0, 0, 0, 0, 0, 0, 0, 0, 0, 0, 0, 0, 0.0, 0.0, 0.0, 0.0, 8.0, 8.0, 1.0, 0.0, 0.0, 0.0, -0.0431763157248497, -0.3013901710510254, 0.013687401078641415, 0.040905121713876724, -0.03993391618132591, -0.0045235371217131615
32462, 2.6564366817474365, -4.3405680656433105, -7.129762172698975, 0.09767776727676392, -0.08698435127735138, 0.11096790432929993, 0, 0, 0, 0, 0, 0, 0, 0, 0, 0, 0, 0, 0.0, 0.0, 0.0, 0.0, 8.0, -8.0, 0.0, 0.0, 0.0, 0.0, -0.04305069521069527, -0.30059921741485596, 0.01386952307075262, 0.041594937443733215, -0.034011948853731155, -0.002758930204436183
32472, 2.6320323944091797, -4.298504829406738, -7.142061710357666, -0.12506748735904694, -0.11905406415462494, -0.0992833748459816, 0, 0, 0, 0, 0, 0, 0, 0, 0, 0, 0, 0, 0.0, 0.0, 0.0, 0.0, 8.0, 1.0, 0.0, 0.0, 0.0, 0.0, -0.04313095659017563, -0.30070915818214417, 0.014021458104252815, 0.041088808327913284, -0.034968867897987366, -0.0012468273052945733
32482, 2.6468751430511475, -4.291135311126709, -7.1537957191467285, -0.3996785283088684, -0.3155783414840698, -0.014602203853428364, 0, 0, 0, 0, 0, 0, 0, 0, 0, 0, 0, 0, 0.0, 0.0, 0.0, 0.0, 8.0, 0.0, 0.0, 0.0, 0.0, 0.0, -0.042848650366067886, -0.3009989559650421, 0.014043519273400307, 0.043020084500312805, -0.03693800047039986, -0.000683695892803371
32492, 2.664450168609619, -4.289885997772217, -7.165978908538818, -0.09882378578186035, 0.21750716865062714, 0.13976991176605225, 0, 0, 0, 0, 0, 0, 0, 0, 0, 0, 0, 0, 0.0, 0.0, 0.0, 0.0, 8.0, 5.0, -5.0, 0.0, 0.0, 0.0, -0.04246600717306137, -0.30151787400245667, 0.014096644707024097, 0.04662497714161873, -0.04105355590581894, 0.00016297848196700215
32502, 2.6461944580078125, -4.278658866882324, -7.172231197357178, 0.0019518716726452112, 0.16991455852985382, 0.10817301273345947, 0, 0, 0, 0, 0, 0, 0, 0, 0, 0, 0, 0, 0.0, 0.0, 0.0, 0.0, 18.0, 3.0, 5.0, 0.0, 0.0, 0.0, -0.042921166867017746, -0.3017464876174927, 0.015530874952673912, 0.0426056906580925, -0.04289437457919121, 0.009025771170854568
32512, 2.660275459289551, -4.280370235443115, -7.146800994873047, -0.05852683633565903, 0.04373989626765251, -0.0011318828910589218, 0, 0, 0, 0, 0, 0, 0, 0, 0, 0, 0, 0, 0.0, 0.0, 0.0, 0.0, 18.0, -11.0, 4.0, 0.0, 0.0, 0.0, -0.043185532093048096, -0.3006611466407776, 0.015894489362835884, 0.0397624634206295, -0.034834858030080795, 0.01087584625929594
32522, 2.6429922580718994, -4.276358127593994, -7.144603729248047, 0.05016746371984482, -0.04073227941989899, 0.03616970777511597, 0, 0, 0, 0, 0, 0, 0, 0, 0, 0, 0, 0, 0.0, 0.0, 0.0, 0.0, 18.0, 3.0, -2.0, 0.0, 0.0, 0.0, -0.0430586114525795, -0.3009421229362488, 0.016017284244298935, 0.041236039251089096, -0.03700528293848038, 0.01121824886649847
32532, 2.6208956241607666, -4.28371000289917, -7.158464431762695, -0.03786008059978485, -0.13945257663726807, -0.048560477793216705, 0, 0, 0, 0, 0, 0, 0, 0, 0, 0, 0, 0, 0.0, 0.0, 0.0, 0.0, 18.0, 0.0, 1.0, 0.0, 0.0, 0.0, -0.043041396886110306, -0.301038920879364, 0.01618252880871296, 0.04101146012544632, -0.037423159927129745, 0.011987045407295227
32542, 2.636899709701538, -4.272452354431152, -7.156044960021973, 0.02612200938165188, -0.10438667982816696, 0.055216070264577866, 0, 0, 0, 0, 0, 0, 0, 0, 0, 0, 0, 0, 0.0, 0.0, 0.0, 0.0, 6.0, 12.0, -2.0, 0.0, 0.0, 0.0, -0.04314868524670601, -0.30205950140953064, 0.012958972714841366, 0.042799461632966995, -0.046280428767204285, -0.006999004166573286
32552, 2.609675884246826, -4.292263984680176, -7.162666320800781, 0.04246542602777481, 0.15172231197357178, -0.23010465502738953, 0, 0, 0, 0, 0, 0, 0, 0, 0, 0, 0, 0, 0.0, 0.0, 0.0, 0.0, 6.0, -11.0, -2.0, 0.0, 0.0, 0.0, -0.04276756942272186, -0.301082581281662, 0.013178997673094273, 0.04482058063149452, -0.03793478012084961, -0.004896725527942181
32562, 2.604506015777588, -4.288197040557861, -7.150035381317139, 0.0031851299572736025, -0.0759044885635376, 0.03878924623131752, 0, 0, 0, 0, 0, 0, 0, 0, 0, 0, 0, 0, 0.0, 0.0, 0.0, 0.0, 6.0, 2.0, 0.0, 0.0, 0.0, 0.0, -0.04278125986456871, -0.3013339638710022, 0.013303881511092186, 0.04481644928455353, -0.03955890238285065, -0.0035811623092740774
32572, 2.612805128097534, -4.298717021942139, -7.131439208984375, -0.05065203085541725, 0.5451758503913879, 0.03854619339108467, 0, 0, 0, 0, 0, 0, 0, 0, 0, 0, 0, 0, 0.0, 0.0, 0.0, 0.0, 6.0, -2.0, 0.0, 0.0, 0.0, 0.0, -0.042747613042593, -0.30111923813819885, 0.013483202084898949, 0.04503632336854935, -0.038100555539131165, -0.0020893369801342487
32582, 2.6279869079589844, -4.351287841796875, -7.1294264793396, 0.16966810822486877, -0.22208347916603088, -0.10439268499612808, 0, 0, 0, 0, 0, 0, 0, 0, 0, 0, 0, 0, 0.0, 0.0, 0.0, 0.0, 6.0, 4.0, -4.0, 0.0, 0.0, 0.0, -0.042253218591213226, -0.3016417324542999, 0.013433622196316719, 0.04912028834223747, -0.04176580533385277, -0.0017320753540843725
32592, 2.6668524742126465, -4.31436824798584, -7.154276371002197, -0.1448916643857956, 0.2109496295452118, -0.01979946158826351, 0, 0, 0, 0, 0, 0, 0, 0, 0, 0, 0, 0, 0.0, 0.0, 0.0, 0.0, 21.0, 27.0, 5.0, 0.0, 0.0, 0.0, -0.04293954744935036, -0.30424898862838745, 0.015913600102066994, 0.04487048462033272, -0.0614984855055809, 0.013429992832243443
32603, 2.63726806640625, -4.294425964355469, -7.179515361785889, -0.011480074375867844, -0.04139811173081398, 0.05843377858400345, 0, 0, 0, 0, 0, 0, 0, 0, 0, 0, 0, 0, 0.0, 0.0, 0.0, 0.0, 21.0, -4.0, -1.0, 0.0, 0.0, 0.0, -0.04279975965619087, -0.30384376645088196, 0.016169307753443718, 0.04521752893924713, -0.05719390884041786, 0.014361942186951637
32613, 2.634580373764038, -4.294980049133301, -7.159305572509766, 0.06914427131414413, -0.09451218694448471, -0.00783989392220974, 0, 0, 0, 0, 0, 0, 0, 0, 0, 0, 0, 0, 0.0, 0.0, 0.0, 0.0, 21.0, -1.0, 8.0, 0.0, 0.0, 0.0, -0.04351538047194481, -0.30362963676452637, 0.01649637147784233, 0.039553456008434296, -0.055689603090286255, 0.015612650662660599
32622, 2.653890371322632, -4.28413724899292, -7.167486667633057, -0.06504274159669876, 0.09089561551809311, -0.04490494728088379, 0, 0, 0, 0, 0, 0, 0, 0, 0, 0, 0, 0, 0.0, 0.0, 0.0, 0.0, 21.0, 0.0, -7.0, 0.0, 0.0, 0.0, -0.04289259761571884, -0.30368417501449585, 0.016614791005849838, 0.044341884553432465, -0.05517249554395676, 0.016102932393550873
32632, 2.6126017570495605, -4.298431873321533, -7.151791095733643, -0.2167171686887741, 0.17381243407726288, -0.2699303925037384, 0, 0, 0, 0, 0, 0, 0, 0, 0, 0, 0, 0, 0.0, 0.0, 0.0, 0.0, 8.0, -16.0, -2.0, 0.0, 0.0, 0.0, -0.04255078360438347, -0.30223000049591064, 0.014187294989824295, 0.04639209061861038, -0.04318897798657417, 0.0014183616731315851
32642, 2.620818614959717, -4.292419910430908, -7.1531877517700195, -0.0015848372131586075, -0.006929466966539621, 0.08484312891960144, 0, 0, 0, 0, 0, 0, 0, 0, 0, 0, 0, 0, 0.0, 0.0, 0.0, 0.0, 8.0, -9.0, 2.0, 0.0, 0.0, 0.0, -0.04262147471308708, -0.30134108662605286, 0.014453023672103882, 0.04509764537215233, -0.03672107681632042, 0.00301616289652884
32652, 2.6245739459991455, -4.31848669052124, -7.135987758636475, 0.05695386976003647, -0.14227229356765747, 0.1373966932296753, 0, 0, 0, 0, 0, 0, 0, 0, 0, 0, 0, 0, 0.0, 0.0, 0.0, 0.0, 8.0, 8.0, -8.0, 0.0, 0.0, 0.0, -0.041957952082157135, -0.30214187502861023, 0.014412089250981808, 0.05131359025835991, -0.04273618012666702, 0.0033114315010607243
32662, 2.6348886489868164, -4.290147304534912, -7.153731822967529, -0.09585842490196228, 0.04286760836839676, -0.23199090361595154, 0, 0, 0, 0, 0, 0, 0, 0, 0, 0, 0, 0, 0.0, 0.0, 0.0, 0.0, 8.0, 1.0, 0.0, 0.0, 0.0, 0.0, -0.04198978841304779, -0.30223241448402405, 0.014593513682484627, 0.0506758876144886, -0.04346134513616562, 0.004600276704877615
32672, 2.6438071727752686, -4.329358100891113, -7.137115001678467, -0.23305580019950867, 0.2575687766075134, -0.14141187071800232, 0, 0, 0, 0, 0, 0, 0, 0, 0, 0, 0, 0, 0.0, 0.0, 0.0, 0.0, 8.0, -8.0, 2.0, 0.0, 0.0, 0.0, -0.04200955480337143, -0.3014407753944397, 0.014920433051884174, 0.04945531487464905, -0.03769860416650772, 0.006497851572930813
32682, 2.6531951427459717, -4.299259185791016, -7.171895503997803, -0.04797729104757309, -0.016534114256501198, 0.15915147960186005, 0, 0, 0, 0, 0, 0, 0, 0, 0, 0, 0, 0, 0.0, 0.0, 0.0, 0.0, 20.0, 7.0, -1.0, 0.0, 0.0, 0.0, -0.04187912493944168, -0.30222922563552856, 0.016671184450387955, 0.04964251071214676, -0.04340187460184097, 0.016760049387812614
32692, 2.6451101303100586, -4.299129486083984, -7.150633811950684, -0.041393570601940155, 0.09714347124099731, -0.1188686341047287, 0, 0, 0, 0, 0, 0, 0, 0, 0, 0, 0, 0, 0.0, 0.0, 0.0, 0.0, 20.0, -3.0, 3.0, 0.0, 0.0, 0.0, -0.042442116886377335, -0.301597535610199, 0.016812365502119064, 0.04521190747618675, -0.039272110909223557, 0.017384089529514313
32702, 2.653381586074829, -4.333788871765137, -7.119359970092773, -0.07299000769853592, -0.21554173529148102, 0.10149651020765305, 0, 0, 0, 0, 0, 0, 0, 0, 0, 0, 0, 0, 0.0, 0.0, 0.0, 0.0, 20.0, 3.0, -4.0, 0.0, 0.0, 0.0, -0.042112085968256, -0.3018456697463989, 0.0168934129178524, 0.048230886459350586, -0.04141818359494209, 0.01726355031132698
32713, 2.6503145694732666, -4.306025981903076, -7.139251232147217, 0.09817568212747574, -0.22441014647483826, 0.23014144599437714, 0, 0, 0, 0, 0, 0, 0, 0, 0, 0, 0, 0, 0.0, 0.0, 0.0, 0.0, 20.0, 1.0, 0.0, 0.0, 0.0, 0.0, -0.042168788611888885, -0.30193236470222473, 0.017082562670111656, 0.04740052670240402, -0.04205653816461563, 0.017553124576807022
32722, 2.6604671478271484, -4.307437419891357, -7.178360462188721, -0.03950110450387001, 0.39549341797828674, 0.05545610561966896, 0, 0, 0, 0, 0, 0, 0, 0, 0, 0, 0, 0, 0.0, 0.0, 0.0, 0.0, 10.0, 0.0, 1.0, 0.0, 0.0, 0.0, -0.0419912226498127, -0.30231210589408875, 0.015081661753356457, 0.04871208965778351, -0.04401133581995964, 0.004611186683177948
32732, 2.63150691986084, -4.30027437210083, -7.157055377960205, -0.014248056337237358, 0.16881564259529114, 0.025485804304480553, 0, 0, 0, 0, 0, 0, 0, 0, 0, 0, 0, 0, 0.0, 0.0, 0.0, 0.0, 10.0, 0.0, -1.0, 0.0, 0.0, 0.0, -0.04184519872069359, -0.30231645703315735, 0.01519094966351986, 0.0493449866771698, -0.043757688254117966, 0.005430009216070175
32742, 2.6499743461608887, -4.288578510284424, -7.169108867645264, -0.059704896062612534, -0.3870258629322052, -0.24356627464294434, 0, 0, 0, 0, 0, 0, 0, 0, 0, 0, 0, 0, 0.0, 0.0, 0.0, 0.0, 10.0, 0.0, 0.0, 0.0, 0.0, 0.0, -0.04195577651262283, -0.30214032530784607, 0.015241512097418308, 0.04890753701329231, -0.043275993317365646, 0.005705922842025757
32753, 2.638145685195923, -4.28304386138916, -7.153482437133789, 0.0769851878285408, 0.031803056597709656, 0.21694768965244293, 0, 0, 0, 0, 0, 0, 0, 0, 0, 0, 0, 0, 0.0, 0.0, 0.0, 0.0, 10.0, 0.0, 0.0, 0.0, 0.0, 0.0, -0.04183046892285347, -0.3023357689380646, 0.015344862826168537, 0.05002012848854065, -0.04463283717632294, 0.006594840437173843
32762, 2.643183708190918, -4.279815196990967, -7.138058185577393, -0.17776884138584137, 0.11276471614837646, -0.11204537749290466, 0, 0, 0, 0, 0, 0, 0, 0, 0, 0, 0, 0, 0.0, 0.0, 0.0, 0.0, 10.0, -5.0, 4.0, 0.0, 0.0, 0.0, -0.04220658540725708, -0.30179253220558167, 0.015680769458413124, 0.046005669981241226, -0.04009823128581047, 0.008568767458200455
32772, 2.6458547115325928, -4.28240442276001, -7.148946762084961, -0.1437835842370987, -0.15610265731811523, -0.07833466678857803, 0, 0, 0, 0, 0, 0, 0, 0, 0, 0, 0, 0, 0.0, 0.0, 0.0, 0.0, 20.0, 5.0, 0.0, 0.0, 0.0, 0.0, -0.04223359003663063, -0.3022606074810028, 0.017126264050602913, 0.04555809125304222, -0.043799929320812225, 0.017645997926592827
32782, 2.6300535202026367, -4.396388530731201, -7.063253402709961, -0.10187974572181702, 0.20009879767894745, 0.09266933798789978, 0, 0, 0, 0, 0, 0, 0, 0, 0, 0, 0, 0, 0.0, 0.0, 0.0, 0.0, 20.0, -6.0, -1.0, 0.0, 0.0, 0.0, -0.041907861828804016, -0.30178210139274597, 0.01732632890343666, 0.047129202634096146, -0.03902222216129303, 0.01823686994612217
32792, 2.6545324325561523, -4.3486008644104, -7.131549835205078, -0.0362267829477787, -0.2998323142528534, -0.1478174328804016, 0, 0, 0, 0, 0, 0, 0, 0, 0, 0, 0, 0, 0.0, 0.0, 0.0, 0.0, 20.0, 3.0, -3.0, 0.0, 0.0, 0.0, -0.04171423241496086, -0.3021348714828491, 0.017445286735892296, 0.0491349957883358, -0.04161429777741432, 0.018021656200289726
32802, 2.646239995956421, -4.314407825469971, -7.1357598304748535, 0.1441761553287506, 0.12064902484416962, 0.1931692212820053, 0, 0, 0, 0, 0, 0, 0, 0, 0, 0, 0, 0, 0.0, 0.0, 0.0, 0.0, 20.0, -7.0, 7.0, 0.0, 0.0, 0.0, -0.04229023680090904, -0.30140432715415955, 0.0178594458848238, 0.04307792708277702, -0.03570050373673439, 0.019218022003769875
32813, 2.6645162105560303, -4.300434112548828, -7.161663055419922, 0.10315380990505219, -0.2792819142341614, 0.07247105240821838, 0, 0, 0, 0, 0, 0, 0, 0, 0, 0, 0, 0, 0.0, 0.0, 0.0, 0.0, 9.0, 26.0, -2.0, 0.0, 0.0, 0.0, -0.04260437190532684, -0.3036568760871887, 0.014952274970710278, 0.04427197203040123, -0.05671445652842522, 9.704274998512119e-05
32822, 2.6732871532440186, -4.300392150878906, -7.165546894073486, 0.21367114782333374, 0.033368296921253204, 0.11321975290775299, 0, 0, 0, 0, 0, 0, 0, 0, 0, 0, 0, 0, 0.0, 0.0, 0.0, 0.0, 9.0, -10.0, -3.0, 0.0, 0.0, 0.0, -0.04219946637749672, -0.302785187959671, 0.015163079835474491, 0.046468622982501984, -0.04827989265322685, 0.0020572631619870663
32832, 2.628145217895508, -4.3094964027404785, -7.132164478302002, -0.10926558822393417, -0.09573236852884293, 0.05843949690461159, 0, 0, 0, 0, 0, 0, 0, 0, 0, 0, 0, 0, 0.0, 0.0, 0.0, 0.0, 9.0, -2.0, 6.0, 0.0, 0.0, 0.0, -0.04276799038052559, -0.30245259404182434, 0.015406225807964802, 0.04134140536189079, -0.045602064579725266, 0.0035272438544780016
32842, 2.6366453170776367, -4.361044406890869, -7.12437629699707, -0.07838086038827896, -0.2993835508823395, -0.18751735985279083, 0, 0, 0, 0, 0, 0, 0, 0, 0, 0, 0, 0, 0.0, 0.0, 0.0, 0.0, 9.0, 0.0, -7.0, 0.0, 0.0, 0.0, -0.041981909424066544, -0.3026573956012726, 0.01539970189332962, 0.04724416509270668, -0.045130565762519836, 0.003910750616341829
32853, 2.5958852767944336, -4.331145286560059, -7.156345367431641, 0.11521993577480316, 0.08899839222431183, 0.20434466004371643, 0, 0, 0, 0, 0, 0, 0, 0, 0, 0, 0, 0, 0.0, 0.0, 0.0, 0.0, 9.0, 0.0, 6.0, 0.0, 0.0, 0.0, -0.04254840686917305, -0.3025036156177521, 0.01563550904393196, 0.0424090139567852, -0.04440275952219963, 0.005566583946347237
32862, 2.6595208644866943, -4.282559394836426, -7.178555011749268, -0.04001116380095482, -0.2051985263824463, 0.09504818171262741, 0, 0, 0, 0, 0, 0, 0, 0, 0, 0, 0, 0, 0.0, 0.0, 0.0, 0.0, 9.0, 2.0, 1.0, 0.0, 0.0, 0.0, -0.04270749166607857, -0.30269256234169006, 0.0165000781416893, 0.04085078462958336, -0.046233829110860825, 0.01092995423823595
32872, 2.678675651550293, -4.296257019042969, -7.17587423324585, -0.05039242282509804, -0.447283536195755, -0.09493354707956314, 0, 0, 0, 0, 0, 0, 0, 0, 0, 0, 0, 0, 0.0, 0.0, 0.0, 0.0, 18.0, -3.0, -5.0, 0.0, 0.0, 0.0, -0.042215894907712936, -0.30240046977996826, 0.016624243929982185, 0.04493270441889763, -0.04354225844144821, 0.011694328859448433
32882, 2.6630570888519287, -4.292929649353027, -7.186547756195068, -0.3566247224807739, 0.08066464960575104, -0.10368276387453079, 0, 0, 0, 0, 0, 0, 0, 0, 0, 0, 0, 0, 0.0, 0.0, 0.0, 0.0, 18.0, -1.0, 5.0, 0.0, 0.0, 0.0, -0.042567070573568344, -0.30235135555267334, 0.016857236623764038, 0.0412001758813858, -0.04289187118411064, 0.012875648215413094
32892, 2.609787940979004, -4.295228481292725, -7.159571170806885, -0.11482128500938416, -0.11809871345758438, -0.12351753562688828, 0, 0, 0, 0, 0, 0, 0, 0, 0, 0, 0, 0, 0.0, 0.0, 0.0, 0.0, 18.0, 0.0, -1.0, 0.0, 0.0, 0.0, -0.04250860959291458, -0.30236613750457764, 0.017016515135765076, 0.04184286296367645, -0.04196682572364807, 0.013335732743144035
32903, 2.6550066471099854, -4.28034782409668, -7.187142848968506, 0.26573365926742554, 0.04692590981721878, 0.017846252769231796, 0, 0, 0, 0, 0, 0, 0, 0, 0, 0, 0, 0, 0.0, 0.0, 0.0, 0.0, 10.0, 0.0, 3.0, 0.0, 0.0, 0.0, -0.042860448360443115, -0.3022700548171997, 0.014894363470375538, 0.03962274268269539, -0.04250496253371239, -0.00035617657704278827
32912, 2.6681387424468994, -4.287545204162598, -7.164621353149414, -0.10597646981477737, -0.11670324951410294, 0.0075346967205405235, 0, 0, 0, 0, 0, 0, 0, 0, 0, 0, 0, 0, 0.0, 0.0, 0.0, 0.0, 10.0, -5.0, 1.0, 0.0, 0.0, 0.0, -0.04290664941072464, -0.30179640650749207, 0.015057136304676533, 0.0388592891395092, -0.038775328546762466, 0.0010081171058118343
32922, 2.6736056804656982, -4.378451824188232, -7.119781017303467, -0.05008550360798836, 0.07107485830783844, 0.0606631264090538, 0, 0, 0, 0, 0, 0, 0, 0, 0, 0, 0, 0, 0.0, 0.0, 0.0, 0.0, 10.0, 8.0, -8.0, 0.0, 0.0, 0.0, -0.042135387659072876, -0.302602618932724, 0.014941680245101452, 0.046868398785591125, -0.04531308636069298, 0.0011319683399051428
32932, 2.6807701587677, -4.308843612670898, -7.150167465209961, -0.05008550360798836, 0.07107485830783844, 0.0606631264090538, 0, 0, 0, 0, 0, 0, 0, 0, 0, 0, 0, 0, 0.0, 0.0, 0.0, 0.0, 10.0, -4.0, 3.0, 0.0, 0.0, 0.0, -0.042135387659072876, -0.302602618932724, 0.014941680245101452, 0.046868398785591125, -0.04531308636069298, 0.0011319683399051428
32942, 2.6712849140167236, -4.295861721038818, -7.15284538269043, -0.10290763527154922, 0.041010648012161255, -0.10986169427633286, 0, 0, 0, 0, 0, 0, 0, 0, 0, 0, 0, 0, 0.0, 0.0, 0.0, 0.0, 10.0, 1.0, 1.0, 0.0, 0.0, 0.0, -0.04286433756351471, -0.3018953800201416, 0.015348471701145172, 0.04025351256132126, -0.04048110917210579, 0.0037270423490554094
32953, 2.692406177520752, -4.303271293640137, -7.172664642333984, 0.13529404997825623, 0.06062852218747139, 0.03533121943473816, 0, 0, 0, 0, 0, 0, 0, 0, 0, 0, 0, 0, 0.0, 0.0, 0.0, 0.0, 20.0, 20.0, 5.0, 0.0, 0.0, 0.0, -0.0434732660651207, -0.30364495515823364, 0.016860250383615494, 0.03620956838130951, -0.056970734149217606, 0.01409328356385231
32962, 2.616326332092285, -4.29615592956543, -7.137325763702393, -0.12359046936035156, -0.19132697582244873, 0.03222397714853287, 0, 0, 0, 0, 0, 0, 0, 0, 0, 0, 0, 0, 0.0, 0.0, 0.0, 0.0, 20.0, -4.0, -1.0, 0.0, 0.0, 0.0, -0.043078020215034485, -0.30382436513900757, 0.01715666428208351, 0.03921045362949371, -0.05376933142542839, 0.01491489913314581
32972, 2.656975746154785, -4.2996439933776855, -7.174720764160156, -0.16624955832958221, 0.39816540479660034, 0.10817547142505646, 0, 0, 0, 0, 0, 0, 0, 0, 0, 0, 0, 0, 0.0, 0.0, 0.0, 0.0, 20.0, 0.0, -4.0, 0.0, 0.0, 0.0, -0.04267868772149086, -0.30379727482795715, 0.017264535650610924, 0.04240889102220535, -0.05302302911877632, 0.015252902172505856
32982, 2.6748106479644775, -4.304136276245117, -7.160439491271973, -0.044871509075164795, 0.002909233095124364, 0.06523879617452621, 0, 0, 0, 0, 0, 0, 0, 0, 0, 0, 0, 0, 0.0, 0.0, 0.0, 0.0, 20.0, -1.0, 1.0, 0.0, 0.0, 0.0, -0.04277750104665756, -0.3036971092224121, 0.017477715387940407, 0.04129384085536003, -0.05147853493690491, 0.01599799655377865
32992, 2.657508611679077, -4.300378322601318, -7.145947456359863, -0.10395929217338562, 0.0802505686879158, 0.02879316359758377, 0, 0, 0, 0, 0, 0, 0, 0, 0, 0, 0, 0, 0.0, 0.0, 0.0, 0.0, 9.0, -15.0, 0.0, 0.0, 0.0, 0.0, -0.04302586242556572, -0.30175358057022095, 0.014938896521925926, 0.0391552597284317, -0.03586520254611969, -0.0017939625540748239
33002, 2.643080711364746, -4.304373741149902, -7.138918876647949, -0.09879808872938156, 0.1591586321592331, 0.03342500701546669, 0, 0, 0, 0, 0, 0, 0, 0, 0, 0, 0, 0, 0.0, 0.0, 0.0, 0.0, 9.0, -22.0, -4.0, 0.0, 0.0, 0.0, -0.04244253784418106, -0.2997187674045563, 0.0151654202491045, 0.04234227538108826, -0.01713457703590393, 8.432151662418619e-05
33013, 2.707566261291504, -4.3368449211120605, -7.132763385772705, 0.009286889806389809, -0.2966022491455078, 0.01638305000960827, 0, 0, 0, 0, 0, 0, 0, 0, 0, 0, 0, 0, 0.0, 0.0, 0.0, 0.0, 9.0, 1.0, 0.0, 0.0, 0.0, 0.0, -0.04242509976029396, -0.2997143268585205, 0.015244410373270512, 0.04246218502521515, -0.019401509314775467, 0.001189688453450799
33022, 2.707246780395508, -4.305468559265137, -7.157168388366699, -0.05337236076593399, -0.23362505435943604, -0.18772368133068085, 0, 0, 0, 0, 0, 0, 0, 0, 0, 0, 0, 0, 0.0, 0.0, 0.0, 0.0, 9.0, -2.0, 4.0, 0.0, 0.0, 0.0, -0.04278096929192543, -0.29943811893463135, 0.015437512658536434, 0.03857715055346489, -0.018703797832131386, 0.002414138289168477
33032, 2.6710822582244873, -4.413168430328369, -7.099414825439453, -0.07062973082065582, -0.20185016095638275, -0.07254020869731903, 0, 0, 0, 0, 0, 0, 0, 0, 0, 0, 0, 0, 0.0, 0.0, 0.0, 0.0, 9.0, -3.0, -8.0, 0.0, 0.0, 0.0, -0.041995640844106674, -0.2991565763950348, 0.015420169569551945, 0.04612192139029503, -0.016893284395337105, 0.00277061783708632
33052, 2.659396171569824, -4.315949440002441, -7.142631530761719, 0.15156908333301544, -0.3841964602470398, -0.017745574936270714, 0, 0, 0, 0, 0, 0, 0, 0, 0, 0, 0, 0, 0.0, 0.0, 0.0, 0.0, 19.0, 3.0, 4.0, 0.0, 0.0, 0.0, -0.04219833388924599, -0.2996171712875366, 0.016862230375409126, 0.043146248906850815, -0.02229403704404831, 0.012341362424194813
33062, 2.621609687805176, -4.324171543121338, -7.1153950691223145, 0.02241671271622181, 0.10074976831674576, 0.03551129996776581, 0, 0, 0, 0, 0, 0, 0, 0, 0, 0, 0, 0, 0.0, 0.0, 0.0, 0.0, 19.0, 3.0, 4.0, 0.0, 0.0, 0.0, -0.04182058945298195, -0.29924866557121277, 0.016979806125164032, 0.046066392213106155, -0.019632503390312195, 0.01253755297511816
33072, 2.6653225421905518, -4.300311088562012, -7.155470371246338, 0.11617416888475418, 0.040389541536569595, -0.05501268059015274, 0, 0, 0, 0, 0, 0, 0, 0, 0, 0, 0, 0, 0.0, 0.0, 0.0, 0.0, 19.0, 3.0, 4.0, 0.0, 0.0, 0.0, -0.042291127145290375, -0.29972928762435913, 0.017134256660938263, 0.042225658893585205, -0.0257402416318655, 0.013076274655759335
33082, 2.642406940460205, -4.310551166534424, -7.125782489776611, 0.017960449680685997, 0.2062477171421051, 0.023056967183947563, 0, 0, 0, 0, 0, 0, 0, 0, 0, 0, 0, 0, 0.0, 0.0, 0.0, 0.0, 6.0, 0.0, -4.0, 0.0, 0.0, 0.0, -0.04205048829317093, -0.2996906638145447, 0.013592950999736786, 0.045563168823719025, -0.026416340842843056, -0.010462970472872257
33092, 2.666989803314209, -4.30150032043457, -7.1507062911987305, -0.13407878577709198, -0.3687719702720642, -0.033876121044158936, 0, 0, 0, 0, 0, 0, 0, 0, 0, 0, 0, 0, 0.0, 0.0, 0.0, 0.0, 6.0, 1.0, 0.0, 0.0, 0.0, 0.0, -0.0420926958322525, -0.2997838258743286, 0.013640575110912323, 0.045380447059869766, -0.02789848856627941, -0.00917887594550848
33102, 2.6892170906066895, -4.284315586090088, -7.176964282989502, -0.06069045513868332, 0.3504089415073395, -0.11162237077951431, 0, 0, 0, 0, 0, 0, 0, 0, 0, 0, 0, 0, 0.0, 0.0, 0.0, 0.0, 6.0, -1.0, 8.0, 0.0, 0.0, 0.0, -0.04287195950746536, -0.29958653450012207, 0.013842291198670864, 0.03887823969125748, -0.02787148952484131, -0.007108875550329685
33112, 2.6359357833862305, -4.2841997146606445, -7.165230751037598, -0.1338682472705841, -0.0021424065344035625, -0.1999455988407135, 0, 0, 0, 0, 0, 0, 0, 0, 0, 0, 0, 0, 0.0, 0.0, 0.0, 0.0, 6.0, 0.0, -3.0, 0.0, 0.0, 0.0, -0.04265793785452843, -0.2996005415916443, 0.01391448825597763, 0.04104522615671158, -0.0278652124106884, -0.005677216220647097
33122, 2.6502304077148438, -4.291254997253418, -7.1799540519714355, 0.12509408593177795, 0.04397929087281227, 0.04312679544091225, 0, 0, 0, 0, 0, 0, 0, 0, 0, 0, 0, 0, 0.0, 0.0, 0.0, 0.0, 6.0, -5.0, 3.0, 0.0, 0.0, 0.0, -0.042878758162260056, -0.29910722374916077, 0.014159263111650944, 0.03862815350294113, -0.02476707100868225, -0.0034626091364771128
33132, 2.643303871154785, -4.291709899902344, -7.1523661613464355, 0.05070109665393829, 0.045631133019924164, -0.08383479714393616, 0, 0, 0, 0, 0, 0, 0, 0, 0, 0, 0, 0, 0.0, 0.0, 0.0, 0.0, 24.0, 14.0, -3.0, 0.0, 0.0, 0.0, -0.04267793893814087, -0.30056294798851013, 0.017316434532403946, 0.04055960848927498, -0.03567101061344147, 0.017270559445023537
33142, 2.624924659729004, -4.296003341674805, -7.1496100425720215, -0.184921994805336, -0.1461016684770584, 0.051229849457740784, 0, 0, 0, 0, 0, 0, 0, 0, 0, 0, 0, 0, 0.0, 0.0, 0.0, 0.0, 24.0, -9.0, 3.0, 0.0, 0.0, 0.0, -0.042768143117427826, -0.2998201847076416, 0.01760678179562092, 0.038605645298957825, -0.029415568336844444, 0.017918860539793968
33153, 2.611039161682129, -4.276092529296875, -7.154568672180176, -0.09580628573894501, 0.10317020863294601, 0.1482519954442978, 0, 0, 0, 0, 0, 0, 0, 0, 0, 0, 0, 0, 0.0, 0.0, 0.0, 0.0, 24.0, -5.0, 0.0, 0.0, 0.0, 0.0, -0.04269867017865181, -0.29931798577308655, 0.017794514074921608, 0.038502562791109085, -0.026031063869595528, 0.018130050972104073
33162, 2.6611289978027344, -4.266068935394287, -7.148171424865723, 0.01841585710644722, -0.5964608192443848, -0.0606544055044651, 0, 0, 0, 0, 0, 0, 0, 0, 0, 0, 0, 0, 0.0, 0.0, 0.0, 0.0, 24.0, 4.0, -3.0, 0.0, 0.0, 0.0, -0.042548272758722305, -0.29974690079689026, 0.017872359603643417, 0.04036979749798775, -0.03011772222816944, 0.01801617071032524
33172, 2.6446542739868164, -4.2728166580200195, -7.15291690826416, 0.038905803114175797, 0.026148442178964615, 0.07199385017156601, 0, 0, 0, 0, 0, 0, 0, 0, 0, 0, 0, 0, 0.0, 0.0, 0.0, 0.0, 8.0, 4.0, -3.0, 0.0, 0.0, 0.0, -0.04290546476840973, -0.30005943775177, 0.014925168827176094, 0.039632365107536316, -0.034142158925533295, -0.0010308880591765046
33182, 2.649122476577759, -4.343478202819824, -7.129214763641357, 0.058056239038705826, -0.27136364579200745, -0.04064391925930977, 0, 0, 0, 0, 0, 0, 0, 0, 0, 0, 0, 0, 0.0, 0.0, 0.0, 0.0, 8.0, -1.0, -1.0, 0.0, 0.0, 0.0, -0.04273110255599022, -0.30009976029396057, 0.014957886189222336, 0.04079406335949898, -0.03401089832186699, -0.00023729221720714122
33192, 2.6342718601226807, -4.306694507598877, -7.138570785522461, 0.01873224414885044, 0.03729160130023956, -0.019050296396017075, 0, 0, 0, 0, 0, 0, 0, 0, 0, 0, 0, 0, 0.0, 0.0, 0.0, 0.0, 8.0, 1.0, -5.0, 0.0, 0.0, 0.0, -0.04225553572177887, -0.3002009093761444, 0.014966425485908985, 0.044924117624759674, -0.03480448201298714, 0.00017712432600092143
33202, 2.6475331783294678, -4.2936224937438965, -7.135157108306885, 0.1315617710351944, -0.21285973489284515, -0.07951941341161728, 0, 0, 0, 0, 0, 0, 0, 0, 0, 0, 0, 0, 0.0, 0.0, 0.0, 0.0, 8.0, -7.0, 3.0, 0.0, 0.0, 0.0, -0.04252901300787926, -0.29960888624191284, 0.015229960903525352, 0.04218664392828941, -0.030465491116046906, 0.001716002938337624
33212, 2.6326146125793457, -4.322666168212891, -7.120126247406006, -0.07990925014019012, -0.05767310783267021, -0.3557557463645935, 0, 0, 0, 0, 0, 0, 0, 0, 0, 0, 0, 0, 0.0, 0.0, 0.0, 0.0, 8.0, 2.0, 1.0, 0.0, 0.0, 0.0, -0.0426432341337204, -0.29976633191108704, 0.01533639058470726, 0.04197661206126213, -0.03211710602045059, 0.0024619537871330976
33222, 2.6458847522735596, -4.303045272827148, -7.161688804626465, 0.04132713004946709, -0.3305588960647583, -0.12855900824069977, 0, 0, 0, 0, 0, 0, 0, 0, 0, 0, 0, 0, 0.0, 0.0, 0.0, 0.0, 8.0, 2.0, 1.0, 0.0, 0.0, 0.0, -0.04247681051492691, -0.2994912266731262, 0.01629018969833851, 0.04276362434029579, -0.029826514422893524, 0.008595366030931473
33232, 2.65322208404541, -4.285772323608398, -7.165205955505371, -0.09788908809423447, 0.13678570091724396, 0.3038117289543152, 0, 0, 0, 0, 0, 0, 0, 0, 0, 0, 0, 0, 0.0, 0.0, 0.0, 0.0, 8.0, 3.0, 2.0, 0.0, 0.0, 0.0, -0.04259761795401573, -0.2998531758785248, 0.016391657292842865, 0.04151738062500954, -0.0332530178129673, 0.009169543161988258
33242, 2.636589527130127, -4.288862228393555, -7.148179531097412, 0.0944184884428978, -0.1697184443473816, -0.06270724534988403, 0, 0, 0, 0, 0, 0, 0, 0, 0, 0, 0, 0, 0.0, 0.0, 0.0, 0.0, 18.0, 0.0, 0.0, 0.0, 0.0, 0.0, -0.04242105409502983, -0.30001696944236755, 0.01647806726396084, 0.043339699506759644, -0.03456335514783859, 0.009540503844618797
33253, 2.666205883026123, -4.339138031005859, -7.1224164962768555, -0.0813925564289093, 0.02778223529458046, 0.057153042405843735, 0, 0, 0, 0, 0, 0, 0, 0, 0, 0, 0, 0, 0.0, 0.0, 0.0, 0.0, 18.0, -3.0, 2.0, 0.0, 0.0, 0.0, -0.04258493334054947, -0.29973700642585754, 0.016662990674376488, 0.04249975085258484, -0.03289065137505531, 0.01050685066729784
33262, 2.6576898097991943, -4.304389953613281, -7.125232696533203, 0.13593465089797974, -0.18038883805274963, -0.03612956032156944, 0, 0, 0, 0, 0, 0, 0, 0, 0, 0, 0, 0, 0.0, 0.0, 0.0, 0.0, 18.0, 8.0, -3.0, 0.0, 0.0, 0.0, -0.04261890798807144, -0.30041417479515076, 0.014067044481635094, 0.04434230178594589, -0.039425015449523926, -0.005796763114631176
33272, 2.648979663848877, -4.288501262664795, -7.1714396476745605, 0.11956097930669785, -0.19243887066841125, -0.023509066551923752, 0, 0, 0, 0, 0, 0, 0, 0, 0, 0, 0, 0, 0.0, 0.0, 0.0, 0.0, 8.0, -6.0, 4.0, 0.0, 0.0, 0.0, -0.042556751519441605, -0.3002518117427826, 0.014159289188683033, 0.043169137090444565, -0.037095360457897186, -0.003825860098004341
33282, 2.647225856781006, -4.29353666305542, -7.184675693511963, 0.13278056681156158, -0.2611662745475769, -0.0897374153137207, 0, 0, 0, 0, 0, 0, 0, 0, 0, 0, 0, 0, 0.0, 0.0, 0.0, 0.0, 8.0, 1.0, -8.0, 0.0, 0.0, 0.0, -0.04213372617959976, -0.3001447916030884, 0.014166140928864479, 0.04707395285367966, -0.03637558966875076, -0.0036617140285670757
33292, 2.6437602043151855, -4.298303604125977, -7.1434831619262695, -0.2137124091386795, 0.07163923233747482, -0.01680026389658451, 0, 0, 0, 0, 0, 0, 0, 0, 0, 0, 0, 0, 0.0, 0.0, 0.0, 0.0, 8.0, 6.0, 0.0, 0.0, 0.0, 0.0, -0.04224792867898941, -0.30070385336875916, 0.014235802926123142, 0.046762727200984955, -0.04114061966538429, -0.0026336440350860357
33302, 2.6496710777282715, -4.290105819702148, -7.177835941314697, 0.24709124863147736, -0.199692964553833, 0.12339457124471664, 0, 0, 0, 0, 0, 0, 0, 0, 0, 0, 0, 0, 0.0, 0.0, 0.0, 0.0, 8.0, -3.0, 4.0, 0.0, 0.0, 0.0, -0.04258506000041962, -0.30040791630744934, 0.014489547349512577, 0.043394800275564194, -0.03858580067753792, -0.0006543589406646788
33312, 2.602649688720703, -4.2800374031066895, -7.129286289215088, -0.09504353255033493, -0.125979483127594, 0.06858428567647934, 0, 0, 0, 0, 0, 0, 0, 0, 0, 0, 0, 0, 0.0, 0.0, 0.0, 0.0, 20.0, 3.0, 0.0, 0.0, 0.0, 0.0, -0.04258506000041962, -0.30040791630744934, 0.014489547349512577, 0.043394800275564194, -0.03858580067753792, -0.0006543589406646788
33322, 2.5916695594787598, -4.324669361114502, -7.10667085647583, -0.009762624278664589, -0.020368799567222595, 0.013765753246843815, 0, 0, 0, 0, 0, 0, 0, 0, 0, 0, 0, 0, 0.0, 0.0, 0.0, 0.0, 20.0, -9.0, 4.0, 0.0, 0.0, 0.0, -0.04245983064174652, -0.30032631754875183, 0.01665670797228813, 0.042307596653699875, -0.03540614992380142, 0.012723149731755257
33332, 2.648505926132202, -4.288451194763184, -7.166041851043701, -0.2511763274669647, 0.41817182302474976, 0.0505358949303627, 0, 0, 0, 0, 0, 0, 0, 0, 0, 0, 0, 0, 0.0, 0.0, 0.0, 0.0, 20.0, 5.0, -5.0, 0.0, 0.0, 0.0, -0.042068108916282654, -0.30089902877807617, 0.016704648733139038, 0.045623164623975754, -0.04009813070297241, 0.012905696406960487
33342, 2.6512138843536377, -4.282346248626709, -7.168963432312012, 0.15859195590019226, 0.03797679767012596, 0.13143351674079895, 0, 0, 0, 0, 0, 0, 0, 0, 0, 0, 0, 0, 0.0, 0.0, 0.0, 0.0, 20.0, -1.0, 0.0, 0.0, 0.0, 0.0, -0.042385295033454895, -0.3005034625530243, 0.016784636303782463, 0.04340555891394615, -0.03745115548372269, 0.013238543644547462
33353, 2.655200958251953, -4.282367706298828, -7.176695346832275, 0.04181172326207161, 0.1328122764825821, -0.044617947190999985, 0, 0, 0, 0, 0, 0, 0, 0, 0, 0, 0, 0, 0.0, 0.0, 0.0, 0.0, 8.0, 4.0, 0.0, 0.0, 0.0, 0.0, -0.0425952784717083, -0.30074357986450195, 0.014184202067553997, 0.043103575706481934, -0.040870144963264465, -0.0038273462560027838
33362, 2.6318538188934326, -4.276238918304443, -7.152904033660889, 0.1184149980545044, -0.5380487442016602, -0.0006991390255279839, 0, 0, 0, 0, 0, 0, 0, 0, 0, 0, 0, 0, 0.0, 0.0, 0.0, 0.0, 8.0, -4.0, 5.0, 0.0, 0.0, 0.0, -0.043015193194150925, -0.3003370463848114, 0.014371665194630623, 0.038807179778814316, -0.03760664165019989, -0.0022611692547798157
