timeTick, roll, pitch, yaw, stateX, stateY, stateZ, stateVX, stateVY, stateVZ, whisker1, whisker2, whisker3, motor1, motor2, motor3, motor4, kalX, kalY, kalZ, kalPX, kalPY, kalPZ
192273, -58.892974853515625, 1.4325613975524902, 2.6069931983947754, 0, 0, 0, 0, 0, 0, 0, 0, 0, 0, 0, 0, 0, 0, 0, 0, 0, 0, 0
192283, -78.22457885742188, 2.355433464050293, 3.410588264465332, 2.0423152446746826, -0.5122462511062622, -0.0022426170762628317, -0.0025065841618925333, 0.0760241225361824, -0.06783544272184372, 0, 0, 0, 0.0, 0.0, 0.0, 0.0, 2.0423152446746826, -0.5122462511062622, -0.0022426170762628317, -0.0007690537604503334, 0.0819508507847786, 0.06058965250849724
192293, -81.99393463134766, 2.6380975246429443, 3.295804023742676, 2.0423169136047363, -0.5115851163864136, 0.003381317714229226, -0.0059347436763346195, 0.17349767684936523, -0.17813359200954437, 0, 0, 0, 0.0, 0.0, 0.0, 0.0, 2.0422933101654053, -0.5117068290710449, 0.003381498157978058, -0.0023217492271214724, 0.18332035839557648, 0.15005147457122803
192303, -83.6309814453125, 2.7347986698150635, 3.1257166862487793, 2.042288303375244, -0.5101346969604492, 0.0010170895839110017, -0.0078102899715304375, 0.27150219678878784, -0.2756321132183075, 0, 0, 0, 0.0, 0.0, 0.0, 0.0, 2.042288303375244, -0.5101346969604492, 0.0010170895839110017, -0.0046697198413312435, 0.2886468768119812, 0.25770002603530884
192313, -87.33474731445312, 2.8374173641204834, 3.2606234550476074, 2.0422589778900146, -0.507958710193634, -0.0022833535913378, -0.008954443037509918, 0.3694182336330414, -0.3722805976867676, 0, 0, 0, 0.0, 0.0, 0.0, 0.0, 2.0422589778900146, -0.507958710193634, -0.0022833535913378, -0.0063528320752084255, 0.38870540261268616, 0.352152943611145
192323, -84.98844909667969, 2.721111297607422, 2.778627395629883, 2.0422463417053223, -0.5055713653564453, -0.006459197960793972, -0.009417113848030567, 0.4672562777996063, -0.4677720367908478, 0, 0, 0, 0.0, 0.0, 0.0, 0.0, 2.0422463417053223, -0.5055713653564453, -0.006459197960793972, -0.007583326194435358, 0.4880335330963135, 0.44608891010284424
192333, -85.445068359375, 2.6538596153259277, 2.643434524536133, 2.0421347618103027, -0.5009697675704956, -0.010919488966464996, -0.010343597270548344, 0.567599892616272, -0.535929262638092, 0, 0, 0, 0.0, 0.0, 0.0, 0.0, 2.042192220687866, -0.5020444989204407, -0.011521783657371998, -0.008510012179613113, 0.587389349937439, 0.5402722954750061
192343, -87.68460083007812, 2.6665356159210205, 2.7215096950531006, 2.042104721069336, -0.4959830045700073, -0.017396939918398857, -0.010618409141898155, 0.6757163405418396, -0.6401336193084717, 0, 0, 0, 0.0, 0.0, 0.0, 0.0, 2.042144536972046, -0.49731290340423584, -0.01806662604212761, -0.009246853180229664, 0.695851743221283, 0.6432549953460693
192353, -87.69380950927734, 2.5735483169555664, 2.5985209941864014, 2.0420725345611572, -0.49154195189476013, -0.024041838943958282, -0.010521330870687962, 0.772906482219696, -0.7333385944366455, 0, 0, 0, 0.0, 0.0, 0.0, 0.0, 2.0420725345611572, -0.49154195189476013, -0.024041838943958282, -0.009401158429682255, 0.7904666662216187, 0.7143943309783936
192363, -87.73332214355469, 2.4713099002838135, 2.513683795928955, 2.042032241821289, -0.48643410205841064, -0.031388357281684875, -0.010455495677888393, 0.8689119219779968, -0.8249775767326355, 0, 0, 0, 0.0, 0.0, 0.0, 0.0, 2.042032241821289, -0.48643410205841064, -0.031388357281684875, -0.009186620824038982, 0.886771023273468, 0.8057688474655151
192373, -87.76487731933594, 2.3597097396850586, 2.447079658508301, 2.042011022567749, -0.48074543476104736, -0.03938346356153488, -0.010411737486720085, 0.9637093544006348, -0.9153313636779785, 0, 0, 0, 0.0, 0.0, 0.0, 0.0, 2.042011022567749, -0.48074543476104736, -0.03938346356153488, -0.008587655611336231, 0.9811686277389526, 0.8966140747070312
192383, -86.06747436523438, 2.270145893096924, 2.3126189708709717, 2.0419349670410156, -0.47257912158966064, -0.04994622617959976, -0.011323526501655579, 1.0537954568862915, -1.0379427671432495, 0, 0, 0, 0.0, 0.0, 0.0, 0.0, 2.0419623851776123, -0.47450530529022217, -0.04793773964047432, -0.007909233681857586, 1.0732783079147339, 0.9856553077697754
192393, -86.1592025756836, 2.158395767211914, 2.2747488021850586, 2.041917562484741, -0.4677206575870514, -0.05695393308997154, -0.0115671306848526, 1.1483956575393677, -1.0879074335098267, 0, 0, 0, 0.0, 0.0, 0.0, 0.0, 2.041917562484741, -0.4677206575870514, -0.05695393308997154, -0.00697378208860755, 1.1628693342208862, 1.0724669694900513
192403, -86.23789978027344, 2.0431137084960938, 2.251164197921753, 2.041836977005005, -0.45888927578926086, -0.06876637041568756, -0.012663880363106728, 1.2303084135055542, -1.2094550132751465, 0, 0, 0, 0.0, 0.0, 0.0, 0.0, 2.041836977005005, -0.45888927578926086, -0.06876637041568756, -0.007005391642451286, 1.2567726373672485, 1.181983470916748
192413, -86.29434967041016, 1.937010407447815, 2.2372264862060547, 2.041757106781006, -0.45170915126800537, -0.07846939563751221, -0.01364811509847641, 1.3143717050552368, -1.2882897853851318, 0, 0, 0, 0.0, 0.0, 0.0, 0.0, 2.041757106781006, -0.45170915126800537, -0.07846939563751221, -0.005390828009694815, 1.3390578031539917, 1.2626792192459106
192423, -86.30903625488281, 1.834513545036316, 2.2358756065368652, 2.0416808128356934, -0.44417351484298706, -0.08829491585493088, -0.014569368213415146, 1.3949741125106812, -1.3638298511505127, 0, 0, 0, 0.0, 0.0, 0.0, 0.0, 2.0416808128356934, -0.44417351484298706, -0.08829491585493088, -0.003643629839643836, 1.4178260564804077, 1.340137243270874
192434, -87.77611541748047, 1.8032597303390503, 2.3270063400268555, 2.041585922241211, -0.43639299273490906, -0.09818219393491745, -0.01599142886698246, 1.4715886116027832, -1.4361212253570557, 0, 0, 0, 0.0, 0.0, 0.0, 0.0, 2.041585922241211, -0.43639299273490906, -0.09818219393491745, -0.0014407724374905229, 1.4927902221679688, 1.4141658544540405
192443, -87.82835388183594, 1.6912329196929932, 2.344987392425537, 2.041468381881714, -0.42486685514450073, -0.10807806253433228, -0.016772419214248657, 1.5698884725570679, -1.474587321281433, 0, 0, 0, 0.0, 0.0, 0.0, 0.0, 2.041468381881714, -0.42486685514450073, -0.10807806253433228, 0.00019796824199147522, 1.5745805501937866, 1.4696780443191528
192453, -87.81421661376953, 1.5845500230789185, 2.3652257919311523, 2.041348457336426, -0.4172702133655548, -0.11755792051553726, -0.01840236224234104, 1.637045979499817, -1.5372496843338013, 0, 0, 0, 0.0, 0.0, 0.0, 0.0, 2.041348457336426, -0.4172702133655548, -0.11755792051553726, 0.0028712661005556583, 1.6405251026153564, 1.5336503982543945
192463, -87.78999328613281, 1.490233063697815, 2.4017693996429443, 2.0412182807922363, -0.4096542000770569, -0.12681253254413605, -0.0200747512280941, 1.6984479427337646, -1.5969784259796143, 0, 0, 0, 0.0, 0.0, 0.0, 0.0, 2.0412182807922363, -0.4096542000770569, -0.12681253254413605, 0.005701794754713774, 1.7024543285369873, 1.5928300619125366
192473, -87.86212158203125, 1.4002985954284668, 2.458099603652954, 2.0410685539245605, -0.4020693600177765, -0.13576489686965942, -0.022077711299061775, 1.7563952207565308, -1.6514439582824707, 0, 0, 0, 0.0, 0.0, 0.0, 0.0, 2.0410685539245605, -0.4020693600177765, -0.13576489686965942, 0.008548556827008724, 1.7606828212738037, 1.6470049619674683
192483, -87.8570785522461, 1.3107494115829468, 2.513120174407959, 2.0409107208251953, -0.39463716745376587, -0.14438484609127045, -0.02438892237842083, 1.8088481426239014, -1.7027387619018555, 0, 0, 0, 0.0, 0.0, 0.0, 0.0, 2.0409107208251953, -0.39463716745376587, -0.14438484609127045, 0.011366461403667927, 1.8151204586029053, 1.6961956024169922
192493, -86.35903930664062, 1.2545009851455688, 2.4550347328186035, 2.0406651496887207, -0.38230955600738525, -0.16006799042224884, -0.026887593790888786, 1.8638466596603394, -1.8196513652801514, 0, 0, 0, 0.0, 0.0, 0.0, 0.0, 2.04072904586792, -0.38742631673812866, -0.15263663232326508, 0.014303610660135746, 1.8661670684814453, 1.7399438619613647
192503, -86.37393188476562, 1.1796950101852417, 2.532301664352417, 2.0404772758483887, -0.37623828649520874, -0.16757766902446747, -0.029280584305524826, 1.8983640670776367, -1.8635365962982178, 0, 0, 0, 0.0, 0.0, 0.0, 0.0, 2.0404772758483887, -0.37623828649520874, -0.16757766902446747, 0.01628892682492733, 1.9355151653289795, 1.8250911235809326
192513, -86.37931823730469, 1.120352864265442, 2.608255386352539, 2.0403032302856445, -0.37045717239379883, -0.17471688985824585, -0.03144146502017975, 1.9294408559799194, -1.9041507244110107, 0, 0, 0, 0.0, 0.0, 0.0, 0.0, 2.0403032302856445, -0.37045717239379883, -0.17471688985824585, 0.019506219774484634, 1.977036952972412, 1.854857087135315
192523, -86.39835357666016, 1.0534974336624146, 2.695568561553955, 2.0400750637054443, -0.3564339876174927, -0.18529744446277618, -0.032404180616140366, 2.0202646255493164, -1.922287940979004, 0, 0, 0, 0.0, 0.0, 0.0, 0.0, 2.0401077270507812, -0.36501240730285645, -0.18144521117210388, 0.022738270461559296, 2.0161778926849365, 1.8801348209381104
192534, -86.31033325195312, 1.008919358253479, 2.782782793045044, 2.039914846420288, -0.35991209745407104, -0.18793068826198578, -0.03598140925168991, 1.978983759880066, -1.9793200492858887, 0, 0, 0, 0.0, 0.0, 0.0, 0.0, 2.039914846420288, -0.35991209745407104, -0.18793068826198578, 0.025771411135792732, 2.0533623695373535, 1.9022220373153687
192544, -87.85262298583984, 1.0000252723693848, 2.934382200241089, 2.0396857261657715, -0.3473316729068756, -0.1974998116493225, -0.0370907299220562, 2.0583746433258057, -1.9894354343414307, 0, 0, 0, 0.0, 0.0, 0.0, 0.0, 2.039733409881592, -0.35647958517074585, -0.19307564198970795, 0.028595713898539543, 2.0831096172332764, 1.9116448163986206
192553, -87.85395050048828, 0.9734805822372437, 3.03364896774292, 2.0395023822784424, -0.34399110078811646, -0.20267732441425323, -0.03911292925477028, 2.067559242248535, -2.0192015171051025, 0, 0, 0, 0.0, 0.0, 0.0, 0.0, 2.0395708084106445, -0.3533307909965515, -0.19796714186668396, 0.031216170638799667, 2.1119279861450195, 1.9184002876281738
192563, -87.86824798583984, 0.9555152654647827, 3.138108491897583, 2.039332866668701, -0.3409455418586731, -0.20762892067432404, -0.04079623892903328, 2.0748791694641113, -2.047529935836792, 0, 0, 0, 0.0, 0.0, 0.0, 0.0, 2.039332866668701, -0.3409455418586731, -0.20762892067432404, 0.03332538157701492, 2.1767702102661133, 1.9390099048614502
192573, -86.31037139892578, 0.9379265308380127, 3.088102340698242, 2.038985252380371, -0.3299727439880371, -0.22380775213241577, -0.043432027101516724, 2.103329658508301, -2.1589248180389404, 0, 0, 0, 0.0, 0.0, 0.0, 0.0, 2.03916072845459, -0.33818498253822327, -0.21241308748722076, 0.03588340803980827, 2.2048091888427734, 1.942708969116211
192583, -87.77596282958984, 0.9650270342826843, 3.3479676246643066, 2.0388071537017822, -0.3273346722126007, -0.22860367596149445, -0.045104965567588806, 2.107717752456665, -2.185511589050293, 0, 0, 0, 0.0, 0.0, 0.0, 0.0, 2.039020299911499, -0.33570462465286255, -0.21701683104038239, 0.03812655061483383, 2.2321555614471436, 1.9444974660873413
192593, -86.30095672607422, 0.9580508470535278, 3.297788143157959, 2.0386366844177246, -0.3228953778743744, -0.23548972606658936, -0.046285480260849, 2.1193344593048096, -2.2223854064941406, 0, 0, 0, 0.0, 0.0, 0.0, 0.0, 2.0388622283935547, -0.3315623700618744, -0.2235313355922699, 0.040169548243284225, 2.2686502933502197, 1.952734351158142
192603, -86.46086120605469, 0.9879045486450195, 3.421276330947876, 2.0384020805358887, -0.31011295318603516, -0.24536742269992828, -0.04734516143798828, 2.1970088481903076, -2.2272448539733887, 0, 0, 0, 0.0, 0.0, 0.0, 0.0, 2.038784980773926, -0.33140090107917786, -0.22672143578529358, 0.04150782525539398, 2.288640260696411, 1.9417272806167603
192613, -86.46607208251953, 1.0380809307098389, 3.5255565643310547, 2.0385074615478516, -0.3226616382598877, -0.24187937378883362, -0.04748741537332535, 2.0901126861572266, -2.2699062824249268, 0, 0, 0, 0.0, 0.0, 0.0, 0.0, 2.0385074615478516, -0.3226616382598877, -0.24187937378883362, 0.04254133254289627, 2.3435518741607666, 2.007310152053833
192623, -86.3315658569336, 1.0988823175430298, 3.6137828826904297, 2.0384883880615234, -0.3225094974040985, -0.24506428837776184, -0.047427598387002945, 2.081983804702759, -2.2888076305389404, 0, 0, 0, 0.0, 0.0, 0.0, 0.0, 2.0384883880615234, -0.3225094974040985, -0.24506428837776184, 0.043174490332603455, 2.3640849590301514, 1.996201992034912
192633, -86.35183715820312, 1.16620671749115, 3.6985177993774414, 2.0382871627807617, -0.30992618203163147, -0.255475252866745, -0.048339203000068665, 2.1642868518829346, -2.294070243835449, 0, 0, 0, 0.0, 0.0, 0.0, 0.0, 2.0385043621063232, -0.3223492503166199, -0.24828988313674927, 0.043493833392858505, 2.38482403755188, 1.9865084886550903
192643, -87.92967987060547, 1.2160075902938843, 3.849721908569336, 2.0383150577545166, -0.30982524156570435, -0.2589230537414551, -0.0476972833275795, 2.156001091003418, -2.3162121772766113, 0, 0, 0, 0.0, 0.0, 0.0, 0.0, 2.0385665893554688, -0.32221683859825134, -0.25160664319992065, 0.04364462196826935, 2.405789852142334, 1.9779990911483765
192653, -87.91474151611328, 1.2954330444335938, 3.9200661182403564, 2.038428544998169, -0.31140345335006714, -0.26115164160728455, -0.046350572258234024, 2.1383748054504395, -2.332479953765869, 0, 0, 0, 0.0, 0.0, 0.0, 0.0, 2.038428544998169, -0.31140345335006714, -0.26115164160728455, 0.044019799679517746, 2.46506404876709, 1.98414146900177
192663, -87.93556213378906, 1.3807382583618164, 3.9731404781341553, 2.0385828018188477, -0.3127399682998657, -0.26354125142097473, -0.04459543153643608, 2.1230626106262207, -2.350034236907959, 0, 0, 0, 0.0, 0.0, 0.0, 0.0, 2.0385828018188477, -0.3127399682998657, -0.26354125142097473, 0.04306658357381821, 2.4814746379852295, 1.967869758605957
192673, -87.90068817138672, 1.4750235080718994, 4.025600910186768, 2.0384087562561035, -0.30391407012939453, -0.280249685049057, -0.04571608826518059, 2.1354801654815674, -2.457792043685913, 0, 0, 0, 0.0, 0.0, 0.0, 0.0, 2.0384087562561035, -0.30391407012939453, -0.280249685049057, 0.04289001226425171, 2.537672996520996, 2.0399818420410156
192684, -87.8277359008789, 1.5714961290359497, 4.055738925933838, 2.038943290710449, -0.3148352801799774, -0.26883718371391296, -0.041103411465883255, 2.099879741668701, -2.385622024536133, 0, 0, 0, 0.0, 0.0, 0.0, 0.0, 2.038943290710449, -0.3148352801799774, -0.26883718371391296, 0.04029281437397003, 2.5163655281066895, 1.9413138628005981
192694, -87.8831787109375, 1.6632388830184937, 4.086319923400879, 2.0388336181640625, -0.3059316575527191, -0.28576669096946716, -0.04159972816705704, 2.1131482124328613, -2.4926137924194336, 0, 0, 0, 0.0, 0.0, 0.0, 0.0, 2.0391600131988525, -0.3156372606754303, -0.2717421352863312, 0.03836437687277794, 2.5346133708953857, 1.9306442737579346
192703, -86.38758850097656, 1.6862620115280151, 3.9749913215637207, 2.039036750793457, -0.30462920665740967, -0.29133522510528564, -0.03977718576788902, 2.111807346343994, -2.5229125022888184, 0, 0, 0, 0.0, 0.0, 0.0, 0.0, 2.039036750793457, -0.30462920665740967, -0.29133522510528564, 0.03753574565052986, 2.6012582778930664, 2.0145695209503174
192713, -87.88294219970703, 1.761076807975769, 4.0906243324279785, 2.0392956733703613, -0.3034888207912445, -0.29679417610168457, -0.037395179271698, 2.1119801998138428, -2.550285816192627, 0, 0, 0, 0.0, 0.0, 0.0, 0.0, 2.0392956733703613, -0.3034888207912445, -0.29679417610168457, 0.03492821380496025, 2.628746747970581, 2.0135371685028076
192723, -86.3525390625, 1.8827896118164062, 3.9749765396118164, 2.0396199226379395, -0.3132760226726532, -0.2823435366153717, -0.034930989146232605, 2.0928003787994385, -2.458637237548828, 0, 0, 0, 0.0, 0.0, 0.0, 0.0, 2.039660692214966, -0.3062436580657959, -0.298127144575119, 0.032093144953250885, 2.6392781734466553, 1.9911060333251953
192733, -87.82986450195312, 1.9707229137420654, 4.083608627319336, 2.0399632453918457, -0.3157769441604614, -0.28386273980140686, -0.03176683560013771, 2.0726587772369385, -2.471656560897827, 0, 0, 0, 0.0, 0.0, 0.0, 0.0, 2.0400421619415283, -0.30857357382774353, -0.29980435967445374, 0.028774820268154144, 2.6509218215942383, 1.9731308221817017
192744, -87.83033752441406, 2.069988965988159, 4.063711643218994, 2.0400283336639404, -0.29677614569664, -0.3109583556652069, -0.03231772035360336, 2.159898519515991, -2.5739736557006836, 0, 0, 0, 0.0, 0.0, 0.0, 0.0, 2.0404229164123535, -0.31048783659935, -0.3017406463623047, 0.025320706889033318, 2.663130760192871, 1.95887291431427
192753, -87.82682800292969, 2.165154218673706, 4.0285539627075195, 2.0404248237609863, -0.2985813617706299, -0.31310296058654785, -0.029353806748986244, 2.147491693496704, -2.5875306129455566, 0, 0, 0, 0.0, 0.0, 0.0, 0.0, 2.0408172607421875, -0.3120846450328827, -0.3038651645183563, 0.02152438275516033, 2.6759285926818848, 1.9468964338302612
192763, -87.8210678100586, 2.2589430809020996, 3.9803364276885986, 2.0408260822296143, -0.3000842034816742, -0.3154476583003998, -0.026596933603286743, 2.1394758224487305, -2.5996642112731934, 0, 0, 0, 0.0, 0.0, 0.0, 0.0, 2.0408260822296143, -0.3000842034816742, -0.3154476583003998, 0.019483346492052078, 2.7374930381774902, 1.9601314067840576
192773, -87.88745880126953, 2.3549091815948486, 3.9348461627960205, 2.0412118434906006, -0.31332316994667053, -0.3061888515949249, -0.02116129919886589, 2.041083574295044, -2.6110246181488037, 0, 0, 0, 0.0, 0.0, 0.0, 0.0, 2.041278839111328, -0.30290189385414124, -0.31652531027793884, 0.015459945425391197, 2.744457960128784, 1.9404603242874146
192783, -86.23224639892578, 2.361612319946289, 3.781686782836914, 2.0416533946990967, -0.31582117080688477, -0.3073127865791321, -0.0172349214553833, 2.020279884338379, -2.6214120388031006, 0, 0, 0, 0.0, 0.0, 0.0, 0.0, 2.041714668273926, -0.30531537532806396, -0.3179091215133667, 0.01136837899684906, 2.752286672592163, 1.9240719079971313
192793, -86.28129577636719, 2.4370276927948, 3.7071783542633057, 2.0419161319732666, -0.29748988151550293, -0.3355279564857483, -0.01717747561633587, 2.1028237342834473, -2.7262699604034424, 0, 0, 0, 0.0, 0.0, 0.0, 0.0, 2.0421459674835205, -0.30740997195243835, -0.31957346200942993, 0.007472802419215441, 2.7605738639831543, 1.9104145765304565
192803, -86.32286834716797, 2.501939535140991, 3.6286232471466064, 2.0423734188079834, -0.29947149753570557, -0.3372878134250641, -0.013462756760418415, 2.0906612873077393, -2.7347681522369385, 0, 0, 0, 0.0, 0.0, 0.0, 0.0, 2.0423734188079834, -0.29947149753570557, -0.3372878134250641, 0.004843729082494974, 2.812671422958374, 1.9846675395965576
192813, -86.35659790039062, 2.549469470977783, 3.537532091140747, 2.0428268909454346, -0.3011230230331421, -0.339175820350647, -0.010281258262693882, 2.0812900066375732, -2.7426719665527344, 0, 0, 0, 0.0, 0.0, 0.0, 0.0, 2.0428268909454346, -0.3011230230331421, -0.339175820350647, 0.0010141265811398625, 2.8215959072113037, 1.9730095863342285
192823, -86.35140991210938, 2.588733434677124, 3.4474306106567383, 2.0432896614074707, -0.30414101481437683, -0.3397679030895233, -0.007501786574721336, 2.062641143798828, -2.7449734210968018, 0, 0, 0, 0.0, 0.0, 0.0, 0.0, 2.0432896614074707, -0.30414101481437683, -0.3397679030895233, -0.0029887850396335125, 2.8239572048187256, 1.9531322717666626
192833, -87.80236053466797, 2.6416797637939453, 3.509850025177002, 2.043346643447876, -0.29245030879974365, -0.35117608308792114, -0.010207079350948334, 2.1478426456451416, -2.7444138526916504, 0, 0, 0, 0.0, 0.0, 0.0, 0.0, 2.0437090396881104, -0.30665284395217896, -0.34059980511665344, -0.0067776041105389595, 2.8275344371795654, 1.936627984046936
192844, -87.80097961425781, 2.663808584213257, 3.4197869300842285, 2.0437519550323486, -0.29491445422172546, -0.3522425889968872, -0.008199401199817657, 2.1326091289520264, -2.7500784397125244, 0, 0, 0, 0.0, 0.0, 0.0, 0.0, 2.0437519550323486, -0.29491445422172546, -0.3522425889968872, -0.009047752246260643, 2.8845980167388916, 1.9468132257461548
192853, -87.81047821044922, 2.678834915161133, 3.3296620845794678, 2.0441176891326904, -0.2969852387905121, -0.35353708267211914, -0.006325391121208668, 2.119915008544922, -2.75687837600708, 0, 0, 0, 0.0, 0.0, 0.0, 0.0, 2.0441176891326904, -0.2969852387905121, -0.35353708267211914, -0.012325389310717583, 2.8889920711517334, 1.9359958171844482
192863, -87.79329681396484, 2.681168556213379, 3.228597640991211, 2.0444915294647217, -0.3003687262535095, -0.35350143909454346, -0.004556217696517706, 2.1004066467285156, -2.7568535804748535, 0, 0, 0, 0.0, 0.0, 0.0, 0.0, 2.0444915294647217, -0.3003687262535095, -0.35350143909454346, -0.015537585131824017, 2.8868675231933594, 1.9177517890930176
192873, -86.35638427734375, 2.643338441848755, 3.084462881088257, 2.0447826385498047, -0.30148622393608093, -0.3552106022834778, -0.0034061435144394636, 2.095217704772949, -2.763885736465454, 0, 0, 0, 0.0, 0.0, 0.0, 0.0, 2.0447826385498047, -0.30148622393608093, -0.3552106022834778, -0.018244821578264236, 2.8933725357055664, 1.9123611450195312
192883, -86.35848999023438, 2.635561466217041, 2.9979844093322754, 2.045048952102661, -0.30398717522621155, -0.3555798828601837, -0.0026867599226534367, 2.081965923309326, -2.7649126052856445, 0, 0, 0, 0.0, 0.0, 0.0, 0.0, 2.045048952102661, -0.30398717522621155, -0.3555798828601837, -0.021046195179224014, 2.8933520317077637, 1.8993290662765503
192893, -86.3825912475586, 2.6194701194763184, 2.912997245788574, 2.045255184173584, -0.2961515486240387, -0.3732531666755676, -0.0016098810592666268, 2.093921422958374, -2.8588249683380127, 0, 0, 0, 0.0, 0.0, 0.0, 0.0, 2.045283079147339, -0.30607596039772034, -0.35622382164001465, -0.02342451550066471, 2.89434552192688, 1.8897349834442139
192903, -86.3755111694336, 2.585618734359741, 2.8355915546417236, 2.0454792976379395, -0.2980479300022125, -0.3739304840564728, -0.0012617935426533222, 2.0855765342712402, -2.860507011413574, 0, 0, 0, 0.0, 0.0, 0.0, 0.0, 2.0454792976379395, -0.2980479300022125, -0.3739304840564728, -0.025138985365629196, 2.94301176071167, 1.9672906398773193
192913, -86.38765716552734, 2.553499698638916, 2.7635271549224854, 2.045616865158081, -0.299563467502594, -0.3748164474964142, -0.0014856605557724833, 2.079960346221924, -2.8625848293304443, 0, 0, 0, 0.0, 0.0, 0.0, 0.0, 2.045616865158081, -0.299563467502594, -0.3748164474964142, -0.026849456131458282, 2.9452006816864014, 1.961058259010315
192923, -87.70965576171875, 2.5610105991363525, 2.8153512477874756, 2.04559326171875, -0.3091035485267639, -0.3580635190010071, -0.002427138155326247, 2.058917760848999, -2.77327823638916, 0, 0, 0, 0.0, 0.0, 0.0, 0.0, 2.045757293701172, -0.3023427426815033, -0.3743286430835724, -0.028047233819961548, 2.9413979053497314, 1.9474555253982544
192933, -86.32604217529297, 2.446345567703247, 2.625779151916504, 2.0457029342651367, -0.31161248683929443, -0.35780179500579834, -0.0030181342735886574, 2.0479986667633057, -2.7704145908355713, 0, 0, 0, 0.0, 0.0, 0.0, 0.0, 2.045827627182007, -0.3045516312122345, -0.3741281032562256, -0.028912736102938652, 2.939084768295288, 1.9375556707382202
192943, -87.6898193359375, 2.451202154159546, 2.681900978088379, 2.0457210540771484, -0.29266026616096497, -0.38592779636383057, -0.00542996684089303, 2.1435916423797607, -2.8579859733581543, 0, 0, 0, 0.0, 0.0, 0.0, 0.0, 2.0457210540771484, -0.29266026616096497, -0.38592779636383057, -0.02944871038198471, 2.993360996246338, 1.9498897790908813
192953, -87.69142150878906, 2.3895652294158936, 2.6214284896850586, 2.045750379562378, -0.29426002502441406, -0.3861325979232788, -0.005885605700314045, 2.1373653411865234, -2.857799768447876, 0, 0, 0, 0.0, 0.0, 0.0, 0.0, 2.045750379562378, -0.29426002502441406, -0.3861325979232788, -0.02976384572684765, 2.9923977851867676, 1.944248914718628
192963, -87.69742584228516, 2.3243515491485596, 2.567796230316162, 2.045732259750366, -0.2955057621002197, -0.38662323355674744, -0.00694897398352623, 2.132477045059204, -2.859699249267578, 0, 0, 0, 0.0, 0.0, 0.0, 0.0, 2.045732259750366, -0.2955057621002197, -0.38662323355674744, -0.029765427112579346, 2.9924023151397705, 1.9416695833206177
192973, -87.7126693725586, 2.2477855682373047, 2.534087657928467, 2.0458452701568604, -0.3085792660713196, -0.37498095631599426, -0.005055778659880161, 2.0422964096069336, -2.857017993927002, 0, 0, 0, 0.0, 0.0, 0.0, 0.0, 2.045732259750366, -0.2955057621002197, -0.38662323355674744, -0.029765427112579346, 2.9924023151397705, 1.9416695833206177
192983, -86.29460144042969, 2.18215012550354, 2.4252326488494873, 2.0456204414367676, -0.2999280095100403, -0.38514968752861023, -0.00939579401165247, 2.113990306854248, -2.850416421890259, 0, 0, 0, 0.0, 0.0, 0.0, 0.0, 2.0456204414367676, -0.2999280095100403, -0.38514968752861023, -0.028524689376354218, 2.9819657802581787, 1.923807144165039
192994, -86.30964660644531, 2.1005961894989014, 2.3990771770477295, 2.04559326171875, -0.29173484444618225, -0.4027640223503113, -0.00936887226998806, 2.12518048286438, -2.9438700675964355, 0, 0, 0, 0.0, 0.0, 0.0, 0.0, 2.0454866886138916, -0.301469624042511, -0.3848467171192169, -0.027480725198984146, 2.9788997173309326, 1.9185246229171753
193003, -86.30561828613281, 2.012930393218994, 2.382474899291992, 2.0454118251800537, -0.29308366775512695, -0.4025067389011383, -0.011628677137196064, 2.1219348907470703, -2.940361738204956, 0, 0, 0, 0.0, 0.0, 0.0, 0.0, 2.0454118251800537, -0.29308366775512695, -0.4025067389011383, -0.02703339047729969, 3.0256333351135254, 1.99833345413208
193013, -86.31303405761719, 1.9266421794891357, 2.3686676025390625, 2.0452051162719727, -0.2941054701805115, -0.4025047719478607, -0.014033988118171692, 2.1191513538360596, -2.938739776611328, 0, 0, 0, 0.0, 0.0, 0.0, 0.0, 2.0452051162719727, -0.2941054701805115, -0.4025047719478607, -0.025346413254737854, 3.0240795612335205, 1.9953809976577759
193023, -87.65653991699219, 1.9068950414657593, 2.4518587589263916, 2.0450196266174316, -0.2964293658733368, -0.40117570757865906, -0.015941275283694267, 2.107931137084961, -2.9318060874938965, 0, 0, 0, 0.0, 0.0, 0.0, 0.0, 2.0450196266174316, -0.2964293658733368, -0.40117570757865906, -0.023348039016127586, 3.016347885131836, 1.9850102663040161
193033, -86.30572509765625, 1.7561208009719849, 2.373342514038086, 2.0447447299957275, -0.2842421233654022, -0.41273412108421326, -0.018655402585864067, 2.195282459259033, -2.9294910430908203, 0, 0, 0, 0.0, 0.0, 0.0, 0.0, 2.044795036315918, -0.2982545793056488, -0.4001496732234955, -0.020987574011087418, 3.010166645050049, 1.9775246381759644
193043, -87.68144226074219, 1.742294430732727, 2.4680697917938232, 2.044508218765259, -0.28589189052581787, -0.41185861825942993, -0.020648913457989693, 2.1886587142944336, -2.924238920211792, 0, 0, 0, 0.0, 0.0, 0.0, 0.0, 2.0445456504821777, -0.2996744215488434, -0.39943209290504456, -0.018821442499756813, 3.0052812099456787, 1.972075343132019
193053, -87.65670013427734, 1.6570535898208618, 2.4933032989501953, 2.0442304611206055, -0.2871510088443756, -0.4112541079521179, -0.023139337077736855, 2.1851706504821777, -2.919286012649536, 0, 0, 0, 0.0, 0.0, 0.0, 0.0, 2.0442304611206055, -0.2871510088443756, -0.4112541079521179, -0.017461171373724937, 3.058274984359741, 1.9860608577728271
193063, -87.65319061279297, 1.57260000705719, 2.525258779525757, 2.043931245803833, -0.28808924555778503, -0.41092634201049805, -0.025751635432243347, 2.1825058460235596, -2.9163105487823486, 0, 0, 0, 0.0, 0.0, 0.0, 0.0, 2.043931245803833, -0.28808924555778503, -0.41092634201049805, -0.014714858494699001, 3.054837226867676, 1.984103798866272
193073, -87.66638946533203, 1.4929264783859253, 2.5647599697113037, 2.0436995029449463, -0.2800607979297638, -0.42829975485801697, -0.026788368821144104, 2.1909947395324707, -3.0071322917938232, 0, 0, 0, 0.0, 0.0, 0.0, 0.0, 2.043649435043335, -0.29033541679382324, -0.40921470522880554, -0.01182092260569334, 3.0450408458709717, 1.9734069108963013
193084, -86.17042541503906, 1.4321283102035522, 2.4919872283935547, 2.0433847904205322, -0.2821270823478699, -0.42669644951820374, -0.02912791632115841, 2.180082321166992, -2.998961925506592, 0, 0, 0, 0.0, 0.0, 0.0, 0.0, 2.043342113494873, -0.29214850068092346, -0.40784090757369995, -0.008705235086381435, 3.0367300510406494, 1.9647376537322998
193093, -86.14115905761719, 1.34555983543396, 2.540217161178589, 2.0430524349212646, -0.28375476598739624, -0.42531314492225647, -0.031765908002853394, 2.1721956729888916, -2.9906342029571533, 0, 0, 0, 0.0, 0.0, 0.0, 0.0, 2.0430147647857666, -0.2935646176338196, -0.4066833257675171, -0.005210676696151495, 3.0296595096588135, 1.9569257497787476
193103, -86.14981842041016, 1.282192587852478, 2.6005799770355225, 2.042707681655884, -0.2851037085056305, -0.42428216338157654, -0.03426067903637886, 2.165173292160034, -2.984257936477661, 0, 0, 0, 0.0, 0.0, 0.0, 0.0, 2.042707681655884, -0.2851037085056305, -0.42428216338157654, -0.003147491719573736, 3.0743234157562256, 2.035565137863159
193113, -86.14167785644531, 1.2244805097579956, 2.675920248031616, 2.042344808578491, -0.28398966789245605, -0.4264562726020813, -0.0367356576025486, 2.168797254562378, -2.9887475967407227, 0, 0, 0, 0.0, 0.0, 0.0, 0.0, 2.042344808578491, -0.28398966789245605, -0.4264562726020813, 0.00010862303315661848, 3.0789031982421875, 2.0391311645507812
193123, -86.18791198730469, 1.1726092100143433, 2.752650499343872, 2.042382001876831, -0.3062715530395508, -0.39619529247283936, -0.03747004270553589, 2.058366537094116, -2.891753673553467, 0, 0, 0, 0.0, 0.0, 0.0, 0.0, 2.041959524154663, -0.28303682804107666, -0.42858248949050903, 0.00344360270537436, 3.0828146934509277, 2.042287826538086
193133, -86.16213989257812, 1.1323156356811523, 2.8383750915527344, 2.041602849960327, -0.28214046359062195, -0.4306129217147827, -0.04146933928132057, 2.171473979949951, -2.997793674468994, 0, 0, 0, 0.0, 0.0, 0.0, 0.0, 2.041602849960327, -0.28214046359062195, -0.4306129217147827, 0.006989799439907074, 3.086282730102539, 2.044175148010254
193143, -87.62638092041016, 1.1342766284942627, 2.9834017753601074, 2.041264772415161, -0.28136345744132996, -0.4324992597103119, -0.04356766864657402, 2.171842098236084, -3.000967502593994, 0, 0, 0, 0.0, 0.0, 0.0, 0.0, 2.041264772415161, -0.28136345744132996, -0.4324992597103119, 0.01010892167687416, 3.089106559753418, 2.044987916946411
193153, -87.63420867919922, 1.1155592203140259, 3.074509620666504, 2.0413365364074707, -0.29122018814086914, -0.41376447677612305, -0.04361908510327339, 2.157676935195923, -2.8988475799560547, 0, 0, 0, 0.0, 0.0, 0.0, 0.0, 2.0413365364074707, -0.29122018814086914, -0.41376447677612305, 0.010877234861254692, 3.0368876457214355, 1.9590904712677002
193163, -87.65211486816406, 1.1026995182037354, 3.163505792617798, 2.0411369800567627, -0.294042706489563, -0.4112148582935333, -0.04427942633628845, 2.1389999389648438, -2.8855485916137695, 0, 0, 0, 0.0, 0.0, 0.0, 0.0, 2.0411369800567627, -0.294042706489563, -0.4112148582935333, 0.013380699791014194, 3.0225672721862793, 1.9410393238067627
193174, -87.66605377197266, 1.1109699010849, 3.2559378147125244, 2.0409486293792725, -0.2965176999568939, -0.4090266525745392, -0.04477919265627861, 2.122309923171997, -2.8742635250091553, 0, 0, 0, 0.0, 0.0, 0.0, 0.0, 2.0409486293792725, -0.2965176999568939, -0.4090266525745392, 0.015848547220230103, 3.0095486640930176, 1.926138997077942
193184, -87.66460418701172, 1.124625325202942, 3.3400216102600098, 2.0406758785247803, -0.28945392370224, -0.42506730556488037, -0.04532574862241745, 2.1186110973358154, -2.963226795196533, 0, 0, 0, 0.0, 0.0, 0.0, 0.0, 2.040797472000122, -0.29856932163238525, -0.40709927678108215, 0.01796703226864338, 2.997788429260254, 1.9135714769363403
193194, -86.12889099121094, 1.118943452835083, 3.2776036262512207, 2.0405337810516357, -0.2913547158241272, -0.4231726825237274, -0.04530547931790352, 2.106799364089966, -2.952359914779663, 0, 0, 0, 0.0, 0.0, 0.0, 0.0, 2.0402097702026367, -0.27888399362564087, -0.43443214893341064, 0.021096140146255493, 3.0862040519714355, 1.994931936264038
193203, -86.14301300048828, 1.1374688148498535, 3.3601279258728027, 2.040407180786133, -0.29304951429367065, -0.4215638339519501, -0.04534604027867317, 2.095611810684204, -2.943178653717041, 0, 0, 0, 0.0, 0.0, 0.0, 0.0, 2.040407180786133, -0.29304951429367065, -0.4215638339519501, 0.021420009434223175, 3.02614688873291, 1.9743287563323975
193213, -86.1465072631836, 1.1722520589828491, 3.4382920265197754, 2.040271759033203, -0.292500764131546, -0.4229170083999634, -0.045288536697626114, 2.095170259475708, -2.942934036254883, 0, 0, 0, 0.0, 0.0, 0.0, 0.0, 2.040407180786133, -0.29304951429367065, -0.4215638339519501, 0.021420009434223175, 3.02614688873291, 1.9743287563323975
193223, -86.17768859863281, 1.2096033096313477, 3.5222830772399902, 2.040026903152466, -0.2817060053348541, -0.43262195587158203, -0.04660898447036743, 2.178718328475952, -2.926579236984253, 0, 0, 0, 0.0, 0.0, 0.0, 0.0, 2.040261745452881, -0.29557475447654724, -0.4198685586452484, 0.02428491972386837, 3.00774884223938, 1.9560257196426392
193233, -87.64788818359375, 1.256839394569397, 3.6697041988372803, 2.04001784324646, -0.28468623757362366, -0.4297073781490326, -0.04564596340060234, 2.1589410305023193, -2.9120259284973145, 0, 0, 0, 0.0, 0.0, 0.0, 0.0, 2.040271282196045, -0.2981969118118286, -0.4170869290828705, 0.025346921756863594, 2.991706609725952, 1.9391354322433472
193243, -87.65032958984375, 1.3136788606643677, 3.7400872707366943, 2.0400569438934326, -0.287261962890625, -0.4270535707473755, -0.04422968626022339, 2.1428236961364746, -2.8976755142211914, 0, 0, 0, 0.0, 0.0, 0.0, 0.0, 2.0400569438934326, -0.287261962890625, -0.4270535707473755, 0.02642275206744671, 3.035370349884033, 1.943207025527954
193253, -87.63365173339844, 1.3838557004928589, 3.8012075424194336, 2.040137767791748, -0.289563924074173, -0.42465609312057495, -0.042699217796325684, 2.1286087036132812, -2.8844587802886963, 0, 0, 0, 0.0, 0.0, 0.0, 0.0, 2.040137767791748, -0.289563924074173, -0.42465609312057495, 0.02653714455664158, 3.0216002464294434, 1.9292941093444824
193263, -87.63484191894531, 1.464066743850708, 3.8544769287109375, 2.0402519702911377, -0.2916164994239807, -0.4224872589111328, -0.040915802121162415, 2.117408275604248, -2.871215581893921, 0, 0, 0, 0.0, 0.0, 0.0, 0.0, 2.0402519702911377, -0.2916164994239807, -0.4224872589111328, 0.026275187730789185, 3.0090625286102295, 1.9167344570159912
193283, -86.07360076904297, 1.5545283555984497, 3.8038763999938965, 2.040402412414551, -0.2885226607322693, -0.43436145782470703, -0.03800985589623451, 2.0896036624908447, -2.9395792484283447, 0, 0, 0, 0.0, 0.0, 0.0, 0.0, 2.0406501293182373, -0.2978459596633911, -0.4158903658390045, 0.02482014335691929, 2.9722023010253906, 1.8800015449523926
193293, -86.08538055419922, 1.638573408126831, 3.8362412452697754, 2.0406405925750732, -0.2912505865097046, -0.43124666810035706, -0.03554702550172806, 2.0737080574035645, -2.923301935195923, 0, 0, 0, 0.0, 0.0, 0.0, 0.0, 2.0408763885498047, -0.30038636922836304, -0.41301974654197693, 0.02364393137395382, 2.955951452255249, 1.8658983707427979
193303, -86.11055755615234, 1.7279608249664307, 3.8517048358917236, 2.040900707244873, -0.29365989565849304, -0.4284123182296753, -0.03270259127020836, 2.057310104370117, -2.910309076309204, 0, 0, 0, 0.0, 0.0, 0.0, 0.0, 2.040900707244873, -0.29365989565849304, -0.4284123182296753, 0.022945420816540718, 2.9925529956817627, 1.93588387966156
193313, -86.12841033935547, 1.8167680501937866, 3.855034589767456, 2.041194438934326, -0.29573577642440796, -0.4258328974246979, -0.029667513445019722, 2.0457000732421875, -2.896512269973755, 0, 0, 0, 0.0, 0.0, 0.0, 0.0, 2.041194438934326, -0.29573577642440796, -0.4258328974246979, 0.021180354058742523, 2.978317975997925, 1.924778938293457
193324, -86.1366958618164, 1.9080164432525635, 3.850040912628174, 2.04148006439209, -0.295683890581131, -0.42618995904922485, -0.026958221569657326, 2.0437681674957275, -2.8928656578063965, 0, 0, 0, 0.0, 0.0, 0.0, 0.0, 2.04148006439209, -0.295683890581131, -0.42618995904922485, 0.019313907250761986, 2.9741058349609375, 1.9237364530563354
193334, -87.63491821289062, 1.9799314737319946, 3.959954261779785, 2.04148006439209, -0.295683890581131, -0.42618995904922485, -0.026958221569657326, 2.0437681674957275, -2.8928656578063965, 0, 0, 0, 0.0, 0.0, 0.0, 0.0, 2.0418598651885986, -0.29909926652908325, -0.42216014862060547, 0.017134057357907295, 2.9523918628692627, 1.904028058052063
193344, -87.70492553710938, 2.063091278076172, 3.938394546508789, 2.0418508052825928, -0.2867935001850128, -0.43398982286453247, -0.025853293016552925, 2.1160225868225098, -2.8636667728424072, 0, 0, 0, 0.0, 0.0, 0.0, 0.0, 2.0422303676605225, -0.3004343807697296, -0.42100879549980164, 0.01472397055476904, 2.940997362136841, 1.8943610191345215
193353, -87.65369415283203, 2.148970365524292, 3.9125192165374756, 2.0422422885894775, -0.29003265500068665, -0.43005651235580444, -0.02299586869776249, 2.097485303878784, -2.844247579574585, 0, 0, 0, 0.0, 0.0, 0.0, 0.0, 2.0422422885894775, -0.29003265500068665, -0.43005651235580444, 0.01353294774889946, 2.982156753540039, 1.8963984251022339
193363, -87.81534576416016, 2.231306791305542, 3.88346529006958, 2.042649269104004, -0.2929653227329254, -0.42645493149757385, -0.019618961960077286, 2.077890157699585, -2.829171895980835, 0, 0, 0, 0.0, 0.0, 0.0, 0.0, 2.042649269104004, -0.2929653227329254, -0.42645493149757385, 0.010898123495280743, 2.9639246463775635, 1.8807733058929443
193373, -87.82259368896484, 2.310053825378418, 3.837324619293213, 2.043025255203247, -0.2936961352825165, -0.4258463978767395, -0.017094699665904045, 2.072300434112549, -2.8217720985412598, 0, 0, 0, 0.0, 0.0, 0.0, 0.0, 2.043025255203247, -0.2936961352825165, -0.4258463978767395, 0.007915863767266273, 2.9561264514923096, 1.8757457733154297
193383, -86.19969940185547, 2.313992500305176, 3.69042706489563, 2.0432450771331787, -0.2865034341812134, -0.4418763518333435, -0.015039052814245224, 2.071165084838867, -2.913968324661255, 0, 0, 0, 0.0, 0.0, 0.0, 0.0, 2.04343318939209, -0.29632988572120667, -0.42248833179473877, 0.004982339218258858, 2.939002752304077, 1.8620095252990723
193393, -86.23382568359375, 2.3800315856933594, 3.6289937496185303, 2.0436620712280273, -0.28903788328170776, -0.43851444125175476, -0.01234081108123064, 2.058838129043579, -2.897061347961426, 0, 0, 0, 0.0, 0.0, 0.0, 0.0, 2.0438365936279297, -0.2987102270126343, -0.41939663887023926, 0.0018686042167246342, 2.9232094287872314, 1.8502352237701416
193403, -86.24385070800781, 2.4375717639923096, 3.556196451187134, 2.044126510620117, -0.29292094707489014, -0.4337650537490845, -0.009326163679361343, 2.036149501800537, -2.8748867511749268, 0, 0, 0, 0.0, 0.0, 0.0, 0.0, 2.044126510620117, -0.29292094707489014, -0.4337650537490845, -0.0005559230921790004, 2.9561028480529785, 1.916369080543518
193413, -86.2701416015625, 2.4758567810058594, 3.4865264892578125, 2.0445384979248047, -0.2962965667247772, -0.429423987865448, -0.006940158549696207, 2.019420862197876, -2.8535654544830322, 0, 0, 0, 0.0, 0.0, 0.0, 0.0, 2.0445384979248047, -0.2962965667247772, -0.429423987865448, -0.003328719874843955, 2.9352471828460693, 1.898763656616211
193423, -86.26100158691406, 2.506788969039917, 3.4080357551574707, 2.044898271560669, -0.2992294132709503, -0.4254467189311981, -0.0052780029363930225, 2.0046753883361816, -2.8352956771850586, 0, 0, 0, 0.0, 0.0, 0.0, 0.0, 2.044898271560669, -0.2992294132709503, -0.4254467189311981, -0.006259857211261988, 2.9163177013397217, 1.8848745822906494
193434, -87.66612243652344, 2.554760217666626, 3.470594882965088, 2.0449085235595703, -0.2878206670284271, -0.4351770877838135, -0.008226929232478142, 2.0904951095581055, -2.8275833129882812, 0, 0, 0, 0.0, 0.0, 0.0, 0.0, 2.0452206134796143, -0.30173465609550476, -0.42175108194351196, -0.008968506008386612, 2.8993377685546875, 1.8733757734298706
193443, -87.64051818847656, 2.577907085418701, 3.3899967670440674, 2.045283555984497, -0.29197075963020325, -0.4300019145011902, -0.006432205904275179, 2.0683157444000244, -2.8053557872772217, 0, 0, 0, 0.0, 0.0, 0.0, 0.0, 2.045564889907837, -0.3054463267326355, -0.4168226420879364, -0.011475909501314163, 2.876455545425415, 1.8552063703536987
193453, -87.64595794677734, 2.5930871963500977, 3.304558038711548, 2.0456132888793945, -0.29557061195373535, -0.42527884244918823, -0.0049338811077177525, 2.0502984523773193, -2.7857697010040283, 0, 0, 0, 0.0, 0.0, 0.0, 0.0, 2.0456132888793945, -0.29557061195373535, -0.42527884244918823, -0.013039063662290573, 2.9172585010528564, 1.8584243059158325
193463, -87.6604232788086, 2.59295392036438, 3.225104808807373, 2.0458784103393555, -0.2986525595188141, -0.42096593976020813, -0.003960894886404276, 2.0352132320404053, -2.769158363342285, 0, 0, 0, 0.0, 0.0, 0.0, 0.0, 2.0458784103393555, -0.2986525595188141, -0.42096593976020813, -0.015407601371407509, 2.8986434936523438, 1.8460830450057983
193473, -86.26297760009766, 2.557957172393799, 3.0899264812469482, 2.0460758209228516, -0.29139572381973267, -0.43630751967430115, -0.003180546686053276, 2.0493009090423584, -2.852313280105591, 0, 0, 0, 0.0, 0.0, 0.0, 0.0, 2.046099901199341, -0.30131930112838745, -0.4170683026313782, -0.017336074262857437, 2.8823275566101074, 1.8370239734649658
193484, -86.26573181152344, 2.5456583499908447, 3.0215132236480713, 2.0462684631347656, -0.293854296207428, -0.43244853615760803, -0.0027496598195284605, 2.038973093032837, -2.8385932445526123, 0, 0, 0, 0.0, 0.0, 0.0, 0.0, 2.04626727104187, -0.30356308817863464, -0.4135177731513977, -0.01889205165207386, 2.8681800365448, 1.830485463142395
193493, -86.27926635742188, 2.5373599529266357, 2.942964553833008, 2.0464274883270264, -0.29585880041122437, -0.42891165614128113, -0.0026419791392982006, 2.033764362335205, -2.8246676921844482, 0, 0, 0, 0.0, 0.0, 0.0, 0.0, 2.046431303024292, -0.3054599463939667, -0.41028690338134766, -0.020715957507491112, 2.855848550796509, 1.8262494802474976
193503, -86.28926086425781, 2.5036556720733643, 2.8702125549316406, 2.0465786457061768, -0.2991549074649811, -0.42413756251335144, -0.0024868720211088657, 2.018611431121826, -2.8073830604553223, 0, 0, 0, 0.0, 0.0, 0.0, 0.0, 2.0465786457061768, -0.2991549074649811, -0.42413756251335144, -0.02211957983672619, 2.890714168548584, 1.8972424268722534
193513, -87.60520935058594, 2.523608446121216, 2.9244232177734375, 2.0466737747192383, -0.30184227228164673, -0.4198237657546997, -0.0029153439681977034, 2.0085792541503906, -2.791628837585449, 0, 0, 0, 0.0, 0.0, 0.0, 0.0, 2.0466737747192383, -0.30184227228164673, -0.4198237657546997, -0.02345169335603714, 2.8746960163116455, 1.8876466751098633
193523, -87.5948257446289, 2.4820892810821533, 2.85162091255188, 2.0467193126678467, -0.30405038595199585, -0.4159492254257202, -0.0035817043390125036, 2.002332925796509, -2.7780237197875977, 0, 0, 0, 0.0, 0.0, 0.0, 0.0, 2.0467193126678467, -0.30405038595199585, -0.4159492254257202, -0.024360449984669685, 2.8610663414001465, 1.8816267251968384
193534, -86.29436492919922, 2.3779938220977783, 2.6715385913848877, 2.0465962886810303, -0.2925909161567688, -0.4256967306137085, -0.0065696826204657555, 2.086125612258911, -2.7767632007598877, 0, 0, 0, 0.0, 0.0, 0.0, 0.0, 2.0467073917388916, -0.30579209327697754, -0.41249752044677734, -0.024882571771740913, 2.849705696105957, 1.8782466650009155
193543, -87.63042449951172, 2.384570598602295, 2.732349157333374, 2.0465660095214844, -0.29215505719184875, -0.42520710825920105, -0.007431306876242161, 2.092756986618042, -2.7762508392333984, 0, 0, 0, 0.0, 0.0, 0.0, 0.0, 2.0465660095214844, -0.29215505719184875, -0.42520710825920105, -0.02533590979874134, 2.909538745880127, 1.9029570817947388
193553, -87.626953125, 2.32909893989563, 2.681187868118286, 2.0465023517608643, -0.2937052547931671, -0.42200973629951477, -0.008455019444227219, 2.0900793075561523, -2.7669196128845215, 0, 0, 0, 0.0, 0.0, 0.0, 0.0, 2.0465023517608643, -0.2937052547931671, -0.42200973629951477, -0.02533949911594391, 2.8992996215820312, 1.9020559787750244
193563, -87.64989471435547, 2.2728090286254883, 2.6365771293640137, 2.046466827392578, -0.29647910594940186, -0.41761311888694763, -0.009156335145235062, 2.0799710750579834, -2.7525694370269775, 0, 0, 0, 0.0, 0.0, 0.0, 0.0, 2.046466827392578, -0.29647910594940186, -0.41761311888694763, -0.02519872412085533, 2.8838014602661133, 1.8937010765075684
193573, -86.2587661743164, 2.212313413619995, 2.53121018409729, 2.04636549949646, -0.2987167537212372, -0.4137139618396759, -0.010463741607964039, 2.0730113983154297, -2.740692138671875, 0, 0, 0, 0.0, 0.0, 0.0, 0.0, 2.04636549949646, -0.2987167537212372, -0.4137139618396759, -0.024760356172919273, 2.871105432510376, 1.8881378173828125
193583, -86.26468658447266, 2.1509287357330322, 2.49286150932312, 2.046238422393799, -0.3005219101905823, -0.41025233268737793, -0.011729007586836815, 2.068472146987915, -2.7308993339538574, 0, 0, 0, 0.0, 0.0, 0.0, 0.0, 2.046238422393799, -0.3005219101905823, -0.41025233268737793, -0.02430129237473011, 2.8607752323150635, 1.884661078453064
193593, -86.29479217529297, 2.0734126567840576, 2.464707612991333, 2.0461573600769043, -0.2922895550727844, -0.4257363975048065, -0.012127457186579704, 2.084925413131714, -2.819732666015625, 0, 0, 0, 0.0, 0.0, 0.0, 0.0, 2.0461573600769043, -0.2922895550727844, -0.4257363975048065, -0.024279898032546043, 2.9043588638305664, 1.9652265310287476
193603, -86.28184509277344, 2.000108003616333, 2.4480509757995605, 2.045985698699951, -0.29511329531669617, -0.4212518334388733, -0.013794372789561749, 2.0729446411132812, -2.8061954975128174, 0, 0, 0, 0.0, 0.0, 0.0, 0.0, 2.045985698699951, -0.29511329531669617, -0.4212518334388733, -0.02298932522535324, 2.8896825313568115, 1.9548084735870361
193613, -86.25841522216797, 1.927283525466919, 2.4362504482269287, 2.045790195465088, -0.29738882184028625, -0.4172818958759308, -0.015529644675552845, 2.0661773681640625, -2.793541431427002, 0, 0, 0, 0.0, 0.0, 0.0, 0.0, 2.045790195465088, -0.29738882184028625, -0.4172818958759308, -0.02158474177122116, 2.877570390701294, 1.9474022388458252
193623, -87.64373779296875, 1.917380452156067, 2.524190902709961, 2.0455241203308105, -0.28554511070251465, -0.42695578932762146, -0.018163947388529778, 2.1525015830993652, -2.7893738746643066, 0, 0, 0, 0.0, 0.0, 0.0, 0.0, 2.0455667972564697, -0.2991634011268616, -0.4138118326663971, -0.01975284330546856, 2.867769241333008, 1.9426090717315674
193633, -87.6200942993164, 1.8412628173828125, 2.5233330726623535, 2.0452933311462402, -0.28715798258781433, -0.42366960644721985, -0.019676806405186653, 2.148679256439209, -2.780017614364624, 0, 0, 0, 0.0, 0.0, 0.0, 0.0, 2.045323610305786, -0.3005523085594177, -0.41076600551605225, -0.01765541359782219, 2.8596811294555664, 1.9393879175186157
193643, -87.5970687866211, 1.7631607055664062, 2.5338776111602783, 2.044989824295044, -0.2862297594547272, -0.42361101508140564, -0.021879222244024277, 2.1565656661987305, -2.7818548679351807, 0, 0, 0, 0.0, 0.0, 0.0, 0.0, 2.0450172424316406, -0.2996349334716797, -0.41070905327796936, -0.015456064604222775, 2.862480878829956, 1.9462112188339233
193653, -87.61255645751953, 1.6859956979751587, 2.5444915294647217, 2.0447216033935547, -0.28745004534721375, -0.4208281636238098, -0.02351408638060093, 2.1550097465515137, -2.774272918701172, 0, 0, 0, 0.0, 0.0, 0.0, 0.0, 2.0450172424316406, -0.2996349334716797, -0.41070905327796936, -0.015456064604222775, 2.862480878829956, 1.9462112188339233
193663, -87.6711654663086, 1.6123368740081787, 2.571554660797119, 2.0444226264953613, -0.2883724272251129, -0.4184686541557312, -0.02530641481280327, 2.1535143852233887, -2.7693514823913574, 0, 0, 0, 0.0, 0.0, 0.0, 0.0, 2.0444226264953613, -0.2883724272251129, -0.4184686541557312, -0.011362208053469658, 2.9081146717071533, 1.9622344970703125
193673, -87.67174530029297, 1.5392999649047852, 2.607224225997925, 2.044455051422119, -0.3014264702796936, -0.40596863627433777, -0.02487594448029995, 2.060504198074341, -2.768857955932617, 0, 0, 0, 0.0, 0.0, 0.0, 0.0, 2.044142246246338, -0.2906032204627991, -0.4149293303489685, -0.008567131124436855, 2.896629810333252, 1.9534587860107422
193693, -86.19000244140625, 1.4117592573165894, 2.5784852504730225, 2.0435736179351807, -0.2840974032878876, -0.4277391731739044, -0.03029557131230831, 2.144801616668701, -2.843799352645874, 0, 0, 0, 0.0, 0.0, 0.0, 0.0, 2.0438520908355713, -0.29239097237586975, -0.411795437335968, -0.005622725002467632, 2.8871583938598633, 1.94570791721344
193703, -86.18158721923828, 1.3454405069351196, 2.632463216781616, 2.0432252883911133, -0.28339409828186035, -0.42800286412239075, -0.03256583958864212, 2.14729642868042, -2.8475148677825928, 0, 0, 0, 0.0, 0.0, 0.0, 0.0, 2.0438520908355713, -0.29239097237586975, -0.411795437335968, -0.005622725002467632, 2.8871583938598633, 1.94570791721344
193713, -86.20751190185547, 1.2936657667160034, 2.698488473892212, 2.0432066917419434, -0.2932601571083069, -0.40932220220565796, -0.03330856189131737, 2.1311447620391846, -2.7454094886779785, 0, 0, 0, 0.0, 0.0, 0.0, 0.0, 2.04286527633667, -0.2827456295490265, -0.4282766878604889, 0.002052687108516693, 2.9366204738616943, 2.0302047729492188
193724, -87.66131591796875, 1.2899458408355713, 2.832263708114624, 2.0429277420043945, -0.30516892671585083, -0.39773502945899963, -0.03500590845942497, 2.038749933242798, -2.750744581222534, 0, 0, 0, 0.0, 0.0, 0.0, 0.0, 2.04286527633667, -0.2827456295490265, -0.4282766878604889, 0.002052687108516693, 2.9366204738616943, 2.0302047729492188
193733, -87.64801788330078, 1.24740469455719, 2.905339002609253, 2.0425913333892822, -0.29405897855758667, -0.40730851888656616, -0.03720494732260704, 2.125668525695801, -2.741508722305298, 0, 0, 0, 0.0, 0.0, 0.0, 0.0, 2.04286527633667, -0.2827456295490265, -0.4282766878604889, 0.002052687108516693, 2.9366204738616943, 2.0302047729492188
193743, -87.65464782714844, 1.2184971570968628, 2.9811160564422607, 2.042273998260498, -0.29330652952194214, -0.4078730344772339, -0.03891656547784805, 2.1270766258239746, -2.745082139968872, 0, 0, 0, 0.0, 0.0, 0.0, 0.0, 2.04286527633667, -0.2827456295490265, -0.4282766878604889, 0.002052687108516693, 2.9366204738616943, 2.0302047729492188
193753, -87.63716888427734, 1.2004553079605103, 3.056135416030884, 2.041987895965576, -0.29265493154525757, -0.40842360258102417, -0.03995988890528679, 2.128053903579712, -2.748018264770508, 0, 0, 0, 0.0, 0.0, 0.0, 0.0, 2.04286527633667, -0.2827456295490265, -0.4282766878604889, 0.002052687108516693, 2.9366204738616943, 2.0302047729492188
193763, -87.65337371826172, 1.1906468868255615, 3.135723114013672, 2.041724681854248, -0.29211628437042236, -0.4089427888393402, -0.04115116596221924, 2.127609968185425, -2.7506470680236816, 0, 0, 0, 0.0, 0.0, 0.0, 0.0, 2.041724681854248, -0.29211628437042236, -0.4089427888393402, 0.013675344176590443, 2.887164831161499, 1.9387154579162598
193773, -87.6145248413086, 1.1928714513778687, 3.2171010971069336, 2.0413825511932373, -0.28178825974464417, -0.42802801728248596, -0.04272592440247536, 2.143454074859619, -2.8555123805999756, 0, 0, 0, 0.0, 0.0, 0.0, 0.0, 2.041494607925415, -0.2917337119579315, -0.4094458520412445, 0.015641437843441963, 2.889545202255249, 1.9369027614593506
193784, -87.6343994140625, 1.1997584104537964, 3.2951974868774414, 2.0411481857299805, -0.2814468443393707, -0.4284963011741638, -0.043591734021902084, 2.142744779586792, -2.8563358783721924, 0, 0, 0, 0.0, 0.0, 0.0, 0.0, 2.0412776470184326, -0.29149219393730164, -0.40991973876953125, 0.017526118084788322, 2.891375780105591, 1.9342926740646362
193803, -86.15115356445312, 1.2137603759765625, 3.301868200302124, 2.0410425662994385, -0.2850690484046936, -0.4245591163635254, -0.043182600289583206, 2.1188721656799316, -2.842257022857666, 0, 0, 0, 0.0, 0.0, 0.0, 0.0, 2.0412776470184326, -0.29149219393730164, -0.40991973876953125, 0.017526118084788322, 2.891375780105591, 1.9342926740646362
193813, -86.15615844726562, 1.2376989126205444, 3.3752684593200684, 2.0408949851989746, -0.29093194007873535, -0.4177780747413635, -0.04204445332288742, 2.0823230743408203, -2.817111015319824, 0, 0, 0, 0.0, 0.0, 0.0, 0.0, 2.0408949851989746, -0.29093194007873535, -0.4177780747413635, 0.02178318426012993, 2.9020421504974365, 1.9625694751739502
193823, -86.17699432373047, 1.2720736265182495, 3.4466209411621094, 2.0405726432800293, -0.2768295407295227, -0.4305567145347595, -0.044187113642692566, 2.180291175842285, -2.817582130432129, 0, 0, 0, 0.0, 0.0, 0.0, 0.0, 2.0407965183258057, -0.291389524936676, -0.41761454939842224, 0.023021893575787544, 2.9002606868743896, 1.9570881128311157
193833, -87.69405364990234, 1.3147904872894287, 3.5926246643066406, 2.0405430793762207, -0.27951884269714355, -0.4275563359260559, -0.04349277913570404, 2.164323568344116, -2.807323932647705, 0, 0, 0, 0.0, 0.0, 0.0, 0.0, 2.0407826900482178, -0.29376891255378723, -0.4147912561893463, 0.02390419878065586, 2.88889479637146, 1.943959355354309
193843, -87.6896743774414, 1.3669648170471191, 3.6594700813293457, 2.040544033050537, -0.2818489670753479, -0.4248966574668884, -0.04270901903510094, 2.1500375270843506, -2.7984774112701416, 0, 0, 0, 0.0, 0.0, 0.0, 0.0, 2.0407826900482178, -0.29376891255378723, -0.4147912561893463, 0.02390419878065586, 2.88889479637146, 1.943959355354309
193853, -87.70951080322266, 1.4248652458190918, 3.7211990356445312, 2.040623664855957, -0.28554850816726685, -0.42088431119918823, -0.041389159858226776, 2.128296375274658, -2.782219886779785, 0, 0, 0, 0.0, 0.0, 0.0, 0.0, 2.0407826900482178, -0.29376891255378723, -0.4147912561893463, 0.02390419878065586, 2.88889479637146, 1.943959355354309
193863, -87.70343780517578, 1.4913312196731567, 3.7643492221832275, 2.0404930114746094, -0.27839982509613037, -0.43672147393226624, -0.041584860533475876, 2.12890362739563, -2.874614715576172, 0, 0, 0, 0.0, 0.0, 0.0, 0.0, 2.0407826900482178, -0.29376891255378723, -0.4147912561893463, 0.02390419878065586, 2.88889479637146, 1.943959355354309
193873, -86.12787628173828, 1.5015169382095337, 3.670628070831299, 2.040637254714966, -0.2815384268760681, -0.43318256735801697, -0.039475444704294205, 2.1118338108062744, -2.8601624965667725, 0, 0, 0, 0.0, 0.0, 0.0, 0.0, 2.0408730506896973, -0.29172107577323914, -0.41403377056121826, 0.02409692294895649, 2.891730785369873, 1.8997504711151123
193883, -86.13455963134766, 1.5682425498962402, 3.709599733352661, 2.0407943725585938, -0.28428566455841064, -0.4299464225769043, -0.03755023702979088, 2.0966885089874268, -2.847385883331299, 0, 0, 0, 0.0, 0.0, 0.0, 0.0, 2.0408730506896973, -0.29172107577323914, -0.41403377056121826, 0.02409692294895649, 2.891730785369873, 1.8997504711151123
193893, -86.14640808105469, 1.6405532360076904, 3.7413136959075928, 2.0409610271453857, -0.28669485449790955, -0.42699337005615234, -0.03585891053080559, 2.0836524963378906, -2.835745096206665, 0, 0, 0, 0.0, 0.0, 0.0, 0.0, 2.0408730506896973, -0.29172107577323914, -0.41403377056121826, 0.02409692294895649, 2.891730785369873, 1.8997504711151123
193903, -86.17558288574219, 1.7171400785446167, 3.761730670928955, 2.041213274002075, -0.29054298996925354, -0.42278334498405457, -0.033189062029123306, 2.05869722366333, -2.8207056522369385, 0, 0, 0, 0.0, 0.0, 0.0, 0.0, 2.0408730506896973, -0.29172107577323914, -0.41403377056121826, 0.02409692294895649, 2.891730785369873, 1.8997504711151123
193913, -87.67705535888672, 1.7781256437301636, 3.8767895698547363, 2.041465997695923, -0.29386165738105774, -0.41898274421691895, -0.030783308669924736, 2.040860652923584, -2.8051962852478027, 0, 0, 0, 0.0, 0.0, 0.0, 0.0, 2.041465997695923, -0.29386165738105774, -0.41898274421691895, 0.020177332684397697, 2.8874876499176025, 1.9228209257125854
193923, -86.18096923828125, 1.8672276735305786, 3.7601752281188965, 2.041741371154785, -0.29671379923820496, -0.4154914617538452, -0.028197316452860832, 2.026393175125122, -2.790891647338867, 0, 0, 0, 0.0, 0.0, 0.0, 0.0, 2.041741371154785, -0.29671379923820496, -0.4154914617538452, 0.01838616468012333, 2.8730297088623047, 1.9082850217819214
193933, -87.72985076904297, 1.9335331916809082, 3.8733761310577393, 2.041646718978882, -0.28308048844337463, -0.42799416184425354, -0.030376683920621872, 2.1244468688964844, -2.7914278507232666, 0, 0, 0, 0.0, 0.0, 0.0, 0.0, 2.0420138835906982, -0.29733777046203613, -0.4149494171142578, 0.01674068532884121, 2.869182825088501, 1.904491662979126
193943, -87.7642822265625, 2.0103652477264404, 3.8607800006866455, 2.0419507026672363, -0.28580302000045776, -0.4246482849121094, -0.027654921635985374, 2.111362934112549, -2.7782504558563232, 0, 0, 0, 0.0, 0.0, 0.0, 0.0, 2.0420138835906982, -0.29733777046203613, -0.4149494171142578, 0.01674068532884121, 2.869182825088501, 1.904491662979126
193953, -87.75534057617188, 2.090810775756836, 3.830077886581421, 2.042314052581787, -0.28990429639816284, -0.4200476408004761, -0.024487316608428955, 2.088993787765503, -2.759707450866699, 0, 0, 0, 0.0, 0.0, 0.0, 0.0, 2.042314052581787, -0.28990429639816284, -0.4200476408004761, 0.013824752531945705, 2.8970189094543457, 1.8941010236740112
193963, -87.74803924560547, 2.1624460220336914, 3.7931902408599854, 2.042680263519287, -0.2934779226779938, -0.41583406925201416, -0.021513665094971657, 2.0673208236694336, -2.7447400093078613, 0, 0, 0, 0.0, 0.0, 0.0, 0.0, 2.042680263519287, -0.2934779226779938, -0.41583406925201416, 0.011396849527955055, 2.878662109375, 1.876459002494812
193973, -86.22179412841797, 2.1654105186462402, 3.662339925765991, 2.0430514812469482, -0.2966074049472809, -0.41203027963638306, -0.018671391531825066, 2.049459934234619, -2.7310826778411865, 0, 0, 0, 0.0, 0.0, 0.0, 0.0, 2.0430514812469482, -0.2966074049472809, -0.41203027963638306, 0.009005719795823097, 2.8622899055480957, 1.8619096279144287
193983, -86.27558898925781, 2.2238335609436035, 3.621718168258667, 2.0432050228118896, -0.28947630524635315, -0.42752084136009216, -0.017556678503751755, 2.0565717220306396, -2.8199732303619385, 0, 0, 0, 0.0, 0.0, 0.0, 0.0, 2.043388605117798, -0.29941150546073914, -0.40856388211250305, 0.006588481832295656, 2.8476650714874268, 1.8494828939437866
193993, -86.29710388183594, 2.2769014835357666, 3.5724689960479736, 2.0435519218444824, -0.2920985817909241, -0.4240824580192566, -0.015327262692153454, 2.0432796478271484, -2.807520627975464, 0, 0, 0, 0.0, 0.0, 0.0, 0.0, 2.043712615966797, -0.30183181166648865, -0.4054214358329773, 0.004052677191793919, 2.8347558975219727, 1.839395523071289
194003, -86.29354858398438, 2.3282861709594727, 3.512800455093384, 2.0439293384552, -0.29596149921417236, -0.41934916377067566, -0.013016978278756142, 2.0233139991760254, -2.78837251663208, 0, 0, 0, 0.0, 0.0, 0.0, 0.0, 2.0439293384552, -0.29596149921417236, -0.41934916377067566, 0.0019065942615270615, 2.8695638179779053, 1.9064728021621704
194013, -87.69071960449219, 2.37738037109375, 3.5856587886810303, 2.0439445972442627, -0.28488609194755554, -0.4284122586250305, -0.015156696550548077, 2.1046175956726074, -2.7807884216308594, 0, 0, 0, 0.0, 0.0, 0.0, 0.0, 2.044278383255005, -0.2992839515209198, -0.41503286361694336, -0.0004668938636314124, 2.8523495197296143, 1.8908920288085938
194023, -87.66889190673828, 2.3987009525299072, 3.395491123199463, 2.0442678928375244, -0.2881542146205902, -0.42432427406311035, -0.013542236760258675, 2.0899243354797363, -2.765894889831543, 0, 0, 0, 0.0, 0.0, 0.0, 0.0, 2.04457950592041, -0.30209246277809143, -0.411123663187027, -0.003013590117916465, 2.8372292518615723, 1.8791269063949585
194033, -87.64649963378906, 2.438838481903076, 3.460878372192383, 2.0448389053344727, -0.30443069338798523, -0.40756604075431824, -0.008645732887089252, 1.98761785030365, -2.7427620887756348, 0, 0, 0, 0.0, 0.0, 0.0, 0.0, 2.0448389053344727, -0.30443069338798523, -0.40756604075431824, -0.005457037128508091, 2.824199914932251, 1.8701214790344238
