timeTick, roll, pitch, yaw, gyroX, gyroY, gyroZ, stateX, stateY, stateZ, stateVX, stateVY, stateVZ, stateROLL, statePITCH, stateYAW, whisker1, whisker2, whisker3, motor1, motor2, motor3, motor4, laserHeight, flowX, flowY, ext_pos_X,ext_pos_Y,ext_pos_Z, kalX, kalY, kalZ, kalPX, kalPY, kalPZ
379667, -0.027278391644358635, 0.1720421463251114, 0.2439793348312378, 0, 0, 0, 0, 0, 0, 0, 0, 0, 0, 0, 0, 0, 0, 0, 0, 0, 0, 0, 0, 0, 0, 0, 0, 0, 0, 0, 0, 0, 0, 0
379677, 0.010065246373414993, 0.14343179762363434, 0.24632106721401215, 0.15668871998786926, -0.054905857890844345, 0.15725842118263245, 0, 0, 0, 0, 0, 0, 0, 0, 0, 0, 0, 0, 0.0, 0.0, 0.0, 0.0, 18.0, 4.0, -4.0, 0.0, 0.0, 0.0, -0.01939176768064499, -0.041470710188150406, 0.01700643263757229, -0.0009010836365632713, -0.0011317249154672027, -0.004207521677017212
379687, 0.010588757693767548, 0.1420094519853592, 0.246872216463089, -0.07535786926746368, -0.07352194935083389, -0.05972918123006821, 0, 0, 0, 0, 0, 0, 0, 0, 0, 0, 0, 0, 0.0, 0.0, 0.0, 0.0, 18.0, 0.0, 1.0, 0.0, 0.0, 0.0, -0.019390247762203217, -0.04167960211634636, 0.01696273870766163, -0.0008881087996996939, -0.0022902581840753555, -0.004440646152943373
379697, 0.019919810816645622, 0.14295066893100739, 0.2478323131799698, 0.10054060816764832, -0.2135298103094101, -0.020091766491532326, 0, 0, 0, 0, 0, 0, 0, 0, 0, 0, 0, 0, 0.0, 0.0, 0.0, 0.0, 15.0, 1.0, 0.0, 0.0, 0.0, 0.0, -0.019004590809345245, -0.040606845170259476, 0.0161503404378891, 0.0013914010487496853, 0.003370581893250346, -0.008819712325930595
379707, -0.027422193437814713, 0.12280523031949997, 0.23818017542362213, 0.030451713129878044, 0.0594513937830925, -0.13923010230064392, 0, 0, 0, 0, 0, 0, 0, 0, 0, 0, 0, 0, 0.0, 0.0, 0.0, 0.0, 15.0, -5.0, -2.0, 0.0, 0.0, 0.0, -0.019378021359443665, -0.04164982587099075, 0.016069304198026657, -0.0009942703181877732, -0.0022261636331677437, -0.008840843103826046
379717, 0.020326031371951103, 0.1449565291404724, 0.24768006801605225, 0.1770859956741333, -0.33039233088493347, 0.06089828163385391, 0, 0, 0, 0, 0, 0, 0, 0, 0, 0, 0, 0, 0.0, 0.0, 0.0, 0.0, 15.0, 5.0, 2.0, 0.0, 0.0, 0.0, -0.019573865458369255, -0.04186780005693436, 0.01597960665822029, -0.002110010478645563, -0.0029840716160833836, -0.008919492363929749
379727, 0.030095575377345085, 0.15469549596309662, 0.2494782954454422, 0.21512949466705322, 0.040178682655096054, 0.04793005436658859, 0, 0, 0, 0, 0, 0, 0, 0, 0, 0, 0, 0, 0.0, 0.0, 0.0, 0.0, 15.0, 1.0, 1.0, 0.0, 0.0, 0.0, -0.01959468424320221, -0.04189754277467728, 0.015889456495642662, -0.002128290245309472, -0.0029551852494478226, -0.009095919318497181
379737, 0.02908487804234028, 0.15681229531764984, 0.24892674386501312, -0.21429146826267242, -0.2506294846534729, 0.05477151647210121, 0, 0, 0, 0, 0, 0, 0, 0, 0, 0, 0, 0, 0.0, 0.0, 0.0, 0.0, 15.0, 0.0, 0.0, 0.0, 0.0, 0.0, -0.0194160845130682, -0.04058125987648964, 0.015881044790148735, -0.0009360332624055445, 0.004126823507249355, -0.008775903843343258
379747, -0.02994055673480034, 0.1445714384317398, 0.23907391726970673, 0.10368389636278152, -0.2291981428861618, 0.07795131206512451, 0, 0, 0, 0, 0, 0, 0, 0, 0, 0, 0, 0, 0.0, 0.0, 0.0, 0.0, 16.0, -6.0, -1.0, 0.0, 0.0, 0.0, -0.019380591809749603, -0.041883938014507294, 0.015800967812538147, -0.000979629228822887, -0.0033518087584525347, -0.00877345446497202
379757, 0.056420546025037766, 0.10544519871473312, 0.24812838435173035, -0.14230948686599731, 0.18338580429553986, 0.029027225449681282, 0, 0, 0, 0, 0, 0, 0, 0, 0, 0, 0, 0, 0.0, 0.0, 0.0, 0.0, 16.0, 6.0, 0.0, 0.0, 0.0, 0.0, -0.018535060808062553, -0.04251578450202942, 0.015710359439253807, 0.0038686981424689293, -0.0069047994911670685, -0.008819629438221455
379767, 0.05794283375144005, 0.10680252313613892, 0.2472461313009262, 0.1565762162208557, -0.2835201621055603, -0.09155654907226562, 0, 0, 0, 0, 0, 0, 0, 0, 0, 0, 0, 0, 0.0, 0.0, 0.0, 0.0, 16.0, 3.0, -4.0, 0.0, 0.0, 0.0, -0.019180769100785255, -0.04167121648788452, 0.015638362616300583, 0.00015959130541887134, -0.002004704438149929, -0.008766263723373413
379777, 0.01761632040143013, 0.13910341262817383, 0.24385853111743927, 0.01786719262599945, -0.2958855926990509, 0.03706953674554825, 0, 0, 0, 0, 0, 0, 0, 0, 0, 0, 0, 0, 0.0, 0.0, 0.0, 0.0, 16.0, -4.0, 3.0, 0.0, 0.0, 0.0, -0.019193550571799278, -0.04145656153559685, 0.01555037684738636, 5.033501292928122e-05, -0.0007275861571542919, -0.008968849666416645
379787, 0.00776432640850544, 0.1411951184272766, 0.2416008561849594, -0.056455742567777634, -0.4668958783149719, -0.18549881875514984, 0, 0, 0, 0, 0, 0, 0, 0, 0, 0, 0, 0, 0.0, 0.0, 0.0, 0.0, 19.0, -1.0, 0.0, 0.0, 0.0, 0.0, -0.0186015572398901, -0.040805429220199585, 0.0168698038905859, 0.0033250711858272552, 0.002705681836232543, -0.0016013628337532282
379797, -0.020442737266421318, 0.11515618115663528, 0.23402942717075348, 0.08419054746627808, -0.35276368260383606, 0.06842844188213348, 0, 0, 0, 0, 0, 0, 0, 0, 0, 0, 0, 0, 0.0, 0.0, 0.0, 0.0, 19.0, -3.0, -3.0, 0.0, 0.0, 0.0, -0.019383033737540245, -0.042097099125385284, 0.016863124445080757, -0.0014032154576852918, -0.004308750852942467, -0.0018274671165272593
379807, 0.0374019593000412, 0.15228956937789917, 0.24546431005001068, 0.09143888205289841, 0.19480599462985992, -0.3099518120288849, 0, 0, 0, 0, 0, 0, 0, 0, 0, 0, 0, 0, 0.0, 0.0, 0.0, 0.0, 19.0, 6.0, 4.0, 0.0, 0.0, 0.0, -0.019593650475144386, -0.0418885163962841, 0.01684415526688099, -0.002305376809090376, -0.0030904472805559635, -0.0022081462666392326
379817, 0.026330232620239258, 0.160294309258461, 0.24398432672023773, 0.06408066302537918, 0.045038290321826935, -0.010440743528306484, 0, 0, 0, 0, 0, 0, 0, 0, 0, 0, 0, 0, 0.0, 0.0, 0.0, 0.0, 19.0, -1.0, 1.0, 0.0, 0.0, 0.0, -0.01940210908651352, -0.0416763536632061, 0.016823451966047287, -0.0010214817011728883, -0.0019429964013397694, -0.0023559837136417627
379827, 0.01762482523918152, 0.15223947167396545, 0.24170133471488953, 0.25621297955513, -0.32063254714012146, 0.04937288537621498, 0, 0, 0, 0, 0, 0, 0, 0, 0, 0, 0, 0, 0.0, 0.0, 0.0, 0.0, 19.0, -1.0, -1.0, 0.0, 0.0, 0.0, -0.01859177276492119, -0.04186941683292389, 0.01687702164053917, 0.0036067510955035686, -0.003025959711521864, -0.0018924027681350708
379837, 0.0258571058511734, 0.11605837941169739, 0.23934806883335114, -0.03616100922226906, -0.26901471614837646, 0.13631969690322876, 0, 0, 0, 0, 0, 0, 0, 0, 0, 0, 0, 0, 0.0, 0.0, 0.0, 0.0, 17.0, 1.0, -4.0, 0.0, 0.0, 0.0, -0.019198205322027206, -0.04167220741510391, 0.016862379387021065, 0.00013011855480726808, -0.0017227192874997854, -0.0019031038973480463
379847, 0.015396911650896072, 0.14527006447315216, 0.24040447175502777, -0.03330089896917343, 0.008204269222915173, -0.08889403194189072, 0, 0, 0, 0, 0, 0, 0, 0, 0, 0, 0, 0, 0.0, 0.0, 0.0, 0.0, 17.0, -1.0, 3.0, 0.0, 0.0, 0.0, -0.019196253269910812, -0.04168914631009102, 0.016843430697917938, 0.00023628211056347936, -0.0016678572865203023, -0.0018864780431613326
379857, 0.01791280508041382, 0.14682665467262268, 0.24094630777835846, 0.23486049473285675, -0.2908210754394531, 0.07508201897144318, 0, 0, 0, 0, 0, 0, 0, 0, 0, 0, 0, 0, 0.0, 0.0, 0.0, 0.0, 17.0, 0.0, 0.0, 0.0, 0.0, 0.0, -0.019190886989235878, -0.04190835356712341, 0.01682411879301071, 0.00038207657053135335, -0.0026628500781953335, -0.0019115898758172989
379867, 0.02652715891599655, 0.1461913138628006, 0.24170461297035217, -0.0671156644821167, 0.07782717794179916, -0.01984088309109211, 0, 0, 0, 0, 0, 0, 0, 0, 0, 0, 0, 0, 0.0, 0.0, 0.0, 0.0, 17.0, 1.0, 0.0, 0.0, 0.0, 0.0, -0.01920260116457939, -0.0414719432592392, 0.01680745743215084, 0.0003595591988414526, -0.00019708150648511946, -0.001783454092219472
379877, 0.00594910467043519, 0.14714281260967255, 0.2387816160917282, 0.1324535459280014, -0.08546102792024612, -0.05970732867717743, 0, 0, 0, 0, 0, 0, 0, 0, 0, 0, 0, 0, 0.0, 0.0, 0.0, 0.0, 15.0, -2.0, 0.0, 0.0, 0.0, 0.0, -0.018341664224863052, -0.04232504218816757, 0.016079986467957497, 0.004905925132334232, -0.0049349116161465645, -0.005688140634447336
379887, 0.0451703704893589, 0.10955784469842911, 0.2401665598154068, 0.06466437131166458, -0.26564499735832214, -0.12055186927318573, 0, 0, 0, 0, 0, 0, 0, 0, 0, 0, 0, 0, 0.0, 0.0, 0.0, 0.0, 15.0, 4.0, -4.0, 0.0, 0.0, 0.0, -0.018338777124881744, -0.042537666857242584, 0.016022052615880966, 0.004657829646021128, -0.005893641151487827, -0.005774892866611481
379897, 0.05231008306145668, 0.11366882920265198, 0.2415432184934616, 0.013473885133862495, 0.01812567748129368, -0.008292957209050655, 0, 0, 0, 0, 0, 0, 0, 0, 0, 0, 0, 0, 0.0, 0.0, 0.0, 0.0, 15.0, 1.0, 0.0, 0.0, 0.0, 0.0, -0.019399529322981834, -0.04169577732682228, 0.01597946137189865, -0.0015132225817069411, -0.0009935960406437516, -0.00575740821659565
379907, 0.011506007984280586, 0.1648278832435608, 0.2405042052268982, -0.05097312107682228, -0.3305398225784302, 0.057923972606658936, 0, 0, 0, 0, 0, 0, 0, 0, 0, 0, 0, 0, 0.0, 0.0, 0.0, 0.0, 15.0, -4.0, 5.0, 0.0, 0.0, 0.0, -0.019415097311139107, -0.04170626401901245, 0.01592039130628109, -0.0016429387032985687, -0.0010930090211331844, -0.006046795751899481
379917, 0.011396856047213078, 0.16592955589294434, 0.24044831097126007, -0.10913403332233429, 0.1311502456665039, -0.01589776948094368, 0, 0, 0, 0, 0, 0, 0, 0, 0, 0, 0, 0, 0.0, 0.0, 0.0, 0.0, 15.0, 0.0, 0.0, 0.0, 0.0, 0.0, -0.01858394406735897, -0.039658430963754654, 0.015534808859229088, 0.003304347163066268, 0.010029549710452557, -0.008126970380544662
379927, -0.07743674516677856, 0.12662699818611145, 0.2242603600025177, 0.11895354092121124, 0.08432472497224808, -0.15132983028888702, 0, 0, 0, 0, 0, 0, 0, 0, 0, 0, 0, 0, 0.0, 0.0, 0.0, 0.0, 15.0, -9.0, -4.0, 0.0, 0.0, 0.0, -0.018743079155683517, -0.04258538782596588, 0.015498735010623932, 0.0019255165243521333, -0.006013958249241114, -0.008204133249819279
379937, 0.05719555541872978, 0.14006388187408447, 0.24274669587612152, 0.22154493629932404, -0.29520052671432495, 0.0946674793958664, 0, 0, 0, 0, 0, 0, 0, 0, 0, 0, 0, 0, 0.0, 0.0, 0.0, 0.0, 15.0, 13.0, 1.0, 0.0, 0.0, 0.0, -0.018986590206623077, -0.04147525131702423, 0.015426254831254482, 0.00041353143751621246, 0.00025313079822808504, -0.008378221653401852
379947, 0.006894212681800127, 0.15139853954315186, 0.23741735517978668, 0.15547309815883636, -0.24177969992160797, -0.05054974555969238, 0, 0, 0, 0, 0, 0, 0, 0, 0, 0, 0, 0, 0.0, 0.0, 0.0, 0.0, 15.0, -5.0, 1.0, 0.0, 0.0, 0.0, -0.018972322344779968, -0.04192059487104416, 0.015334833413362503, 0.00019657595839817077, -0.0022856590803712606, -0.008333638310432434
379957, 0.026335861533880234, 0.1502189189195633, 0.23917438089847565, -0.048565275967121124, 0.17427700757980347, -0.05279349535703659, 0, 0, 0, 0, 0, 0, 0, 0, 0, 0, 0, 0, 0.0, 0.0, 0.0, 0.0, 15.0, 2.0, 0.0, 0.0, 0.0, 0.0, -0.01918726973235607, -0.04192083701491356, 0.015251378528773785, -0.0012536805588752031, -0.0023159696720540524, -0.008314228616654873
379967, 0.025149958208203316, 0.15999676287174225, 0.24027499556541443, -0.029543327167630196, -0.055830664932727814, 0.1553787738084793, 0, 0, 0, 0, 0, 0, 0, 0, 0, 0, 0, 0, 0.0, 0.0, 0.0, 0.0, 21.0, 0.0, 1.0, 0.0, 0.0, 0.0, -0.019002290442585945, -0.04060494527220726, 0.017498042434453964, -0.00012109996896469966, 0.004800011869519949, 0.003971476573497057
379977, -0.03278828412294388, 0.1489364504814148, 0.23332948982715607, -0.011535109020769596, 0.11270767450332642, 0.08045200258493423, 0, 0, 0, 0, 0, 0, 0, 0, 0, 0, 0, 0, 0.0, 0.0, 0.0, 0.0, 21.0, -6.0, -1.0, 0.0, 0.0, 0.0, -0.019190121442079544, -0.04191704839468002, 0.01754617504775524, -0.0011442690156400204, -0.002553231781348586, 0.0036122652236372232
379987, 0.02628181502223015, 0.15748563408851624, 0.24118466675281525, -0.011535109020769596, 0.11270767450332642, 0.08045200258493423, 0, 0, 0, 0, 0, 0, 0, 0, 0, 0, 0, 0, 0.0, 0.0, 0.0, 0.0, 21.0, 6.0, 1.0, 0.0, 0.0, 0.0, -0.019199909642338753, -0.04169873520731926, 0.017581826075911522, -0.0011270343093201518, -0.0013035881565883756, 0.003342254785820842
379997, 0.016833025962114334, 0.15812917053699493, 0.2392219454050064, -0.09745633602142334, -0.39068472385406494, -0.08244642615318298, 0, 0, 0, 0, 0, 0, 0, 0, 0, 0, 0, 0, 0.0, 0.0, 0.0, 0.0, 21.0, -1.0, 0.0, 0.0, 0.0, 0.0, -0.019405916333198547, -0.041701436042785645, 0.017613952979445457, -0.002193601569160819, -0.0012627503601834178, 0.0031920261681079865
380007, 0.016521114856004715, 0.16557340323925018, 0.23921042680740356, 0.018478507176041603, 0.16662108898162842, -0.10452669858932495, 0, 0, 0, 0, 0, 0, 0, 0, 0, 0, 0, 0, 0.0, 0.0, 0.0, 0.0, 21.0, 0.0, 1.0, 0.0, 0.0, 0.0, -0.018344298005104065, -0.04276213049888611, 0.01778317615389824, 0.003613044274970889, -0.007202268578112125, 0.003883060533553362
380017, 0.06462360173463821, 0.12032496929168701, 0.23960235714912415, 0.27957454323768616, -0.2585647404193878, 0.01697164960205555, 0, 0, 0, 0, 0, 0, 0, 0, 0, 0, 0, 0, 0.0, 0.0, 0.0, 0.0, 18.0, 5.0, -5.0, 0.0, 0.0, 0.0, -0.018775589764118195, -0.04191136732697487, 0.01783299446105957, 0.0010347584029659629, -0.002394818002358079, 0.003808370791375637
380027, 0.025215189903974533, 0.14103305339813232, 0.23734484612941742, 0.010359888896346092, 0.02126998081803322, 0.0728893131017685, 0, 0, 0, 0, 0, 0, 0, 0, 0, 0, 0, 0, 0.0, 0.0, 0.0, 0.0, 18.0, -4.0, 2.0, 0.0, 0.0, 0.0, -0.01940133050084114, -0.04191961511969566, 0.017870884388685226, -0.0025789167266339064, -0.002316961996257305, 0.0036180720198899508
380037, 0.023655693978071213, 0.1723993569612503, 0.23962199687957764, -0.09263061732053757, -0.23540836572647095, 0.0035781371407210827, 0, 0, 0, 0, 0, 0, 0, 0, 0, 0, 0, 0, 0.0, 0.0, 0.0, 0.0, 18.0, 0.0, 3.0, 0.0, 0.0, 0.0, -0.018987827003002167, -0.041910331696271896, 0.01790812611579895, -0.0001833455462474376, -0.0022594204638153315, 0.0033528138883411884
380047, 0.022398319095373154, 0.1533995270729065, 0.23727433383464813, -0.09263061732053757, -0.23540836572647095, 0.0035781371407210827, 0, 0, 0, 0, 0, 0, 0, 0, 0, 0, 0, 0, 0.0, 0.0, 0.0, 0.0, 18.0, 0.0, -2.0, 0.0, 0.0, 0.0, -0.019195936620235443, -0.041913628578186035, 0.017939943820238113, -0.001429374678991735, -0.002157321898266673, 0.0030415861401706934
380057, 0.021655259653925896, 0.16382259130477905, 0.23728567361831665, -0.027629198506474495, -0.05418340489268303, -0.12296968698501587, 0, 0, 0, 0, 0, 0, 0, 0, 0, 0, 0, 0, 0.0, 0.0, 0.0, 0.0, 21.0, 0.0, 1.0, 0.0, 0.0, 0.0, -0.018593909218907356, -0.041483111679553986, 0.019175129011273384, 0.002095614094287157, 0.00015308721049223095, 0.00904116965830326
380067, 0.0012881383299827576, 0.13589219748973846, 0.23403938114643097, -0.0906730517745018, -0.159293532371521, 0.002361118560656905, 0, 0, 0, 0, 0, 0, 0, 0, 0, 0, 0, 0, 0.0, 0.0, 0.0, 0.0, 21.0, -2.0, -3.0, 0.0, 0.0, 0.0, -0.018579665571451187, -0.04252796620130539, 0.01926586963236332, 0.0021017638500779867, -0.006010573357343674, 0.008850269950926304
380077, 0.04742037132382393, 0.13719968497753143, 0.239401713013649, -0.041048068553209305, -0.10269318521022797, 0.26825886964797974, 0, 0, 0, 0, 0, 0, 0, 0, 0, 0, 0, 0, 0.0, 0.0, 0.0, 0.0, 21.0, 5.0, 0.0, 0.0, 0.0, 0.0, -0.019403088837862015, -0.04212396219372749, 0.019361836835741997, -0.0027014072984457016, -0.003333667991682887, 0.00885846745222807
380087, 0.026557667180895805, 0.17590808868408203, 0.24025723338127136, -0.06989577412605286, -0.2346709817647934, 0.06640684604644775, 0, 0, 0, 0, 0, 0, 0, 0, 0, 0, 0, 0, 0.0, 0.0, 0.0, 0.0, 21.0, -2.0, 4.0, 0.0, 0.0, 0.0, -0.019429443404078484, -0.04215742275118828, 0.019449882209300995, -0.002543607959523797, -0.0033278686460107565, 0.008770146407186985
380097, 0.026328586041927338, 0.1774386465549469, 0.2397928237915039, 0.002145039616152644, -0.33159366250038147, -0.13887649774551392, 0, 0, 0, 0, 0, 0, 0, 0, 0, 0, 0, 0, 0.0, 0.0, 0.0, 0.0, 21.0, 0.0, 0.0, 0.0, 0.0, 0.0, -0.018998954445123672, -0.0425884835422039, 0.020117588341236115, 8.23647205834277e-05, -0.005906879901885986, 0.01195872575044632
380107, 0.04456932842731476, 0.15852084755897522, 0.23987868428230286, 0.198958158493042, 0.04506915807723999, 0.03387850895524025, 0, 0, 0, 0, 0, 0, 0, 0, 0, 0, 0, 0, 0.0, 0.0, 0.0, 0.0, 21.0, 2.0, -2.0, 0.0, 0.0, 0.0, -0.019445544108748436, -0.04193413630127907, 0.02024264819920063, -0.002527827164158225, -0.0020847697742283344, 0.01202346384525299
380117, 0.01227973960340023, 0.18112871050834656, 0.23917458951473236, -0.20199216902256012, -0.5935516357421875, 0.17404702305793762, 0, 0, 0, 0, 0, 0, 0, 0, 0, 0, 0, 0, 0.0, 0.0, 0.0, 0.0, 21.0, -3.0, 2.0, 0.0, 0.0, 0.0, -0.01944624073803425, -0.04171466827392578, 0.020362675189971924, -0.002418054500594735, -0.0008504758006893098, 0.011892291717231274
380127, 0.0012996355071663857, 0.17963267862796783, 0.2390676736831665, -0.021121295168995857, 0.14599011838436127, 0.02113880030810833, 0, 0, 0, 0, 0, 0, 0, 0, 0, 0, 0, 0, 0.0, 0.0, 0.0, 0.0, 21.0, -1.0, 0.0, 0.0, 0.0, 0.0, -0.019471120089292526, -0.04171685501933098, 0.020479874685406685, -0.0035630061756819487, -0.001011533080600202, 0.011746831238269806
380137, 0.0009943050099536777, 0.1890653818845749, 0.23999255895614624, 0.015309663489460945, -0.08201786875724792, 0.048708923161029816, 0, 0, 0, 0, 0, 0, 0, 0, 0, 0, 0, 0, 0.0, 0.0, 0.0, 0.0, 21.0, 0.0, 1.0, 0.0, 0.0, 0.0, -0.01969507709145546, -0.04172763228416443, 0.020596589893102646, -0.0036457697860896587, -0.0011130128987133503, 0.011620612815022469
380147, 0.03859109804034233, 0.12914402782917023, 0.23774655163288116, 0.0958053320646286, 0.27379289269447327, -0.02173989824950695, 0, 0, 0, 0, 0, 0, 0, 0, 0, 0, 0, 0, 0.0, 0.0, 0.0, 0.0, 18.0, 4.0, -6.0, 0.0, 0.0, 0.0, -0.018339626491069794, -0.042610108852386475, 0.019598841667175293, 0.0038319318555295467, -0.006040847394615412, 0.005283213220536709
380157, -0.0374496653676033, 0.1600552648305893, 0.23716987669467926, -0.015845175832509995, -0.19503940641880035, 0.23264947533607483, 0, 0, 0, 0, 0, 0, 0, 0, 0, 0, 0, 0, 0.0, 0.0, 0.0, 0.0, 18.0, -8.0, 3.0, 0.0, 0.0, 0.0, -0.019635137170553207, -0.04193674772977829, 0.019676048308610916, -0.00353000545874238, -0.0024267700500786304, 0.005223266780376434
380167, 0.012097565457224846, 0.1872945874929428, 0.24119307100772858, 0.21191634237766266, 0.054067838937044144, -0.011325920931994915, 0, 0, 0, 0, 0, 0, 0, 0, 0, 0, 0, 0, 0.0, 0.0, 0.0, 0.0, 18.0, 5.0, 3.0, 0.0, 0.0, 0.0, -0.019670864567160606, -0.04196113348007202, 0.01972677744925022, -0.003602755255997181, -0.00241860537789762, 0.004947449080646038
380177, 0.012213497422635555, 0.1875951737165451, 0.241357684135437, 0.08261162787675858, -0.1703813672065735, 0.13339675962924957, 0, 0, 0, 0, 0, 0, 0, 0, 0, 0, 0, 0, 0.0, 0.0, 0.0, 0.0, 18.0, 0.0, 0.0, 0.0, 0.0, 0.0, -0.01970718242228031, -0.041985563933849335, 0.01977544091641903, -0.003649588907137513, -0.0024347989819943905, 0.004810381215065718
380187, 0.0023019721265882254, 0.17651750147342682, 0.24013972282409668, 0.17054849863052368, 0.0858289822936058, 0.07640472799539566, 0, 0, 0, 0, 0, 0, 0, 0, 0, 0, 0, 0, 0.0, 0.0, 0.0, 0.0, 18.0, -1.0, -1.0, 0.0, 0.0, 0.0, -0.01947162114083767, -0.04174856096506119, 0.01950130984187126, -0.0022236802615225315, -0.0010903445072472095, 0.0030099721625447273
380197, -0.24759140610694885, 0.21403202414512634, 0.23673668503761292, 0.04249999672174454, -0.24373884499073029, 0.017698928713798523, 0, 0, 0, 0, 0, 0, 0, 0, 0, 0, 0, 0, 0.0, 0.0, 0.0, 0.0, 19.0, -26.0, 4.0, 0.0, 0.0, 0.0, -0.020432714372873306, -0.03575382009148598, 0.019528407603502274, -0.007103039883077145, 0.030716758221387863, 0.0028101771604269743
380207, -0.28157299757003784, 0.23593297600746155, 0.23653939366340637, 0.04249999672174454, -0.24373884499073029, 0.017698928713798523, 0, 0, 0, 0, 0, 0, 0, 0, 0, 0, 0, 0, 0.0, 0.0, 0.0, 0.0, 19.0, -5.0, 3.0, 0.0, 0.0, 0.0, -0.021113434806466103, -0.03463513404130936, 0.019510556012392044, -0.010463090613484383, 0.035466842353343964, 0.0024177306331694126
380217, -0.2166043221950531, 0.16531990468502045, 0.2404257208108902, 0.08123458176851273, -0.37490934133529663, -0.009994867257773876, 0, 0, 0, 0, 0, 0, 0, 0, 0, 0, 0, 0, 0.0, 0.0, 0.0, 0.0, 19.0, 5.0, -7.0, 0.0, 0.0, 0.0, -0.019485890865325928, -0.035827845335006714, 0.019647056236863136, -0.0017154501983895898, 0.027847567573189735, 0.002746664686128497
380227, -0.2950884997844696, 0.2478235810995102, 0.22920745611190796, 0.08123458176851273, -0.37490934133529663, -0.009994867257773876, 0, 0, 0, 0, 0, 0, 0, 0, 0, 0, 0, 0, 0.0, 0.0, 0.0, 0.0, 19.0, 0.0, 3.0, 0.0, 0.0, 0.0, -0.021435962989926338, -0.033746685832738876, 0.019576512277126312, -0.012199469842016697, 0.03778688982129097, 0.0020684588234871626
380237, -0.29507532715797424, 0.24943900108337402, 0.22904840111732483, 0.04521660879254341, -0.2408841997385025, -0.050681184977293015, 0, 0, 0, 0, 0, 0, 0, 0, 0, 0, 0, 0, 0.0, 0.0, 0.0, 0.0, 20.0, -11.0, 6.0, 0.0, 0.0, 0.0, -0.020544186234474182, -0.033367883414030075, 0.019773297011852264, -0.00708512868732214, 0.03848288953304291, 0.0028724102303385735
380247, -0.2947372496128082, 0.20516113936901093, 0.23827585577964783, 0.09411577135324478, 0.05620599538087845, 0.0444348119199276, 0, 0, 0, 0, 0, 0, 0, 0, 0, 0, 0, 0, 0.0, 0.0, 0.0, 0.0, 20.0, -2.0, -4.0, 0.0, 0.0, 0.0, -0.020549176260828972, -0.034439023584127426, 0.01987437903881073, -0.006941373459994793, 0.0309883002191782, 0.0031192561145871878
380257, -0.22942189872264862, 0.2041851431131363, 0.2367171049118042, 0.08473936468362808, -0.3581995666027069, 0.10425309836864471, 0, 0, 0, 0, 0, 0, 0, 0, 0, 0, 0, 0, 0.0, 0.0, 0.0, 0.0, 20.0, 5.0, 0.0, 0.0, 0.0, 0.0, -0.021423114463686943, -0.03357206657528877, 0.01987503096461296, -0.01132479403167963, 0.03418532758951187, 0.002965842839330435
380267, -0.2520977854728699, 0.23616701364517212, 0.22650031745433807, 0.2322811633348465, 0.11011559516191483, -0.12011175602674484, 0, 0, 0, 0, 0, 0, 0, 0, 0, 0, 0, 0, 0.0, 0.0, 0.0, 0.0, 20.0, -4.0, 4.0, 0.0, 0.0, 0.0, -0.02142675220966339, -0.03379106521606445, 0.019933028146624565, -0.011080761440098286, 0.031480856239795685, 0.002981457393616438
380277, -0.22645825147628784, 0.23425725102424622, 0.2270853966474533, 0.0154282720759511, -0.438601016998291, 0.2069266140460968, 0, 0, 0, 0, 0, 0, 0, 0, 0, 0, 0, 0, 0.0, 0.0, 0.0, 0.0, 20.0, 1.0, 0.0, 0.0, 0.0, 0.0, -0.02229626476764679, -0.032086219638586044, 0.019924940541386604, -0.015455903485417366, 0.03918057307600975, 0.0025344521272927523
380287, -0.28636255860328674, 0.2683725357055664, 0.21971748769283295, -0.10813704878091812, -0.11935216188430786, 0.1285148561000824, 0, 0, 0, 0, 0, 0, 0, 0, 0, 0, 0, 0, 0.0, 0.0, 0.0, 0.0, 20.0, -8.0, 4.0, 0.0, 0.0, 0.0, -0.021201105788350105, -0.03380000591278076, 0.02006252482533455, -0.009071175940334797, 0.028282884508371353, 0.0029260150622576475
380297, -0.19459456205368042, 0.21507780253887177, 0.23388820886611938, 0.029879190027713776, 0.23667098581790924, -0.07014041393995285, 0, 0, 0, 0, 0, 0, 0, 0, 0, 0, 0, 0, 0.0, 0.0, 0.0, 0.0, 20.0, 8.0, -5.0, 0.0, 0.0, 0.0, -0.020535487681627274, -0.034465573728084564, 0.020125390961766243, -0.0053114634938538074, 0.02350086160004139, 0.0029979501850903034
380307, -0.15493285655975342, 0.1824711710214615, 0.24410812556743622, -0.13319280743598938, 0.1128409206867218, 0.08974779397249222, 0, 0, 0, 0, 0, 0, 0, 0, 0, 0, 0, 0, 0.0, 0.0, 0.0, 0.0, 20.0, 3.0, -3.0, 0.0, 0.0, 0.0, -0.021415017545223236, -0.03399747610092163, 0.02014574594795704, -0.009784309193491936, 0.0246047992259264, 0.0027878175023943186
380317, -0.16285988688468933, 0.21814735233783722, 0.2282983660697937, -0.0355231873691082, -0.2082432210445404, -0.028668619692325592, 0, 0, 0, 0, 0, 0, 0, 0, 0, 0, 0, 0, 0.0, 0.0, 0.0, 0.0, 20.0, -2.0, 4.0, 0.0, 0.0, 0.0, -0.021516287699341774, -0.033751074224710464, 0.02017148770391941, -0.010253546759486198, 0.024740735068917274, 0.002577409381046891
380327, -0.16213904321193695, 0.21983462572097778, 0.22872738540172577, 0.10487360507249832, -0.15467926859855652, 0.06485538184642792, 0, 0, 0, 0, 0, 0, 0, 0, 0, 0, 0, 0, 0.0, 0.0, 0.0, 0.0, 8.0, 0.0, 0.0, 0.0, 0.0, 0.0, -0.021437346935272217, -0.03198334202170372, 0.015274779871106148, -0.00995878130197525, 0.03353758156299591, -0.024061501026153564
380337, -0.23602072894573212, 0.2170475274324417, 0.24107378721237183, 0.2054184079170227, -0.30580198764801025, 0.06514246761798859, 0, 0, 0, 0, 0, 0, 0, 0, 0, 0, 0, 0, 0.0, 0.0, 0.0, 0.0, 8.0, -9.0, 0.0, 0.0, 0.0, 0.0, -0.021450776606798172, -0.03349607437849045, 0.015099097043275833, -0.009657503105700016, 0.02345895580947399, -0.02376243844628334
380347, -0.1517278403043747, 0.21441325545310974, 0.2332274466753006, 0.008720964193344116, -0.23671385645866394, -0.06268966943025589, 0, 0, 0, 0, 0, 0, 0, 0, 0, 0, 0, 0, 0.0, 0.0, 0.0, 0.0, 8.0, 7.0, 0.0, 0.0, 0.0, 0.0, -0.020545069128274918, -0.03462217003107071, 0.01490020751953125, -0.004693974740803242, 0.01648002117872238, -0.023452622815966606
380357, -0.09280269593000412, 0.1726115643978119, 0.24838995933532715, 0.0794973373413086, -0.057006653398275375, -0.15392056107521057, 0, 0, 0, 0, 0, 0, 0, 0, 0, 0, 0, 0, 0.0, 0.0, 0.0, 0.0, 8.0, 5.0, -4.0, 0.0, 0.0, 0.0, -0.02059192955493927, -0.034457262605428696, 0.014665377326309681, -0.004676346201449633, 0.01661851815879345, -0.023431317880749702
380367, -0.09227518737316132, 0.17129158973693848, 0.24932751059532166, -0.024757303297519684, 0.22704949975013733, 0.06918023526668549, 0, 0, 0, 0, 0, 0, 0, 0, 0, 0, 0, 0, 0.0, 0.0, 0.0, 0.0, 8.0, 0.0, 0.0, 0.0, 0.0, 0.0, -0.020602010190486908, -0.03376194089651108, 0.016173826530575752, -0.004537823144346476, 0.019452568143606186, -0.014292464591562748
380377, -0.11262492835521698, 0.16952012479305267, 0.2530883252620697, 0.10753527283668518, -0.08098649978637695, 0.1605638861656189, 0, 0, 0, 0, 0, 0, 0, 0, 0, 0, 0, 0, 0.0, 0.0, 0.0, 0.0, 19.0, -3.0, 0.0, 0.0, 0.0, 0.0, -0.02060854062438011, -0.034441910684108734, 0.01604112982749939, -0.0042793117463588715, 0.01478584110736847, -0.014488528482615948
380387, -0.07201594114303589, 0.167887881398201, 0.24924877285957336, 0.14604905247688293, -0.1399211883544922, 0.14043638110160828, 0, 0, 0, 0, 0, 0, 0, 0, 0, 0, 0, 0, 0.0, 0.0, 0.0, 0.0, 19.0, 3.0, 0.0, 0.0, 0.0, 0.0, -0.02154853381216526, -0.03373350203037262, 0.015889141708612442, -0.008825712837278843, 0.017642749473452568, -0.014695199206471443
380397, -0.09287218004465103, 0.2059749960899353, 0.23292608559131622, 0.10984473675489426, -0.0575362928211689, -0.031787771731615067, 0, 0, 0, 0, 0, 0, 0, 0, 0, 0, 0, 0, 0.0, 0.0, 0.0, 0.0, 19.0, -3.0, 4.0, 0.0, 0.0, 0.0, -0.02036224864423275, -0.03426973521709442, 0.015764199197292328, -0.0025087909307330847, 0.014470449648797512, -0.014575314708054066
380407, -0.06470456719398499, 0.152912899851799, 0.25682637095451355, 0.1064806804060936, 0.08944621682167053, 0.1303873211145401, 0, 0, 0, 0, 0, 0, 0, 0, 0, 0, 0, 0, 0.0, 0.0, 0.0, 0.0, 19.0, 2.0, -5.0, 0.0, 0.0, 0.0, -0.02105807699263096, -0.034234315156936646, 0.015619813464581966, -0.006001934874802828, 0.013628389686346054, -0.01462623942643404
380417, -0.05705471336841583, 0.18049713969230652, 0.24265684187412262, 0.11977412551641464, 0.1355973333120346, 0.14251168072223663, 0, 0, 0, 0, 0, 0, 0, 0, 0, 0, 0, 0, 0.0, 0.0, 0.0, 0.0, 17.0, 0.0, 3.0, 0.0, 0.0, 0.0, -0.020597809925675392, -0.03426099568605423, 0.016083022579550743, -0.0032938835211098194, 0.012994252145290375, -0.011525610461831093
380427, -0.04974759742617607, 0.1590215563774109, 0.25072818994522095, 0.06765049695968628, -0.06681183725595474, -0.14419424533843994, 0, 0, 0, 0, 0, 0, 0, 0, 0, 0, 0, 0, 0.0, 0.0, 0.0, 0.0, 17.0, 0.0, -2.0, 0.0, 0.0, 0.0, -0.020631302148103714, -0.03413080796599388, 0.015966719016432762, -0.0033545515034347773, 0.013092979788780212, -0.011693678796291351
380437, -0.048561204224824905, 0.15973058342933655, 0.2502062916755676, 0.25356584787368774, -0.25860127806663513, 0.02317693829536438, 0, 0, 0, 0, 0, 0, 0, 0, 0, 0, 0, 0, 0.0, 0.0, 0.0, 0.0, 17.0, 0.0, 0.0, 0.0, 0.0, 0.0, -0.021111339330673218, -0.03411932662129402, 0.015849683433771133, -0.005752198398113251, 0.012290623039007187, -0.01176486723124981
380447, -0.0409989096224308, 0.17960229516029358, 0.24132823944091797, 0.18898145854473114, -0.18372699618339539, 0.074072927236557, 0, 0, 0, 0, 0, 0, 0, 0, 0, 0, 0, 0, 0.0, 0.0, 0.0, 0.0, 17.0, 0.0, 2.0, 0.0, 0.0, 0.0, -0.021169131621718407, -0.033996373414993286, 0.01573196053504944, -0.005775823257863522, 0.012365318834781647, -0.01172539871186018
380457, -0.040459051728248596, 0.18133200705051422, 0.2408047318458557, 0.06546171754598618, -0.2584758698940277, -0.11595909297466278, 0, 0, 0, 0, 0, 0, 0, 0, 0, 0, 0, 0, 0.0, 0.0, 0.0, 0.0, 17.0, 0.0, 0.0, 0.0, 0.0, 0.0, -0.020920496433973312, -0.03353452682495117, 0.01690240576863289, -0.004029582720249891, 0.014368864707648754, -0.004735168069601059
380467, -0.05388016626238823, 0.16851823031902313, 0.24842499196529388, 0.09459184855222702, -0.07799477875232697, 0.1542343944311142, 0, 0, 0, 0, 0, 0, 0, 0, 0, 0, 0, 0, 0.0, 0.0, 0.0, 0.0, 19.0, -2.0, -1.0, 0.0, 0.0, 0.0, -0.021652894094586372, -0.03351626172661781, 0.016854049637913704, -0.007546734996140003, 0.01351183746010065, -0.004871555604040623
380477, -0.04674769937992096, 0.1967586725950241, 0.23707948625087738, -0.03714067116379738, 0.1151004210114479, 0.07352131605148315, 0, 0, 0, 0, 0, 0, 0, 0, 0, 0, 0, 0, 0.0, 0.0, 0.0, 0.0, 19.0, 0.0, 3.0, 0.0, 0.0, 0.0, -0.020662114024162292, -0.03405710309743881, 0.016819067299365997, -0.0022654091008007526, 0.010143009945750237, -0.004848906304687262
380487, -0.018278969451785088, 0.15460865199565887, 0.25139564275741577, 0.22704753279685974, -0.05177794024348259, 0.0037378885317593813, 0, 0, 0, 0, 0, 0, 0, 0, 0, 0, 0, 0, 0.0, 0.0, 0.0, 0.0, 19.0, 2.0, -4.0, 0.0, 0.0, 0.0, -0.021618938073515892, -0.033333394676446915, 0.016766976565122604, -0.007132119033485651, 0.01339456532150507, -0.0048652468249201775
380497, -0.04373805597424507, 0.1908913105726242, 0.23976895213127136, -0.07995671778917313, 0.16032825410366058, -0.09396764636039734, 0, 0, 0, 0, 0, 0, 0, 0, 0, 0, 0, 0, 0.0, 0.0, 0.0, 0.0, 19.0, -3.0, 4.0, 0.0, 0.0, 0.0, -0.02169114537537098, -0.03319908678531647, 0.0167181845754385, -0.007229549810290337, 0.013534311205148697, -0.004824033472687006
380507, -0.041719648987054825, 0.19250142574310303, 0.2391671985387802, 0.23931050300598145, -0.276192307472229, -0.10015151649713516, 0, 0, 0, 0, 0, 0, 0, 0, 0, 0, 0, 0, 0.0, 0.0, 0.0, 0.0, 18.0, 0.0, 0.0, 0.0, 0.0, 0.0, -0.02092181332409382, -0.0318143293261528, 0.017163606360554695, -0.0029669071082025766, 0.020498070865869522, -0.0024521478917449713
380517, -0.09515637904405594, 0.15704669058322906, 0.2544510066509247, -0.005575886461883783, 0.07910943776369095, 0.0044641150161623955, 0, 0, 0, 0, 0, 0, 0, 0, 0, 0, 0, 0, 0.0, 0.0, 0.0, 0.0, 18.0, -6.0, -3.0, 0.0, 0.0, 0.0, -0.02266463078558445, -0.031774286180734634, 0.017139922827482224, -0.011783892288804054, 0.019558068364858627, -0.0026773952413350344
380527, -0.08464467525482178, 0.22851306200027466, 0.2321677953004837, 0.02349558100104332, -0.20783551037311554, 0.0409659743309021, 0, 0, 0, 0, 0, 0, 0, 0, 0, 0, 0, 0, 0.0, 0.0, 0.0, 0.0, 18.0, 0.0, 7.0, 0.0, 0.0, 0.0, -0.020687490701675415, -0.034242868423461914, 0.01719789206981659, -0.001162742730230093, 0.006103682331740856, -0.0023792556021362543
380537, 0.02645304426550865, 0.14486026763916016, 0.2499634325504303, 0.12792940437793732, -0.27817514538764954, -0.23823536932468414, 0, 0, 0, 0, 0, 0, 0, 0, 0, 0, 0, 0, 0.0, 0.0, 0.0, 0.0, 18.0, 10.0, -8.0, 0.0, 0.0, 0.0, -0.020698927342891693, -0.03418227285146713, 0.017174124717712402, -0.0010833266424015164, 0.006023066584020853, -0.0023738867603242397
380547, 0.027155332267284393, 0.14724181592464447, 0.2506592869758606, -0.06429395079612732, -0.36226511001586914, -0.09638576209545135, 0, 0, 0, 0, 0, 0, 0, 0, 0, 0, 0, 0, 0.0, 0.0, 0.0, 0.0, 18.0, 0.0, 0.0, 0.0, 0.0, 0.0, -0.02044975757598877, -0.03418024629354477, 0.018266042694449425, 0.00028735504020005465, 0.005660617258399725, 0.0035838221665471792
380557, 0.029905088245868683, 0.13698022067546844, 0.25315847992897034, -0.2302536517381668, 0.0414109006524086, -0.03497494384646416, 0, 0, 0, 0, 0, 0, 0, 0, 0, 0, 0, 0, 0.0, 0.0, 0.0, 0.0, 20.0, 0.0, -1.0, 0.0, 0.0, 0.0, -0.02145630121231079, -0.03319402411580086, 0.018304014578461647, -0.004642106592655182, 0.010452531278133392, 0.0033930588979274035
380567, -0.006841716356575489, 0.17818790674209595, 0.24504177272319794, 0.2531629204750061, -0.0867432951927185, 0.001722603221423924, 0, 0, 0, 0, 0, 0, 0, 0, 0, 0, 0, 0, 0.0, 0.0, 0.0, 0.0, 20.0, -4.0, 4.0, 0.0, 0.0, 0.0, -0.02150810696184635, -0.03307868167757988, 0.018340375274419785, -0.004666819702833891, 0.010558030568063259, 0.0032500652596354485
380577, -0.006840319372713566, 0.1781502068042755, 0.2447354793548584, -0.007135625928640366, -0.12293720245361328, 0.03926066309213638, 0, 0, 0, 0, 0, 0, 0, 0, 0, 0, 0, 0, 0.0, 0.0, 0.0, 0.0, 20.0, 0.0, 0.0, 0.0, 0.0, 0.0, -0.022014189511537552, -0.033095911145210266, 0.018370887264609337, -0.007231912575662136, 0.009995936416089535, 0.003120285226032138
380587, 3.1570303690386936e-05, 0.19586262106895447, 0.24101126194000244, 0.15495269000530243, 0.1569802165031433, -0.0015299648512154818, 0, 0, 0, 0, 0, 0, 0, 0, 0, 0, 0, 0, 0.0, 0.0, 0.0, 0.0, 20.0, 0.0, 2.0, 0.0, 0.0, 0.0, -0.02200143039226532, -0.03286885842680931, 0.018401507288217545, -0.00709932204335928, 0.01065990049391985, 0.0030981581658124924
380597, 0.0005259799072518945, 0.19660651683807373, 0.24164561927318573, 0.053053613752126694, -0.23125332593917847, 0.1342000663280487, 0, 0, 0, 0, 0, 0, 0, 0, 0, 0, 0, 0, 0.0, 0.0, 0.0, 0.0, 22.0, -1.0, 0.0, 0.0, 0.0, 0.0, -0.020475123077630997, -0.033647842705249786, 0.019893083721399307, 0.0008005900890566409, 0.005927665159106255, 0.010615979321300983
380607, 0.03709687665104866, 0.13110525906085968, 0.2517174184322357, 0.06696565449237823, -0.332144558429718, 0.1696883589029312, 0, 0, 0, 0, 0, 0, 0, 0, 0, 0, 0, 0, 0.0, 0.0, 0.0, 0.0, 22.0, 3.0, -6.0, 0.0, 0.0, 0.0, -0.02148013934493065, -0.03315120190382004, 0.02000310830771923, -0.004506523255258799, 0.007986624725162983, 0.010800237767398357
380617, 0.019719453528523445, 0.1709284484386444, 0.24594365060329437, 0.03914772719144821, -0.050673216581344604, -0.11860368400812149, 0, 0, 0, 0, 0, 0, 0, 0, 0, 0, 0, 0, 0.0, 0.0, 0.0, 0.0, 22.0, -2.0, 4.0, 0.0, 0.0, 0.0, -0.021717963740229607, -0.03316528722643852, 0.020110463723540306, -0.005596141796559095, 0.0074057853780686855, 0.010769661515951157
380627, 0.024428946897387505, 0.1775224357843399, 0.24495023488998413, 0.13538385927677155, -0.040940430015325546, 0.01923087239265442, 0, 0, 0, 0, 0, 0, 0, 0, 0, 0, 0, 0, 0.0, 0.0, 0.0, 0.0, 22.0, 0.0, 1.0, 0.0, 0.0, 0.0, -0.020731935277581215, -0.033907413482666016, 0.020227821543812752, -0.00017514351930003613, 0.003105425275862217, 0.010599933564662933
380637, 0.05615030974149704, 0.1359158456325531, 0.24910259246826172, -0.16891194880008698, 0.03267810121178627, 0.10315680503845215, 0, 0, 0, 0, 0, 0, 0, 0, 0, 0, 0, 0, 0.0, 0.0, 0.0, 0.0, 22.0, 3.0, -4.0, 0.0, 0.0, 0.0, -0.02073855698108673, -0.031530555337667465, 0.019806373864412308, -9.917829447658733e-05, 0.015257126651704311, 0.007492492441087961
380647, -0.040129851549863815, 0.1377638876438141, 0.25050780177116394, 0.06825204938650131, -0.20696097612380981, -0.011908337473869324, 0, 0, 0, 0, 0, 0, 0, 0, 0, 0, 0, 0, 0.0, 0.0, 0.0, 0.0, 19.0, -10.0, 0.0, 0.0, 0.0, 0.0, -0.020974691957235336, -0.03273097798228264, 0.019901886582374573, -0.0014030131278559566, 0.008338358253240585, 0.00750890513882041
380657, 0.015352942049503326, 0.14770835638046265, 0.24861153960227966, -0.25617852807044983, -0.12234537303447723, -0.15725290775299072, 0, 0, 0, 0, 0, 0, 0, 0, 0, 0, 0, 0, 0.0, 0.0, 0.0, 0.0, 19.0, 5.0, 1.0, 0.0, 0.0, 0.0, -0.02144075743854046, -0.0329730287194252, 0.019978180527687073, -0.0037500185426324606, 0.0066048940643668175, 0.007377125322818756
380667, 0.028561724349856377, 0.1658334583044052, 0.24770446121692657, -0.1410098522901535, 0.07245513051748276, -0.015009267255663872, 0, 0, 0, 0, 0, 0, 0, 0, 0, 0, 0, 0, 0.0, 0.0, 0.0, 0.0, 19.0, 1.0, 2.0, 0.0, 0.0, 0.0, -0.020729662850499153, -0.033916719257831573, 0.020058514550328255, 0.00018166987865697592, 0.0010877540335059166, 0.007385727483779192
380677, 0.07055842131376266, 0.13475702702999115, 0.24769191443920135, 0.17016488313674927, 0.23004160821437836, -0.0760851725935936, 0, 0, 0, 0, 0, 0, 0, 0, 0, 0, 0, 0, 0.0, 0.0, 0.0, 0.0, 19.0, 4.0, -3.0, 0.0, 0.0, 0.0, -0.02166173793375492, -0.03299539163708687, 0.020139601081609726, -0.004820880014449358, 0.0054630315862596035, 0.00720137357711792
380687, 0.034074362367391586, 0.17455936968326569, 0.24649964272975922, 0.1087985560297966, -0.2815101146697998, -0.052903443574905396, 0, 0, 0, 0, 0, 0, 0, 0, 0, 0, 0, 0, 0.0, 0.0, 0.0, 0.0, 18.0, -4.0, 4.0, 0.0, 0.0, 0.0, -0.021660175174474716, -0.031859129667282104, 0.01934605836868286, -0.004861911293119192, 0.010937003418803215, 0.002531747566536069
380697, -0.009775793179869652, 0.17461702227592468, 0.24688728153705597, 0.0816926434636116, -0.08496425300836563, 0.13323940336704254, 0, 0, 0, 0, 0, 0, 0, 0, 0, 0, 0, 0, 0.0, 0.0, 0.0, 0.0, 18.0, -5.0, 0.0, 0.0, 0.0, 0.0, -0.020737040787935257, -0.033907391130924225, 0.019399452954530716, 0.00018476916011422873, -0.0007551614544354379, 0.002426356542855501
380707, 0.07860507071018219, 0.1350202113389969, 0.24649126827716827, -0.10723291337490082, -0.02936910092830658, -0.12614697217941284, 0, 0, 0, 0, 0, 0, 0, 0, 0, 0, 0, 0, 0.0, 0.0, 0.0, 0.0, 18.0, 9.0, -4.0, 0.0, 0.0, 0.0, -0.020734841004014015, -0.03391457349061966, 0.019422566518187523, 0.0002599516010377556, -0.0006765325088053942, 0.002197830006480217
380717, 0.07856150716543198, 0.13453608751296997, 0.24681244790554047, -0.06758950650691986, 0.13735100626945496, 0.004908354487270117, 0, 0, 0, 0, 0, 0, 0, 0, 0, 0, 0, 0, 0.0, 0.0, 0.0, 0.0, 18.0, 0.0, 0.0, 0.0, 0.0, 0.0, -0.02168652042746544, -0.03345182538032532, 0.019449174404144287, -0.005000214092433453, 0.0018377091037109494, 0.00196406664326787
380727, 0.05912835896015167, 0.17552509903907776, 0.24851831793785095, 0.12514260411262512, -0.21711747348308563, -0.12602701783180237, 0, 0, 0, 0, 0, 0, 0, 0, 0, 0, 0, 0, 0.0, 0.0, 0.0, 0.0, 18.0, -2.0, 4.0, 0.0, 0.0, 0.0, -0.02262406051158905, -0.031821608543395996, 0.018474256619811058, -0.009903893806040287, 0.010605107992887497, -0.0037045027129352093
380737, -0.006022441666573286, 0.21310433745384216, 0.24930410087108612, 0.13756173849105835, -0.19162213802337646, -0.1719830334186554, 0, 0, 0, 0, 0, 0, 0, 0, 0, 0, 0, 0, 0.0, 0.0, 0.0, 0.0, 17.0, -7.0, 4.0, 0.0, 0.0, 0.0, -0.02168714441359043, -0.03274885192513466, 0.018461186438798904, -0.004470039624720812, 0.004928156733512878, -0.0035706462804228067
380747, 0.03638783469796181, 0.17014651000499725, 0.24625453352928162, -0.1256415843963623, -0.044533826410770416, 0.03765254467725754, 0, 0, 0, 0, 0, 0, 0, 0, 0, 0, 0, 0, 0.0, 0.0, 0.0, 0.0, 17.0, 4.0, -4.0, 0.0, 0.0, 0.0, -0.02168319933116436, -0.03321542590856552, 0.018426042050123215, -0.004375445656478405, 0.0020204600878059864, -0.0037793698720633984
380757, 0.05782241001725197, 0.17019447684288025, 0.2472199648618698, 0.004025318194180727, -0.06153102219104767, 0.03915901109576225, 0, 0, 0, 0, 0, 0, 0, 0, 0, 0, 0, 0, 0.0, 0.0, 0.0, 0.0, 17.0, 2.0, 0.0, 0.0, 0.0, 0.0, -0.021727832034230232, -0.03319646045565605, 0.01838662289083004, -0.004558071959763765, 0.0018034138483926654, -0.004081542603671551
380767, 0.059095513075590134, 0.17095990478992462, 0.24730128049850464, 0.12211106717586517, 0.039907779544591904, 0.04446635767817497, 0, 0, 0, 0, 0, 0, 0, 0, 0, 0, 0, 0, 0.0, 0.0, 0.0, 0.0, 17.0, 0.0, 0.0, 0.0, 0.0, 0.0, -0.021774262189865112, -0.03317921608686447, 0.018345868214964867, -0.004737368319183588, 0.0016772252274677157, -0.004044764209538698
380777, 0.06067727506160736, 0.17139345407485962, 0.24711668491363525, 0.024578329175710678, -0.07460744678974152, 0.03022565133869648, 0, 0, 0, 0, 0, 0, 0, 0, 0, 0, 0, 0, 0.0, 0.0, 0.0, 0.0, 17.0, 0.0, 0.0, 0.0, 0.0, 0.0, -0.021529976278543472, -0.03165818750858307, 0.01775706559419632, -0.0032681722659617662, 0.009517845697700977, -0.00688403844833374
380787, 0.00018729282601270825, 0.16054074466228485, 0.24441030621528625, 0.07017295062541962, -0.26028433442115784, 0.029846087098121643, 0, 0, 0, 0, 0, 0, 0, 0, 0, 0, 0, 0, 0.0, 0.0, 0.0, 0.0, 17.0, -6.0, -1.0, 0.0, 0.0, 0.0, -0.021562300622463226, -0.03156305104494095, 0.01768779195845127, -0.003154170699417591, 0.009536598809063435, -0.006952511612325907
380797, 0.05687936395406723, 0.1737794727087021, 0.2475736141204834, -0.013471784070134163, -0.47144168615341187, -0.10699891299009323, 0, 0, 0, 0, 0, 0, 0, 0, 0, 0, 0, 0, 0.0, 0.0, 0.0, 0.0, 17.0, 5.0, 1.0, 0.0, 0.0, 0.0, -0.021813325583934784, -0.032919347286224365, 0.01763131283223629, -0.004354325123131275, 0.002204736927524209, -0.0071206227876245975
380807, 0.09799481183290482, 0.13145923614501953, 0.2415517121553421, -0.056739840656518936, -0.040975987911224365, 0.05951938033103943, 0, 0, 0, 0, 0, 0, 0, 0, 0, 0, 0, 0, 0.0, 0.0, 0.0, 0.0, 17.0, 4.0, -4.0, 0.0, 0.0, 0.0, -0.020772919058799744, -0.033940620720386505, 0.017564857378602028, 0.00110340875107795, -0.003294520080089569, -0.007168563082814217
380817, 0.09752672910690308, 0.12195941060781479, 0.2399274855852127, 0.15323591232299805, -0.0468512661755085, 0.13649478554725647, 0, 0, 0, 0, 0, 0, 0, 0, 0, 0, 0, 0, 0.0, 0.0, 0.0, 0.0, 17.0, 0.0, -1.0, 0.0, 0.0, 0.0, -0.02052045799791813, -0.03393010422587395, 0.016885828226804733, 0.002310100942850113, -0.0033788455184549093, -0.010564730502665043
380827, 0.06630173325538635, 0.1517390012741089, 0.2448797971010208, -0.16563670337200165, 0.2172810286283493, 0.08731891959905624, 0, 0, 0, 0, 0, 0, 0, 0, 0, 0, 0, 0, 0.0, 0.0, 0.0, 0.0, 16.0, -3.0, 3.0, 0.0, 0.0, 0.0, -0.021269841119647026, -0.03318171948194504, 0.016788484528660774, -0.0016268347389996052, 0.0004204610886517912, -0.010489651933312416
380837, 0.06657955795526505, 0.16367530822753906, 0.24787931144237518, -0.022173015400767326, -0.3397008776664734, 0.275115042924881, 0, 0, 0, 0, 0, 0, 0, 0, 0, 0, 0, 0, 0.0, 0.0, 0.0, 0.0, 16.0, 0.0, 1.0, 0.0, 0.0, 0.0, -0.02151990868151188, -0.033191051334142685, 0.016683392226696014, -0.002939766040071845, 0.00026638907729648054, -0.010463501326739788
380847, 0.06652563810348511, 0.16952408850193024, 0.24935047328472137, -0.061380356550216675, 0.14451852440834045, -0.05272361636161804, 0, 0, 0, 0, 0, 0, 0, 0, 0, 0, 0, 0, 0.0, 0.0, 0.0, 0.0, 16.0, 0.0, 1.0, 0.0, 0.0, 0.0, -0.021713539958000183, -0.032961033284664154, 0.01657867431640625, -0.0038440702483057976, 0.001287007238715887, -0.010450970381498337
380857, 0.0946742445230484, 0.14645381271839142, 0.24543827772140503, -0.09565972536802292, -0.02252889610826969, 0.06361748278141022, 0, 0, 0, 0, 0, 0, 0, 0, 0, 0, 0, 0, 0.0, 0.0, 0.0, 0.0, 16.0, -1.0, 0.0, 0.0, 0.0, 0.0, -0.021254071965813637, -0.033876124769449234, 0.016476400196552277, -0.0012869657948613167, -0.003994618076831102, -0.010532036423683167
380867, 0.0351814329624176, 0.12932486832141876, 0.23757952451705933, -0.07145995646715164, -0.3814907968044281, 0.04447837546467781, 0, 0, 0, 0, 0, 0, 0, 0, 0, 0, 0, 0, 0.0, 0.0, 0.0, 0.0, 18.0, 4.0, -2.0, 0.0, 0.0, 0.0, -0.020824158564209938, -0.03244941309094429, 0.017004700377583504, 0.0012115668505430222, 0.0030649465043097734, -0.007444689515978098
380877, 0.0354824922978878, 0.12954586744308472, 0.23733657598495483, -0.054815225303173065, -0.09699701517820358, -0.1348782479763031, 0, 0, 0, 0, 0, 0, 0, 0, 0, 0, 0, 0, 0.0, 0.0, 0.0, 0.0, 18.0, -6.0, -2.0, 0.0, 0.0, 0.0, -0.020807454362511635, -0.03383906930685043, 0.016935445368289948, 0.0012639133492484689, -0.004313994664698839, -0.007454065140336752
380887, 0.06425900757312775, 0.16803520917892456, 0.24879367649555206, 0.02666899934411049, 0.061387840658426285, -0.08846785873174667, 0, 0, 0, 0, 0, 0, 0, 0, 0, 0, 0, 0, 0.0, 0.0, 0.0, 0.0, 18.0, 6.0, 0.0, 0.0, 0.0, 0.0, -0.021701764315366745, -0.03319116681814194, 0.016870440915226936, -0.003553982125595212, -0.0007126738200895488, -0.007395496126264334
380897, 0.0933736264705658, 0.13134156167507172, 0.23950320482254028, 0.12430329620838165, -0.4055674374103546, 0.13027796149253845, 0, 0, 0, 0, 0, 0, 0, 0, 0, 0, 0, 0, 0.0, 0.0, 0.0, 0.0, 18.0, -3.0, 4.0, 0.0, 0.0, 0.0, -0.020818237215280533, -0.0338345542550087, 0.016800126060843468, 0.0012940987944602966, -0.0043570855632424355, -0.007442699745297432
380907, 0.05496465042233467, 0.14958858489990234, 0.2423919290304184, 0.27985265851020813, -0.014045540243387222, 0.1837296038866043, 0, 0, 0, 0, 0, 0, 0, 0, 0, 0, 0, 0, 0.0, 0.0, 0.0, 0.0, 18.0, 3.0, -4.0, 0.0, 0.0, 0.0, -0.021264048293232918, -0.03295285627245903, 0.018052546307444572, -0.00108292605727911, 0.00016700936248525977, -0.0004729794163722545
380917, 0.05492435395717621, 0.14934518933296204, 0.24165181815624237, 0.0606040358543396, 0.10394604504108429, -0.010576454922556877, 0, 0, 0, 0, 0, 0, 0, 0, 0, 0, 0, 0, 0.0, 0.0, 0.0, 0.0, 20.0, -4.0, 2.0, 0.0, 0.0, 0.0, -0.02081616036593914, -0.033819809556007385, 0.018047643825411797, 0.0013491405406966805, -0.004755944013595581, -0.0005514377262443304
380927, 0.09053132683038712, 0.12767969071865082, 0.23963887989521027, -0.14205685257911682, 0.5239660143852234, 0.11893350630998611, 0, 0, 0, 0, 0, 0, 0, 0, 0, 0, 0, 0, 0.0, 0.0, 0.0, 0.0, 20.0, 4.0, -2.0, 0.0, 0.0, 0.0, -0.02060733549296856, -0.033810071647167206, 0.01804092526435852, 0.0023216758854687214, -0.004806480836123228, -0.0007443918730132282
380937, 0.06954574584960938, 0.1684013307094574, 0.25036290287971497, 0.3573310971260071, -0.29836055636405945, 0.06908116489648819, 0, 0, 0, 0, 0, 0, 0, 0, 0, 0, 0, 0, 0.0, 0.0, 0.0, 0.0, 20.0, 0.0, -1.0, 0.0, 0.0, 0.0, -0.021667050197720528, -0.03342059254646301, 0.018041757866740227, -0.0035709133371710777, -0.0024478451814502478, -0.0009735672501847148
380947, 0.06926438212394714, 0.16959461569786072, 0.2506014108657837, -0.04543725773692131, -0.07324973493814468, 0.2030593901872635, 0, 0, 0, 0, 0, 0, 0, 0, 0, 0, 0, 0, 0.0, 0.0, 0.0, 0.0, 20.0, -2.0, 5.0, 0.0, 0.0, 0.0, -0.02170310914516449, -0.0334453247487545, 0.018030377104878426, -0.0036689715925604105, -0.0024695775937289, -0.0012749345041811466
380957, 0.06911881268024445, 0.16819071769714355, 0.2504159212112427, 0.03275004401803017, 0.15560497343540192, 0.030192064121365547, 0, 0, 0, 0, 0, 0, 0, 0, 0, 0, 0, 0, 0.0, 0.0, 0.0, 0.0, 20.0, 0.0, 0.0, 0.0, 0.0, 0.0, -0.020822590216994286, -0.03339012712240219, 0.01881912350654602, 0.001239461125805974, -0.0025532592553645372, 0.0025601156521588564
380967, 0.06753653287887573, 0.12624768912792206, 0.23636604845523834, -0.03583383560180664, 0.18526780605316162, 0.1047617495059967, 0, 0, 0, 0, 0, 0, 0, 0, 0, 0, 0, 0, 0.0, 0.0, 0.0, 0.0, 20.0, 0.0, -4.0, 0.0, 0.0, 0.0, -0.021914832293987274, -0.03321833163499832, 0.018847336992621422, -0.004790689796209335, -0.0016135112382471561, 0.002387449610978365
380977, 0.056662172079086304, 0.17562425136566162, 0.25222012400627136, -0.04090776666998863, -0.058935798704624176, 0.13164882361888885, 0, 0, 0, 0, 0, 0, 0, 0, 0, 0, 0, 0, 0.0, 0.0, 0.0, 0.0, 20.0, -1.0, 5.0, 0.0, 0.0, 0.0, -0.020833753049373627, -0.03382924199104309, 0.018877966329455376, 0.0014732351992279291, -0.005272448994219303, 0.002267651492729783
380987, 0.08403889089822769, 0.1265096813440323, 0.23859287798404694, -0.010700535960495472, 0.04787120595574379, 0.1679852157831192, 0, 0, 0, 0, 0, 0, 0, 0, 0, 0, 0, 0, 0.0, 0.0, 0.0, 0.0, 20.0, 3.0, -5.0, 0.0, 0.0, 0.0, -0.020818086341023445, -0.033882882446050644, 0.018899641931056976, 0.0016251622000709176, -0.005462033208459616, 0.002076663076877594
380997, 0.08482138812541962, 0.12901099026203156, 0.2374415397644043, 0.15008102357387543, -0.364450603723526, -0.16732041537761688, 0, 0, 0, 0, 0, 0, 0, 0, 0, 0, 0, 0, 0.0, 0.0, 0.0, 0.0, 20.0, 0.0, 0.0, 0.0, 0.0, 0.0, -0.02173791453242302, -0.03296322003006935, 0.017363524064421654, -0.003206532448530197, -0.0003835629904642701, -0.0065571158193051815
381007, 0.04145125299692154, 0.17210376262664795, 0.2462049126625061, -0.05941244959831238, -0.16844013333320618, -0.06812669336795807, 0, 0, 0, 0, 0, 0, 0, 0, 0, 0, 0, 0, 0.0, 0.0, 0.0, 0.0, 15.0, -4.0, 4.0, 0.0, 0.0, 0.0, -0.020825346931815147, -0.03385673835873604, 0.017300961539149284, 0.0017784610390663147, -0.005478176288306713, -0.006852939259260893
381017, 0.08186368644237518, 0.1315436065196991, 0.2350628674030304, 0.2110445201396942, -0.04932209104299545, -0.09355609118938446, 0, 0, 0, 0, 0, 0, 0, 0, 0, 0, 0, 0, 0.0, 0.0, 0.0, 0.0, 15.0, 4.0, -4.0, 0.0, 0.0, 0.0, -0.021280527114868164, -0.03293700888752937, 0.017240269109606743, -0.000876876525580883, -0.0006577253807336092, -0.00702649587765336
381027, 0.0395534448325634, 0.14982286095619202, 0.23873183131217957, -0.05822031944990158, 0.28485366702079773, 0.1961853951215744, 0, 0, 0, 0, 0, 0, 0, 0, 0, 0, 0, 0, 0.0, 0.0, 0.0, 0.0, 15.0, -4.0, 2.0, 0.0, 0.0, 0.0, -0.021720347926020622, -0.033197663724422455, 0.017168577760457993, -0.003304150654003024, -0.002120835240930319, -0.007194370962679386
381037, 0.05041077360510826, 0.171774759888649, 0.24703571200370789, 0.22079141438007355, -0.32278966903686523, 0.008687162771821022, 0, 0, 0, 0, 0, 0, 0, 0, 0, 0, 0, 0, 0.0, 0.0, 0.0, 0.0, 15.0, 1.0, 2.0, 0.0, 0.0, 0.0, -0.021280476823449135, -0.03362610936164856, 0.017097607254981995, -0.0010288539342582226, -0.004749253857880831, -0.007375020068138838
381047, 0.06826124340295792, 0.15416091680526733, 0.24035508930683136, -0.12040166556835175, -0.3012477457523346, -0.14384736120700836, 0, 0, 0, 0, 0, 0, 0, 0, 0, 0, 0, 0, 0.0, 0.0, 0.0, 0.0, 13.0, 2.0, -2.0, 0.0, 0.0, 0.0, -0.02085011638700962, -0.03358699753880501, 0.015376478433609009, 0.0011484638089314103, -0.004798167385160923, -0.015986062586307526
381057, 0.0669160708785057, 0.1364436149597168, 0.2332482784986496, 0.19584707915782928, -0.3503369987010956, 0.13069726526737213, 0, 0, 0, 0, 0, 0, 0, 0, 0, 0, 0, 0, 0.0, 0.0, 0.0, 0.0, 13.0, 0.0, -2.0, 0.0, 0.0, 0.0, -0.021715205162763596, -0.033180784434080124, 0.015220729634165764, -0.0036787884309887886, -0.002345096319913864, -0.016079554334282875
381067, 0.04624314606189728, 0.17458102107048035, 0.24501797556877136, 0.17245250940322876, 0.046587660908699036, 0.10797056555747986, 0, 0, 0, 0, 0, 0, 0, 0, 0, 0, 0, 0, 0.0, 0.0, 0.0, 0.0, 13.0, -2.0, 4.0, 0.0, 0.0, 0.0, -0.020638611167669296, -0.033791448920965195, 0.015064571984112263, 0.0024803350679576397, -0.005884964019060135, -0.01619243249297142
381077, 0.07420313358306885, 0.12573525309562683, 0.23245204985141754, 0.09777776151895523, -0.035312213003635406, 0.302118718624115, 0, 0, 0, 0, 0, 0, 0, 0, 0, 0, 0, 0, 0.0, 0.0, 0.0, 0.0, 13.0, 3.0, -5.0, 0.0, 0.0, 0.0, -0.022567372769117355, -0.03210846707224846, 0.014930053614079952, -0.008098392747342587, 0.003597293747588992, -0.016095954924821854
381087, -0.0043272944167256355, 0.21109023690223694, 0.25243130326271057, -0.11615711450576782, 0.11717522889375687, -0.017896421253681183, 0, 0, 0, 0, 0, 0, 0, 0, 0, 0, 0, 0, 0.0, 0.0, 0.0, 0.0, 13.0, -8.0, 9.0, 0.0, 0.0, 0.0, -0.020878581330180168, -0.0329153835773468, 0.016870617866516113, 0.0014578019035980105, -0.0013383730547502637, -0.00492371479049325
381097, 0.035260360687971115, 0.13294649124145508, 0.23117326200008392, 0.023199811577796936, -0.14177969098091125, 0.04014623910188675, 0, 0, 0, 0, 0, 0, 0, 0, 0, 0, 0, 0, 0.0, 0.0, 0.0, 0.0, 20.0, 4.0, -8.0, 0.0, 0.0, 0.0, -0.021508565172553062, -0.03295000270009041, 0.016822364181280136, -0.002084778854623437, -0.0013430515537038445, -0.00510475505143404
381107, 0.035369470715522766, 0.16205748915672302, 0.24033211171627045, 0.0733383446931839, -0.18576699495315552, 0.06597905606031418, 0, 0, 0, 0, 0, 0, 0, 0, 0, 0, 0, 0, 0.0, 0.0, 0.0, 0.0, 20.0, 0.0, 3.0, 0.0, 0.0, 0.0, -0.021709628403186798, -0.033398497849702835, 0.01676943153142929, -0.0031612038146704435, -0.0036573137622326612, -0.005309086758643389
381117, 0.0540199913084507, 0.17181140184402466, 0.24411460757255554, 0.07941185683012009, -0.05743340775370598, -0.0041787209920585155, 0, 0, 0, 0, 0, 0, 0, 0, 0, 0, 0, 0, 0.0, 0.0, 0.0, 0.0, 20.0, 2.0, 1.0, 0.0, 0.0, 0.0, -0.020871395245194435, -0.033789344131946564, 0.016718663275241852, 0.0014159062411636114, -0.005897182505577803, -0.005392002407461405
381127, 0.0720091238617897, 0.13538357615470886, 0.23430585861206055, 0.08336888253688812, -0.22591447830200195, 0.035370148718357086, 0, 0, 0, 0, 0, 0, 0, 0, 0, 0, 0, 0, 0.0, 0.0, 0.0, 0.0, 20.0, 2.0, -4.0, 0.0, 0.0, 0.0, -0.020665127784013748, -0.03377571329474449, 0.016664979979395866, 0.0023843972012400627, -0.0057721673510968685, -0.005317090544849634
381137, 0.06952155381441116, 0.12668883800506592, 0.23103204369544983, 0.05309213697910309, 0.07838677614927292, 0.12697581946849823, 0, 0, 0, 0, 0, 0, 0, 0, 0, 0, 0, 0, 0.0, 0.0, 0.0, 0.0, 17.0, 0.0, -1.0, 0.0, 0.0, 0.0, -0.020663617178797722, -0.03399338573217392, 0.01674521155655384, 0.002253688871860504, -0.006747453473508358, -0.004615844693034887
381147, 0.07718857377767563, 0.12780719995498657, 0.23213444650173187, 0.1525023877620697, -0.06870745122432709, -0.0489901602268219, 0, 0, 0, 0, 0, 0, 0, 0, 0, 0, 0, 0, 0.0, 0.0, 0.0, 0.0, 17.0, 1.0, 0.0, 0.0, 0.0, 0.0, -0.020640771836042404, -0.03406204283237457, 0.016697201877832413, 0.0022382251918315887, -0.0070151640102267265, -0.00497738691046834
381157, 0.07799927145242691, 0.1272294819355011, 0.23176752030849457, 0.17905721068382263, 0.05723843723535538, -0.06484673172235489, 0, 0, 0, 0, 0, 0, 0, 0, 0, 0, 0, 0, 0.0, 0.0, 0.0, 0.0, 17.0, 0.0, 0.0, 0.0, 0.0, 0.0, -0.02131427824497223, -0.03296014666557312, 0.016661016270518303, -0.001504498184658587, -0.0009232356096617877, -0.005210345610976219
381167, 0.027857396751642227, 0.16096757352352142, 0.23447063565254211, 0.18145693838596344, -0.4830750524997711, -0.10906519740819931, 0, 0, 0, 0, 0, 0, 0, 0, 0, 0, 0, 0, 0.0, 0.0, 0.0, 0.0, 17.0, -5.0, 3.0, 0.0, 0.0, 0.0, -0.020868465304374695, -0.03383759781718254, 0.016610708087682724, 0.0009481127490289509, -0.005695676896721125, -0.005255110561847687
381177, 0.06648191064596176, 0.13890008628368378, 0.23158763349056244, 0.10717415064573288, 0.2790040969848633, -0.10367743670940399, 0, 0, 0, 0, 0, 0, 0, 0, 0, 0, 0, 0, 0.0, 0.0, 0.0, 0.0, 17.0, 4.0, -2.0, 0.0, 0.0, 0.0, -0.021717706695199013, -0.03388843685388565, 0.01792328432202339, -0.0037793356459587812, -0.0055909412913024426, 0.001827165251597762
381187, 0.06510554999113083, 0.17751289904117584, 0.2434273660182953, 0.1147254928946495, -0.03017262928187847, 0.1752782016992569, 0, 0, 0, 0, 0, 0, 0, 0, 0, 0, 0, 0, 0.0, 0.0, 0.0, 0.0, 20.0, 0.0, 4.0, 0.0, 0.0, 0.0, -0.021731184795498848, -0.03343845158815384, 0.01794584095478058, -0.0035526964347809553, -0.003182889660820365, 0.0016981656663119793
381197, 0.04407139867544174, 0.1761123538017273, 0.23996302485466003, -0.058931272476911545, -0.05012897029519081, -0.21795454621315002, 0, 0, 0, 0, 0, 0, 0, 0, 0, 0, 0, 0, 0.0, 0.0, 0.0, 0.0, 20.0, -2.0, 0.0, 0.0, 0.0, 0.0, -0.02152685448527336, -0.03342568129301071, 0.017963862046599388, -0.002165834419429302, -0.0030644943471997976, 0.001646916032768786
381207, 0.04410640522837639, 0.16745109856128693, 0.23574042320251465, 0.1666775345802307, -0.2802570164203644, -0.16806860268115997, 0, 0, 0, 0, 0, 0, 0, 0, 0, 0, 0, 0, 0.0, 0.0, 0.0, 0.0, 20.0, 0.0, -1.0, 0.0, 0.0, 0.0, -0.021739261224865913, -0.033435359597206116, 0.017979053780436516, -0.0031670797616243362, -0.0030167214572429657, 0.0015219603665173054
381217, 0.043465595692396164, 0.17751236259937286, 0.23803965747356415, 0.09828275442123413, -0.19507241249084473, 0.20346057415008545, 0, 0, 0, 0, 0, 0, 0, 0, 0, 0, 0, 0, 0.0, 0.0, 0.0, 0.0, 20.0, 0.0, 1.0, 0.0, 0.0, 0.0, -0.02194843254983425, -0.03344612568616867, 0.01799190230667591, -0.004304730333387852, -0.003035458270460367, 0.0012756797950714827
381227, 0.04406002536416054, 0.18506158888339996, 0.24076789617538452, 0.20250630378723145, -0.0417964905500412, 0.0820881724357605, 0, 0, 0, 0, 0, 0, 0, 0, 0, 0, 0, 0, 0.0, 0.0, 0.0, 0.0, 18.0, 0.0, 1.0, 0.0, 0.0, 0.0, -0.021526137366890907, -0.034071311354637146, 0.018007628619670868, -0.00192871387116611, -0.00664291437715292, 0.0010288844350725412
381237, 0.07045993953943253, 0.16345113515853882, 0.23725932836532593, -0.01859504170715809, -0.07744520902633667, -0.04088815674185753, 0, 0, 0, 0, 0, 0, 0, 0, 0, 0, 0, 0, 0.0, 0.0, 0.0, 0.0, 18.0, 3.0, -2.0, 0.0, 0.0, 0.0, -0.021320084109902382, -0.034056488424539566, 0.018017906695604324, -0.0008504575816914439, -0.00641639856621623, 0.000822876812890172
381247, 0.06769780069589615, 0.15334396064281464, 0.23375430703163147, 0.010841446928679943, 0.030303677543997765, -0.019673209637403488, 0, 0, 0, 0, 0, 0, 0, 0, 0, 0, 0, 0, 0.0, 0.0, 0.0, 0.0, 18.0, 0.0, -1.0, 0.0, 0.0, 0.0, -0.021947400644421577, -0.033438701182603836, 0.018031055107712746, -0.004393286071717739, -0.002663318533450365, 0.0007063989760354161
381257, 0.03628092631697655, 0.18202804028987885, 0.2386949062347412, -0.0730615109205246, -0.17914196848869324, 0.13609838485717773, 0, 0, 0, 0, 0, 0, 0, 0, 0, 0, 0, 0, 0.0, 0.0, 0.0, 0.0, 18.0, -3.0, 3.0, 0.0, 0.0, 0.0, -0.022154461592435837, -0.03344694897532463, 0.018036717548966408, -0.005434421356767416, -0.0028720488771796227, 0.0007078740745782852
381267, 0.03532992675900459, 0.18918319046497345, 0.24111300706863403, 0.06755554676055908, -0.029068635776638985, 0.10827510058879852, 0, 0, 0, 0, 0, 0, 0, 0, 0, 0, 0, 0, 0.0, 0.0, 0.0, 0.0, 18.0, 0.0, 1.0, 0.0, 0.0, 0.0, -0.021558502689003944, -0.03256862983107567, 0.018032211810350418, -0.0019816209096461535, 0.0016496365424245596, 0.0005294470465742052
381277, -0.0017142639262601733, 0.15931542217731476, 0.23073986172676086, 0.22224703431129456, -0.11924879252910614, -0.025511929765343666, 0, 0, 0, 0, 0, 0, 0, 0, 0, 0, 0, 0, 0.0, 0.0, 0.0, 0.0, 18.0, -4.0, -3.0, 0.0, 0.0, 0.0, -0.020932991057634354, -0.03381119295954704, 0.018045000731945038, 0.0014014015905559063, -0.00528466422110796, 0.0004761622112710029
381287, 0.05392090976238251, 0.1320025473833084, 0.22723595798015594, 0.025766687467694283, 0.018975719809532166, -0.1217072382569313, 0, 0, 0, 0, 0, 0, 0, 0, 0, 0, 0, 0, 0.0, 0.0, 0.0, 0.0, 18.0, 6.0, -3.0, 0.0, 0.0, 0.0, -0.021749285981059074, -0.03321773186326027, 0.018057405948638916, -0.0032092572655528784, -0.0016707808244973421, 0.00045615583076141775
381297, 0.024747207760810852, 0.17144441604614258, 0.23520459234714508, 0.024972252547740936, -0.17058749496936798, 0.227630153298378, 0, 0, 0, 0, 0, 0, 0, 0, 0, 0, 0, 0, 0.0, 0.0, 0.0, 0.0, 18.0, -3.0, 4.0, 0.0, 0.0, 0.0, -0.02114490047097206, -0.033819686621427536, 0.018063606694340706, 0.0004001078486908227, -0.005112717859447002, 0.00023629212228115648
381307, 0.052098434418439865, 0.14388015866279602, 0.23093217611312866, 0.04850862920284271, -0.24964986741542816, 0.07085523009300232, 0, 0, 0, 0, 0, 0, 0, 0, 0, 0, 0, 0, 0.0, 0.0, 0.0, 0.0, 18.0, 3.0, -3.0, 0.0, 0.0, 0.0, -0.020946962758898735, -0.03381171450018883, 0.018064456060528755, 0.0014959305990487337, -0.004946881905198097, -4.7194280341500416e-05
381317, 0.05045497789978981, 0.1339167207479477, 0.22938469052314758, 0.06201852858066559, -0.024033550173044205, -0.01965883933007717, 0, 0, 0, 0, 0, 0, 0, 0, 0, 0, 0, 0, 0.0, 0.0, 0.0, 0.0, 18.0, 0.0, -1.0, 0.0, 0.0, 0.0, -0.02154727652668953, -0.03383151441812515, 0.01803882047533989, -0.0021806887816637754, -0.0046897465363144875, -0.0004342751344665885
381327, 0.04653714969754219, 0.16245292127132416, 0.23633317649364471, -0.264076292514801, -0.14850281178951263, 0.0877394899725914, 0, 0, 0, 0, 0, 0, 0, 0, 0, 0, 0, 0, 0.0, 0.0, 0.0, 0.0, 18.0, 0.0, 3.0, 0.0, 0.0, 0.0, -0.021953999996185303, -0.03322987258434296, 0.018035966902971268, -0.004492671694606543, -0.0010686357272788882, -0.0005741954664699733
