timeTick, roll, pitch, yaw, stateX, stateY, stateZ, stateVX, stateVY, stateVZ, whisker1, whisker2, whisker3, motor1, motor2, motor3, motor4, kalX, kalY, kalZ, kalPX, kalPY, kalPZ
1104277, 4.695274353027344, 5.452413558959961, -0.19289925694465637, 0, 0, 0, 0, 0, 0, 0, 0, 0, 0, 0, 0, 0, 0, 0, 0, 0, 0, 0
1104287, 5.727951526641846, 6.497220039367676, -0.31373095512390137, 0.3842230439186096, 0.33534255623817444, 1.0567930936813354, 0.5627772212028503, 0.5035700798034668, -3.7415435314178467, 0, 0, 0, 0.0, 0.0, 0.0, 0.0, 0.36578333377838135, 0.3159044682979584, 1.2918962240219116, 0.13630737364292145, 0.11924634873867035, -2.399846076965332
1104297, 5.773767948150635, 6.456991672515869, -0.31763985753059387, 0.3699233829975128, 0.3195320665836334, 1.2674672603607178, 0.42121776938438416, 0.3690652549266815, -2.5406813621520996, 0, 0, 0, 0.0, 0.0, 0.0, 0.0, 0.37150317430496216, 0.3170281648635864, 1.2674685716629028, 0.13538970053195953, 0.10270746052265167, -2.5958685874938965
1104307, 5.829061508178711, 6.625614643096924, -0.3249005675315857, 0.3758390545845032, 0.3207067847251892, 1.2410835027694702, 0.44070762395858765, 0.37421783804893494, -2.736370086669922, 0, 0, 0, 0.0, 0.0, 0.0, 0.0, 0.37530770897865295, 0.3192230463027954, 1.2410835027694702, 0.1260039210319519, 0.09036099910736084, -2.791748046875
1104317, 6.021840572357178, 6.763021945953369, -0.35035648941993713, 0.37144702672958374, 0.32154080271720886, 1.2127324342727661, 0.42955753207206726, 0.37851348519325256, -2.932863712310791, 0, 0, 0, 0.0, 0.0, 0.0, 0.0, 0.3815057575702667, 0.3271230161190033, 1.3753827810287476, 0.14490607380867004, 0.11631350219249725, -2.0445659160614014
1104327, 6.111618995666504, 6.696515083312988, -0.35878923535346985, 0.3880162239074707, 0.3300555348396301, 1.3545095920562744, 0.4073343276977539, 0.34014156460762024, -2.1852755546569824, 0, 0, 0, 0.0, 0.0, 0.0, 0.0, 0.3880162239074707, 0.3300555348396301, 1.3545095920562744, 0.14699268341064453, 0.10779309272766113, -2.2413923740386963
1104337, 6.105216979980469, 6.689466953277588, -0.3570573925971985, 0.3927394449710846, 0.32885220646858215, 1.3316718339920044, 0.424151748418808, 0.33964869379997253, -2.381204843521118, 0, 0, 0, 0.0, 0.0, 0.0, 0.0, 0.3927394449710846, 0.32885220646858215, 1.3316718339920044, 0.14146406948566437, 0.08332625776529312, -2.4368977546691895
1104347, 5.377573013305664, 6.08038330078125, -0.2706180810928345, 0.3954078257083893, 0.3353525996208191, 1.306885838508606, 0.4344595670700073, 0.36177295446395874, -2.576653480529785, 0, 0, 0, 0.0, 0.0, 0.0, 0.0, 0.3954078257083893, 0.3353525996208191, 1.306885838508606, 0.12777291238307953, 0.08735360205173492, -2.6334102153778076
1104357, 5.389154434204102, 6.077592849731445, -0.27152296900749207, 0.45339450240135193, 0.38803189992904663, 1.4739785194396973, 0.5342956185340881, 0.45511600375175476, -1.6780056953430176, 0, 0, 0, 0.0, 0.0, 0.0, 0.0, 0.45339450240135193, 0.38803189992904663, 1.4739785194396973, 0.35297060012817383, 0.2940194010734558, -1.7599098682403564
1104367, 5.383507251739502, 6.070802211761475, -0.27116650342941284, 0.4555197060108185, 0.391663134098053, 1.4562121629714966, 0.5384567975997925, 0.4645693600177765, -1.873847484588623, 0, 0, 0, 0.0, 0.0, 0.0, 0.0, 0.4555197060108185, 0.391663134098053, 1.4562121629714966, 0.33484137058258057, 0.28471696376800537, -1.9554789066314697
1104377, 5.394381523132324, 6.047884941101074, -0.27233296632766724, 0.46196413040161133, 0.39537787437438965, 1.4364948272705078, 0.5553597807884216, 0.47420716285705566, -2.069701910018921, 0, 0, 0, 0.0, 0.0, 0.0, 0.0, 0.46196413040161133, 0.39537787437438965, 1.4364948272705078, 0.33171984553337097, 0.2755472958087921, -2.151979923248291
1104387, 5.288520812988281, 6.085052967071533, -0.25979048013687134, 0.46758905053138733, 0.4001835286617279, 1.4148201942443848, 0.5693827271461487, 0.48671194911003113, -2.2653379440307617, 0, 0, 0, 0.0, 0.0, 0.0, 0.0, 0.4678851068019867, 0.4087703824043274, 1.4415314197540283, 0.3303961753845215, 0.3030920922756195, -2.2021114826202393
1104397, 5.374154090881348, 6.062524318695068, -0.269726425409317, 0.47463133931159973, 0.40809687972068787, 1.4193761348724365, 0.5774281620979309, 0.49913346767425537, -2.3131229877471924, 0, 0, 0, 0.0, 0.0, 0.0, 0.0, 0.47463133931159973, 0.40809687972068787, 1.4193761348724365, 0.3273426294326782, 0.27824196219444275, -2.3976125717163086
1104407, 5.368844509124756, 6.057065010070801, -0.26864132285118103, 0.480476975440979, 0.41315123438835144, 1.3952655792236328, 0.5914352536201477, 0.5115016102790833, -2.509096384048462, 0, 0, 0, 0.0, 0.0, 0.0, 0.0, 0.480476975440979, 0.41315123438835144, 1.3952655792236328, 0.32073166966438293, 0.27250799536705017, -2.5942039489746094
1104417, 5.634603500366211, 6.325078010559082, -0.2949994206428528, 0.48134177923202515, 0.41087454557418823, 1.3691976070404053, 0.5924230813980103, 0.5048205256462097, -2.7046263217926025, 0, 0, 0, 0.0, 0.0, 0.0, 0.0, 0.4820494055747986, 0.4123469591140747, 1.4565294981002808, 0.30878961086273193, 0.2556276321411133, -2.3046956062316895
1104427, 5.571013927459717, 6.280031681060791, -0.2875796854496002, 0.4901743233203888, 0.4210392236709595, 1.4333444833755493, 0.5801702737808228, 0.5005614161491394, -2.416459083557129, 0, 0, 0, 0.0, 0.0, 0.0, 0.0, 0.4901743233203888, 0.4210392236709595, 1.4333444833755493, 0.30947145819664, 0.2615301311016083, -2.5024564266204834
1104437, 5.545008182525635, 6.288742542266846, -0.2843882739543915, 0.49479150772094727, 0.42755112051963806, 1.4082013368606567, 0.591331958770752, 0.5168423056602478, -2.6123080253601074, 0, 0, 0, 0.0, 0.0, 0.0, 0.0, 0.49479150772094727, 0.42755112051963806, 1.4082013368606567, 0.2986108064651489, 0.2599717676639557, -2.6989309787750244
1104447, 5.782097816467285, 6.603507995605469, -0.3100406527519226, 0.4955254793167114, 0.4303395748138428, 1.3811041116714478, 0.5930714011192322, 0.5237223505973816, -2.8079912662506104, 0, 0, 0, 0.0, 0.0, 0.0, 0.0, 0.49196961522102356, 0.4278157651424408, 1.4540761709213257, 0.27009591460227966, 0.24401500821113586, -2.4856481552124023
1104457, 5.809032917022705, 6.559767723083496, -0.3138134181499481, 0.5003149509429932, 0.43045172095298767, 1.4290885925292969, 0.5742666125297546, 0.4977477788925171, -2.596602439880371, 0, 0, 0, 0.0, 0.0, 0.0, 0.0, 0.5003149509429932, 0.43045172095298767, 1.4290885925292969, 0.27090737223625183, 0.23035378754138947, -2.6820614337921143
1104467, 5.891024589538574, 6.624913692474365, -0.3245484232902527, 0.5009392499923706, 0.4291496276855469, 1.4021480083465576, 0.5769484639167786, 0.4958471655845642, -2.792330026626587, 0, 0, 0, 0.0, 0.0, 0.0, 0.0, 0.5009392499923706, 0.4291496276855469, 1.4021480083465576, 0.24787834286689758, 0.2046901136636734, -2.8762009143829346
1104477, 5.8102335929870605, 6.553410530090332, -0.3156740367412567, 0.5042362213134766, 0.43321672081947327, 1.3732481002807617, 0.5860081315040588, 0.5067896842956543, -2.987947940826416, 0, 0, 0, 0.0, 0.0, 0.0, 0.0, 0.5042362213134766, 0.43321672081947327, 1.3732481002807617, 0.23269730806350708, 0.1951708048582077, -3.071786642074585
1104487, 5.68076229095459, 6.488532066345215, -0.3019111156463623, 0.5148550868034363, 0.44784194231033325, 1.306929111480713, 0.6255756616592407, 0.5530644059181213, -3.381732225418091, 0, 0, 0, 0.0, 0.0, 0.0, 0.0, 0.5148550868034363, 0.44784194231033325, 1.306929111480713, 0.23624691367149353, 0.21369598805904388, -3.4687039852142334
1104497, 5.7126240730285645, 6.55828857421875, -0.30441898107528687, 0.5152698159217834, 0.45069068670272827, 1.272135853767395, 0.6277639865875244, 0.5598049759864807, -3.57745099067688, 0, 0, 0, 0.0, 0.0, 0.0, 0.0, 0.5152698159217834, 0.45069068670272827, 1.272135853767395, 0.21167127788066864, 0.19920052587985992, -3.663494348526001
1104507, 6.154045104980469, 6.9803056716918945, -0.36172664165496826, 0.521622359752655, 0.45635345578193665, 1.23538339138031, 0.6423091292381287, 0.5723768472671509, -3.773169994354248, 0, 0, 0, 0.0, 0.0, 0.0, 0.0, 0.521622359752655, 0.45635345578193665, 1.23538339138031, 0.20412665605545044, 0.19253484904766083, -3.859832763671875
1104517, 6.276341438293457, 7.003073692321777, -0.3769395053386688, 0.5191770792007446, 0.44160231947898865, 1.3068009614944458, 0.5920128226280212, 0.5019781589508057, -3.350888252258301, 0, 0, 0, 0.0, 0.0, 0.0, 0.0, 0.5191770792007446, 0.44160231947898865, 1.3068009614944458, 0.17527984082698822, 0.13103744387626648, -3.432647228240967
1104527, 6.180736064910889, 6.9326558113098145, -0.3663189709186554, 0.5305315256118774, 0.45395463705062866, 1.2723135948181152, 0.6183838844299316, 0.5304208397865295, -3.546076774597168, 0, 0, 0, 0.0, 0.0, 0.0, 0.0, 0.5305315256118774, 0.45395463705062866, 1.2723135948181152, 0.18214266002178192, 0.14392079412937164, -3.631056308746338
1104537, 6.20570707321167, 6.93951940536499, -0.3687714636325836, 0.5356741547584534, 0.4567927122116089, 1.2358760833740234, 0.6314219832420349, 0.5388222336769104, -3.7416398525238037, 0, 0, 0, 0.0, 0.0, 0.0, 0.0, 0.5356741547584534, 0.4567927122116089, 1.2358760833740234, 0.17082667350769043, 0.12960834801197052, -3.826613426208496
1104547, 6.648169040679932, 7.377083778381348, -0.4246053099632263, 0.5375562310218811, 0.45453983545303345, 1.1974822282791138, 0.6380130052566528, 0.537497878074646, -3.9373342990875244, 0, 0, 0, 0.0, 0.0, 0.0, 0.0, 0.5434198379516602, 0.45882293581962585, 1.3408541679382324, 0.17171956598758698, 0.1180780678987503, -3.2104787826538086
1104557, 6.5545501708984375, 7.344288349151611, -0.4130397439002991, 0.5515673756599426, 0.4711062014102936, 1.308616042137146, 0.602640688419342, 0.5143253803253174, -3.321535348892212, 0, 0, 0, 0.0, 0.0, 0.0, 0.0, 0.5515673756599426, 0.4711062014102936, 1.308616042137146, 0.16898725926876068, 0.13007678091526031, -3.40805983543396
1104567, 6.5755534172058105, 7.388845443725586, -0.41580209136009216, 0.5533648133277893, 0.4739415943622589, 1.2744208574295044, 0.6099873781204224, 0.5237595438957214, -3.5168793201446533, 0, 0, 0, 0.0, 0.0, 0.0, 0.0, 0.5533648133277893, 0.4739415943622589, 1.2744208574295044, 0.14855611324310303, 0.11595547199249268, -3.602691411972046
1104577, 6.566366672515869, 7.398877143859863, -0.40804654359817505, 0.5620480179786682, 0.4785313606262207, 1.2382781505584717, 0.6307942867279053, 0.5365627408027649, -3.71211838722229, 0, 0, 0, 0.0, 0.0, 0.0, 0.0, 0.5940325856208801, 0.5097393989562988, 1.3693926334381104, 0.23871470987796783, 0.19709791243076324, -3.0633296966552734
1104587, 6.560769557952881, 7.390927791595459, -0.40789902210235596, 0.6004142165184021, 0.515232264995575, 1.3387701511383057, 0.6460146307945251, 0.5562325119972229, -3.1599647998809814, 0, 0, 0, 0.0, 0.0, 0.0, 0.0, 0.6004142165184021, 0.515232264995575, 1.3387701511383057, 0.22976259887218475, 0.18933996558189392, -3.2593724727630615
1104597, 6.639813423156738, 7.434120178222656, -0.41697871685028076, 0.6023039221763611, 0.5130457878112793, 1.3061816692352295, 0.6531070470809937, 0.5550897121429443, -3.3554770946502686, 0, 0, 0, 0.0, 0.0, 0.0, 0.0, 0.6023039221763611, 0.5130457878112793, 1.3061816692352295, 0.2089957445859909, 0.16121520102024078, -3.4531545639038086
1104607, 6.569442272186279, 7.433960437774658, -0.405049592256546, 0.6041256785392761, 0.5177016854286194, 1.2716442346572876, 0.6601389050483704, 0.56749027967453, -3.550790786743164, 0, 0, 0, 0.0, 0.0, 0.0, 0.0, 0.6041256785392761, 0.5177016854286194, 1.2716442346572876, 0.187807098031044, 0.15080632269382477, -3.6480109691619873
1104617, 6.484780311584473, 7.370083808898926, -0.394685834646225, 0.643923282623291, 0.5574281811714172, 1.3116421699523926, 0.7019343376159668, 0.6139373779296875, -3.312426805496216, 0, 0, 0, 0.0, 0.0, 0.0, 0.0, 0.643923282623291, 0.5574281811714172, 1.3116421699523926, 0.26650741696357727, 0.23324981331825256, -3.4229249954223633
1104627, 6.585704803466797, 7.4322509765625, -0.4080866575241089, 0.6441250443458557, 0.5533709526062012, 1.277525544166565, 0.704884946346283, 0.6087070107460022, -3.507922649383545, 0, 0, 0, 0.0, 0.0, 0.0, 0.0, 0.6441250443458557, 0.5533709526062012, 1.277525544166565, 0.24030594527721405, 0.199864462018013, -3.615974187850952
1104637, 6.519685745239258, 7.4694647789001465, -0.3984677791595459, 0.6495668292045593, 0.5673419237136841, 1.2414764165878296, 0.7178531885147095, 0.6371904015541077, -3.7032644748687744, 0, 0, 0, 0.0, 0.0, 0.0, 0.0, 0.6495668292045593, 0.5673419237136841, 1.2414764165878296, 0.2272319197654724, 0.21152250468730927, -3.8130271434783936
1104647, 6.531711101531982, 7.426405429840088, -0.39914485812187195, 0.6910809278488159, 0.598829984664917, 1.295864462852478, 0.7511157393455505, 0.6577731966972351, -3.3757176399230957, 0, 0, 0, 0.0, 0.0, 0.0, 0.0, 0.6910809278488159, 0.598829984664917, 1.295864462852478, 0.30341005325317383, 0.26659709215164185, -3.4970312118530273
1104657, 6.5255937576293945, 7.421145915985107, -0.3988301753997803, 0.6986743807792664, 0.6054802536964417, 1.2611322402954102, 0.7671080827713013, 0.6718741655349731, -3.570906400680542, 0, 0, 0, 0.0, 0.0, 0.0, 0.0, 0.6986743807792664, 0.6054802536964417, 1.2611322402954102, 0.2944643199443817, 0.2588026523590088, -3.69291353225708
1104667, 6.809569358825684, 7.697928428649902, -0.439166396856308, 0.6966657042503357, 0.6027474999427795, 1.2244397401809692, 0.7656747102737427, 0.6688263416290283, -3.765854597091675, 0, 0, 0, 0.0, 0.0, 0.0, 0.0, 0.6966657042503357, 0.6027474999427795, 1.2244397401809692, 0.2617032825946808, 0.22787971794605255, -3.88521409034729
1104677, 6.749265670776367, 7.712763786315918, -0.4311940670013428, 0.7288198471069336, 0.6356142163276672, 1.291413426399231, 0.7695876359939575, 0.681003212928772, -3.359539747238159, 0, 0, 0, 0.0, 0.0, 0.0, 0.0, 0.7288198471069336, 0.6356142163276672, 1.291413426399231, 0.3062676191329956, 0.2783184051513672, -3.4887425899505615
1104687, 6.780551433563232, 7.654809474945068, -0.4350523352622986, 0.7420628666877747, 0.6385886073112488, 1.2568453550338745, 0.7958011031150818, 0.688370943069458, -3.554508924484253, 0, 0, 0, 0.0, 0.0, 0.0, 0.0, 0.7420628666877747, 0.6385886073112488, 1.2568453550338745, 0.3096458315849304, 0.2608262002468109, -3.6848106384277344
1104697, 6.771833419799805, 7.6673102378845215, -0.4330778419971466, 0.7478616833686829, 0.6456246972084045, 1.2203261852264404, 0.8081164956092834, 0.7029080390930176, -3.7493677139282227, 0, 0, 0, 0.0, 0.0, 0.0, 0.0, 0.7478616833686829, 0.6456246972084045, 1.2203261852264404, 0.2947661876678467, 0.2527278959751129, -3.8799729347229004
1104707, 7.229870319366455, 8.097521781921387, -0.5005285739898682, 0.7455690503120422, 0.6405770182609558, 1.1818537712097168, 0.8066399693489075, 0.6967125535011292, -3.9444453716278076, 0, 0, 0, 0.0, 0.0, 0.0, 0.0, 0.7728829383850098, 0.6599223017692566, 1.3072830438613892, 0.3130769729614258, 0.2511574625968933, -3.3582749366760254
1104717, 7.23870325088501, 8.092401504516602, -0.5019594430923462, 0.7805490493774414, 0.664925754070282, 1.2740797996520996, 0.797768235206604, 0.6777027249336243, -3.4179770946502686, 0, 0, 0, 0.0, 0.0, 0.0, 0.0, 0.7805490493774414, 0.664925754070282, 1.2740797996520996, 0.30232053995132446, 0.2383420467376709, -3.553889036178589
1104727, 7.157761573791504, 8.050930976867676, -0.4900803864002228, 0.7922672629356384, 0.6798471808433533, 1.2389309406280518, 0.82117760181427, 0.7067747116088867, -3.6129183769226074, 0, 0, 0, 0.0, 0.0, 0.0, 0.0, 0.7922672629356384, 0.6798471808433533, 1.2389309406280518, 0.3004719316959381, 0.24778404831886292, -3.7517218589782715
1104737, 7.196804523468018, 8.166817665100098, -0.49453598260879517, 0.7901513576507568, 0.6851212382316589, 1.2018214464187622, 0.8206363916397095, 0.7186549305915833, -3.808014392852783, 0, 0, 0, 0.0, 0.0, 0.0, 0.0, 0.7946804761886597, 0.6891259551048279, 1.2163676023483276, 0.27548298239707947, 0.24249693751335144, -3.862093448638916
1104747, 7.207776069641113, 8.1072359085083, -0.49625030159950256, 0.8090174198150635, 0.6943756937980652, 1.1781622171401978, 0.8469903469085693, 0.7297173738479614, -3.918269157409668, 0, 0, 0, 0.0, 0.0, 0.0, 0.0, 0.8090174198150635, 0.6943756937980652, 1.1781622171401978, 0.2791944444179535, 0.2292017936706543, -4.058607578277588
1104757, 7.293022155761719, 8.19274616241455, -0.5085135698318481, 0.806612491607666, 0.6912081837654114, 1.1379954814910889, 0.8462594747543335, 0.7278256416320801, -4.113381862640381, 0, 0, 0, 0.0, 0.0, 0.0, 0.0, 0.806612491607666, 0.6912081837654114, 1.1379954814910889, 0.2443600594997406, 0.1967431604862213, -4.250582218170166
1104767, 6.994464874267578, 7.782989025115967, -0.4733907878398895, 0.8150712251663208, 0.6945244073867798, 1.09588623046875, 0.8632965683937073, 0.7367058992385864, -4.3082427978515625, 0, 0, 0, 0.0, 0.0, 0.0, 0.0, 0.8150712251663208, 0.6945244073867798, 1.09588623046875, 0.2339264452457428, 0.17886772751808167, -4.4454851150512695
1104777, 6.880890369415283, 7.720402240753174, -0.45773839950561523, 0.7764325141906738, 0.6648876070976257, 0.8868904113769531, 0.8880968689918518, 0.766158401966095, -5.459290504455566, 0, 0, 0, 0.0, 0.0, 0.0, 0.0, 0.7764325141906738, 0.6648876070976257, 0.8868904113769531, 0.13965751230716705, 0.10473126173019409, -5.581148147583008
1104787, 6.874983787536621, 7.714027404785156, -0.45721209049224854, 0.7853986024856567, 0.6726252436637878, 0.8313223719596863, 0.9043524861335754, 0.7806950211524963, -5.654533863067627, 0, 0, 0, 0.0, 0.0, 0.0, 0.0, 0.7853986024856567, 0.6726252436637878, 0.8313223719596863, 0.130319744348526, 0.09646104276180267, -5.77710485458374
1104797, 7.908986568450928, 9.00792407989502, -0.5996277928352356, 0.7797924280166626, 0.6788960099220276, 0.7738003134727478, 0.9008193612098694, 0.7931934595108032, -5.849552631378174, 0, 0, 0, 0.0, 0.0, 0.0, 0.0, 0.7797924280166626, 0.6788960099220276, 0.7738003134727478, 0.08858953416347504, 0.08479072153568268, -5.970175743103027
1104807, 7.911731243133545, 8.926787376403809, -0.6004199385643005, 0.8301815390586853, 0.7169029712677002, 0.9641328454017639, 0.8490704298019409, 0.7398640513420105, -4.563636302947998, 0, 0, 0, 0.0, 0.0, 0.0, 0.0, 0.8301815390586853, 0.7169029712677002, 0.9641328454017639, 0.12209699302911758, 0.10246757417917252, -4.697847843170166
1104817, 8.021825790405273, 8.9929780960083, -0.6184101700782776, 0.8295791745185852, 0.7102723717689514, 0.9175180792808533, 0.8535789251327515, 0.7348824143409729, -4.758878231048584, 0, 0, 0, 0.0, 0.0, 0.0, 0.0, 0.8295791745185852, 0.7102723717689514, 0.9175180792808533, 0.09068482369184494, 0.06181536242365837, -4.889132976531982
1104828, 8.423827171325684, 9.549661636352539, -0.674331545829773, 0.8382105827331543, 0.7177059650421143, 0.8689590692520142, 0.8719267845153809, 0.7511586546897888, -4.953164577484131, 0, 0, 0, 0.0, 0.0, 0.0, 0.0, 0.8382105827331543, 0.7177059650421143, 0.8689590692520142, 0.07890307158231735, 0.051523320376873016, -5.084246635437012
1104837, 8.41406536102295, 9.53881549835205, -0.6717085838317871, 0.9717905521392822, 0.8452062606811523, 1.0935084819793701, 0.890845775604248, 0.7847285866737366, -3.488495111465454, 0, 0, 0, 0.0, 0.0, 0.0, 0.0, 0.9717905521392822, 0.8452062606811523, 1.0935084819793701, 0.29058176279067993, 0.2611924111843109, -3.6642048358917236
1104847, 8.405333518981934, 9.528571128845215, -0.6699439287185669, 0.9807997941970825, 0.8531413078308105, 1.0576531887054443, 0.9103887677192688, 0.8017449975013733, -3.6828253269195557, 0, 0, 0, 0.0, 0.0, 0.0, 0.0, 0.9807997941970825, 0.8531413078308105, 1.0576531887054443, 0.27816763520240784, 0.25033149123191833, -3.8593814373016357
1104857, 8.41996955871582, 9.576601028442383, -0.6718776226043701, 0.9824431538581848, 0.8586314916610718, 1.0198417901992798, 0.9179773926734924, 0.8145840167999268, -3.8774161338806152, 0, 0, 0, 0.0, 0.0, 0.0, 0.0, 0.9824431538581848, 0.8586314916610718, 1.0198417901992798, 0.2498830109834671, 0.23394997417926788, -4.052588939666748
1104867, 8.594842910766602, 9.601910591125488, -0.7120374441146851, 0.9866430163383484, 0.8521389365196228, 0.9800674319267273, 0.9297689199447632, 0.8089802265167236, -4.072257041931152, 0, 0, 0, 0.0, 0.0, 0.0, 0.0, 1.1616976261138916, 0.9975172877311707, 1.2152204513549805, 0.5566655993461609, 0.4639741778373718, -2.889460563659668
1104877, 8.614923477172852, 9.641637802124023, -0.7161073684692383, 1.1720521450042725, 1.0063902139663696, 1.1876964569091797, 1.0450847148895264, 0.8958243131637573, -2.8496832847595215, 0, 0, 0, 0.0, 0.0, 0.0, 0.0, 1.1656521558761597, 1.0027951002120972, 1.187682867050171, 0.5308164358139038, 0.4454214870929718, -3.082747459411621
1104887, 8.556037902832031, 9.604061126708984, -0.7058506011962891, 1.1760958433151245, 1.0117815732955933, 1.158213496208191, 1.0539841651916504, 0.9071041345596313, -3.0442497730255127, 0, 0, 0, 0.0, 0.0, 0.0, 0.0, 1.179990530014038, 1.018478512763977, 1.1582294702529907, 0.5259677171707153, 0.4478338658809662, -3.279707193374634
1104897, 8.614222526550293, 9.67978572845459, -0.7163114547729492, 1.1906957626342773, 1.0277506113052368, 1.1268200874328613, 1.0800817012786865, 0.9357572197914124, -3.2381680011749268, 0, 0, 0, 0.0, 0.0, 0.0, 0.0, 1.1818485260009766, 1.0217626094818115, 1.1267952919006348, 0.4952380061149597, 0.42471379041671753, -3.472092628479004
1104907, 8.621795654296875, 9.675030708312988, -0.7187561392784119, 1.2428969144821167, 1.0744783878326416, 1.1596535444259644, 1.1147053241729736, 0.968079686164856, -3.066845417022705, 0, 0, 0, 0.0, 0.0, 0.0, 0.0, 1.242262601852417, 1.072425127029419, 1.1596508026123047, 0.5698707699775696, 0.4861401915550232, -3.318983793258667
1104917, 8.613981246948242, 9.665173530578613, -0.7174798250198364, 1.253501057624817, 1.0821629762649536, 1.1280137300491333, 1.13346266746521, 0.9823503494262695, -3.260882616043091, 0, 0, 0, 0.0, 0.0, 0.0, 0.0, 1.253501057624817, 1.0821629762649536, 1.1280137300491333, 0.5570822954177856, 0.4750969409942627, -3.5138440132141113
1104927, 8.82426643371582, 9.89951229095459, -0.74992835521698, 1.2649372816085815, 1.0920761823654175, 1.094436764717102, 1.15318763256073, 0.9997907876968384, -3.454848527908325, 0, 0, 0, 0.0, 0.0, 0.0, 0.0, 1.2649372816085815, 1.0920761823654175, 1.094436764717102, 0.544352650642395, 0.4639221727848053, -3.708627223968506
1104937, 8.912811279296875, 9.976537704467773, -0.7655438184738159, 1.3673490285873413, 1.1784312725067139, 1.1946754455566406, 1.1994696855545044, 1.035094141960144, -2.875251531600952, 0, 0, 0, 0.0, 0.0, 0.0, 0.0, 1.3673490285873413, 1.1784312725067139, 1.1946754455566406, 0.6690933108329773, 0.5673446655273438, -3.163494348526001
1104947, 8.907140731811523, 10.006383895874023, -0.7652363777160645, 1.3736821413040161, 1.1883901357650757, 1.1649500131607056, 1.210679531097412, 1.052065372467041, -3.0693655014038086, 0, 0, 0, 0.0, 0.0, 0.0, 0.0, 1.3736821413040161, 1.1883901357650757, 1.1649500131607056, 0.6443905234336853, 0.5544725060462952, -3.357224941253662
1104957, 9.510677337646484, 10.666851997375488, -0.8624183535575867, 1.380122184753418, 1.1871936321258545, 1.1332768201828003, 1.2220059633255005, 1.0515331029891968, -3.263383626937866, 0, 0, 0, 0.0, 0.0, 0.0, 0.0, 1.380122184753418, 1.1871936321258545, 1.1332768201828003, 0.6198081374168396, 0.5198698043823242, -3.5488476753234863
1104967, 9.500850677490234, 10.657020568847656, -0.860575258731842, 1.5432403087615967, 1.3345922231674194, 1.3077218532562256, 1.2766162157058716, 1.107214331626892, -2.280386447906494, 0, 0, 0, 0.0, 0.0, 0.0, 0.0, 1.5432403087615967, 1.3345922231674194, 1.3077218532562256, 0.8159424662590027, 0.7020134329795837, -2.626267671585083
1104977, 9.583454132080078, 10.737384796142578, -0.875640869140625, 1.542414903640747, 1.332798719406128, 1.2839388847351074, 1.2758427858352661, 1.105049729347229, -2.4742820262908936, 0, 0, 0, 0.0, 0.0, 0.0, 0.0, 1.542414903640747, 1.332798719406128, 1.2839388847351074, 0.7752075791358948, 0.6645575761795044, -2.8157477378845215
1104987, 9.537172317504883, 10.71270751953125, -0.8682856559753418, 1.5576022863388062, 1.3492157459259033, 1.2582364082336426, 1.3012440204620361, 1.1324889659881592, -2.667562961578369, 0, 0, 0, 0.0, 0.0, 0.0, 0.0, 1.5576022863388062, 1.3492157459259033, 1.2582364082336426, 0.7652197480201721, 0.6617895364761353, -3.011340856552124
1104997, 9.78079891204834, 10.987540245056152, -0.9114904999732971, 1.5707247257232666, 1.3606376647949219, 1.2305957078933716, 1.3227126598358154, 1.151423692703247, -2.861018657684326, 0, 0, 0, 0.0, 0.0, 0.0, 0.0, 1.6447136402130127, 1.4257004261016846, 1.3179142475128174, 0.8485135436058044, 0.736052393913269, -2.7426645755767822
1105007, 9.875823020935059, 11.053459167480469, -0.9302747249603271, 1.646153211593628, 1.422021746635437, 1.293250322341919, 1.3462891578674316, 1.1654081344604492, -2.562246561050415, 0, 0, 0, 0.0, 0.0, 0.0, 0.0, 1.646153211593628, 1.422021746635437, 1.293250322341919, 0.8106822967529297, 0.6940705180168152, -2.9320430755615234
1105017, 9.86014461517334, 11.152847290039062, -0.9255572557449341, 1.6430530548095703, 1.4349766969680786, 1.2666516304016113, 1.3425925970077515, 1.1868746280670166, -2.7559449672698975, 0, 0, 0, 0.0, 0.0, 0.0, 0.0, 1.6430530548095703, 1.4349766969680786, 1.2666516304016113, 0.7646884322166443, 0.68316251039505, -3.1233065128326416
1105027, 10.036236763000488, 11.359840393066406, -0.9613661766052246, 1.6611462831497192, 1.4543706178665161, 1.2381383180618286, 1.3718000650405884, 1.2176625728607178, -2.9489657878875732, 0, 0, 0, 0.0, 0.0, 0.0, 0.0, 1.7311900854110718, 1.5141750574111938, 1.309195637702942, 0.8473528027534485, 0.759566605091095, -2.944448709487915
1105037, 10.129432678222656, 11.3463773727417, -0.9819664359092712, 1.7454016208648682, 1.5106505155563354, 1.282770037651062, 1.4199399948120117, 1.2335169315338135, -2.73866868019104, 0, 0, 0, 0.0, 0.0, 0.0, 0.0, 1.7454016208648682, 1.5106505155563354, 1.282770037651062, 0.8318100571632385, 0.7168828248977661, -3.135652542114258
1105047, 10.140325546264648, 11.374598503112793, -0.98343825340271, 1.7532835006713867, 1.5197283029556274, 1.2544121742248535, 1.4327354431152344, 1.2484374046325684, -2.9320545196533203, 0, 0, 0, 0.0, 0.0, 0.0, 0.0, 1.7532835006713867, 1.5197283029556274, 1.2544121742248535, 0.8043946027755737, 0.6972493529319763, -3.3279290199279785
1105057, 10.935298919677734, 12.223978996276855, -1.1635321378707886, 1.7459830045700073, 1.5246509313583374, 1.2241034507751465, 1.4233031272888184, 1.257097840309143, -3.125633955001831, 0, 0, 0, 0.0, 0.0, 0.0, 0.0, 1.7459830045700073, 1.5246509313583374, 1.2241034507751465, 0.7494879364967346, 0.6698827147483826, -3.5164260864257812
1105067, 10.95804500579834, 12.167325019836426, -1.1699352264404297, 1.973217248916626, 1.7008057832717896, 1.377549409866333, 1.5335679054260254, 1.3183085918426514, -2.2620062828063965, 0, 0, 0, 0.0, 0.0, 0.0, 0.0, 1.973217248916626, 1.7008057832717896, 1.377549409866333, 0.9951852560043335, 0.8435181975364685, -2.7394449710845947
1105077, 10.9202880859375, 12.197701454162598, -1.1602332592010498, 1.981942057609558, 1.7185227870941162, 1.3539676666259766, 1.5472607612609863, 1.3463386297225952, -2.454460620880127, 0, 0, 0, 0.0, 0.0, 0.0, 0.0, 1.981942057609558, 1.7185227870941162, 1.3539676666259766, 0.966190755367279, 0.8365997076034546, -2.9321725368499756
1105087, 10.997293472290039, 12.273344039916992, -1.1774126291275024, 1.9826709032058716, 1.718087911605835, 1.3284379243850708, 1.5490748882293701, 1.3466112613677979, -2.6474826335906982, 0, 0, 0, 0.0, 0.0, 0.0, 0.0, 1.9826709032058716, 1.718087911605835, 1.3284379243850708, 0.9228081703186035, 0.7970218062400818, -3.1201579570770264
1105097, 10.980095863342285, 12.20472240447998, -1.1734169721603394, 1.9857014417648315, 1.7134588956832886, 1.2898374795913696, 1.569201111793518, 1.353890061378479, -2.90330171585083, 0, 0, 0, 0.0, 0.0, 0.0, 0.0, 1.9857014417648315, 1.7134588956832886, 1.2898374795913696, 0.8916652798652649, 0.7572324872016907, -3.369889259338379
1105107, 10.968949317932129, 12.190195083618164, -1.1710197925567627, 2.001516580581665, 1.7271065711975098, 1.259844183921814, 1.5931795835494995, 1.3750600814819336, -3.095966339111328, 0, 0, 0, 0.0, 0.0, 0.0, 0.0, 2.001516580581665, 1.7271065711975098, 1.259844183921814, 0.8748183250427246, 0.7422761917114258, -3.5633962154388428
1105117, 11.051765441894531, 12.273279190063477, -1.188980221748352, 2.001166343688965, 1.7256674766540527, 1.227894902229309, 1.594238519668579, 1.3748376369476318, -3.2890162467956543, 0, 0, 0, 0.0, 0.0, 0.0, 0.0, 2.001166343688965, 1.7256674766540527, 1.227894902229309, 0.8296076655387878, 0.7008963823318481, -3.7509944438934326
1105127, 11.425023078918457, 12.66396427154541, -1.2649635076522827, 2.0122570991516113, 1.7310024499893188, 1.194031000137329, 1.6114808320999146, 1.3843332529067993, -3.481748104095459, 0, 0, 0, 0.0, 0.0, 0.0, 0.0, 2.1236002445220947, 1.8296988010406494, 1.2770246267318726, 0.9304203391075134, 0.7846308946609497, -3.517650604248047
1105137, 11.385348320007324, 12.657149314880371, -1.2548234462738037, 2.1394360065460205, 1.8489795923233032, 1.2459914684295654, 1.685434103012085, 1.4587640762329102, -3.1999847888946533, 0, 0, 0, 0.0, 0.0, 0.0, 0.0, 2.1394360065460205, 1.8489795923233032, 1.2459914684295654, 0.9109138250350952, 0.7773761749267578, -3.7114105224609375
1105147, 11.374324798583984, 12.643580436706543, -1.2532278299331665, 2.156416893005371, 1.86367928981781, 1.2130335569381714, 1.7099888324737549, 1.4805188179016113, -3.392265796661377, 0, 0, 0, 0.0, 0.0, 0.0, 0.0, 2.156416893005371, 1.86367928981781, 1.2130335569381714, 0.8930981159210205, 0.7618203163146973, -3.904553174972534
1105157, 11.686246871948242, 12.949562072753906, -1.3167312145233154, 2.1605637073516846, 1.8593965768814087, 1.17812180519104, 1.7170265913009644, 1.4763319492340088, -3.5850348472595215, 0, 0, 0, 0.0, 0.0, 0.0, 0.0, 2.2261927127838135, 1.9187560081481934, 1.2247434854507446, 0.9236941933631897, 0.7791340947151184, -3.8530051708221436
1105167, 11.674604415893555, 12.958982467651367, -1.3150370121002197, 2.24015736579895, 1.9340728521347046, 1.1906267404556274, 1.7660870552062988, 1.5266910791397095, -3.507882833480835, 0, 0, 0, 0.0, 0.0, 0.0, 0.0, 2.24015736579895, 1.9340728521347046, 1.1906267404556274, 0.8990938663482666, 0.7633123993873596, -4.045261859893799
1105177, 11.678099632263184, 12.99512004852295, -1.3142263889312744, 2.2492871284484863, 1.9471296072006226, 1.1545823812484741, 1.7797775268554688, 1.5457457304000854, -3.700087785720825, 0, 0, 0, 0.0, 0.0, 0.0, 0.0, 2.2492871284484863, 1.9471296072006226, 1.1545823812484741, 0.8662323951721191, 0.7433972358703613, -4.236114501953125
1105187, 12.480680465698242, 13.879339218139648, -1.477852463722229, 2.2508347034454346, 1.9424248933792114, 1.1165945529937744, 1.7837129831314087, 1.5416008234024048, -3.892421245574951, 0, 0, 0, 0.0, 0.0, 0.0, 0.0, 2.2508347034454346, 1.9424248933792114, 1.1165945529937744, 0.8205440640449524, 0.6935765743255615, -4.422086238861084
1105197, 12.512723922729492, 13.922934532165527, -1.4845298528671265, 2.4480271339416504, 2.124037027359009, 1.2160090208053589, 1.86799156665802, 1.6290985345840454, -3.3138327598571777, 0, 0, 0, 0.0, 0.0, 0.0, 0.0, 2.4480271339416504, 2.124037027359009, 1.2160090208053589, 0.97303307056427, 0.8442994952201843, -3.932591676712036
1105207, 12.490514755249023, 13.959490776062012, -1.4785044193267822, 2.4579458236694336, 2.142540454864502, 1.1819112300872803, 1.8827102184295654, 1.6553071737289429, -3.5054194927215576, 0, 0, 0, 0.0, 0.0, 0.0, 0.0, 2.4579458236694336, 2.142540454864502, 1.1819112300872803, 0.9385495781898499, 0.8304194211959839, -4.123373508453369
1105217, 12.122060775756836, 13.57632827758789, -1.3911678791046143, 2.47691011428833, 2.1592142581939697, 1.1459038257598877, 1.9092278480529785, 1.6786689758300781, -3.6968955993652344, 0, 0, 0, 0.0, 0.0, 0.0, 0.0, 2.47691011428833, 2.1592142581939697, 1.1459038257598877, 0.9183674454689026, 0.8132270574569702, -4.315722942352295
1105227, 12.142732620239258, 13.555800437927246, -1.3988707065582275, 2.3858065605163574, 2.0733535289764404, 1.0434614419937134, 1.8783421516418457, 1.6435563564300537, -4.265076160430908, 0, 0, 0, 0.0, 0.0, 0.0, 0.0, 2.3858065605163574, 2.0733535289764404, 1.0434614419937134, 0.7858197689056396, 0.6874599456787109, -4.830144882202148
1105237, 12.198010444641113, 13.59816837310791, -1.4121519327163696, 2.3946447372436523, 2.07818603515625, 0.9998375773429871, 1.891951322555542, 1.6520190238952637, -4.457076072692871, 0, 0, 0, 0.0, 0.0, 0.0, 0.0, 2.3946447372436523, 2.07818603515625, 0.9998375773429871, 0.7498880624771118, 0.6516229510307312, -5.0186991691589355
1105247, 13.183390617370605, 14.609140396118164, -1.6640015840530396, 2.3885092735290527, 2.0740084648132324, 0.9542728066444397, 1.8876564502716064, 1.6498664617538452, -4.649232387542725, 0, 0, 0, 0.0, 0.0, 0.0, 0.0, 2.3885092735290527, 2.0740084648132324, 0.9542728066444397, 0.6893185377120972, 0.6008571982383728, -5.20236349105835
1105257, 13.129584312438965, 14.579193115234375, -1.651159644126892, 2.6308369636535645, 2.28519868850708, 1.0425217151641846, 2.022109270095825, 1.7665470838546753, -4.046943187713623, 0, 0, 0, 0.0, 0.0, 0.0, 0.0, 2.6308369636535645, 2.28519868850708, 1.0425217151641846, 0.8870633244514465, 0.7729405760765076, -4.7120208740234375
1105267, 13.140144348144531, 14.653727531433105, -1.6510744094848633, 2.634490966796875, 2.299203634262085, 1.0010876655578613, 2.0291566848754883, 1.7861236333847046, -4.238280296325684, 0, 0, 0, 0.0, 0.0, 0.0, 0.0, 2.634490966796875, 2.299203634262085, 1.0010876655578613, 0.8392136693000793, 0.7486164569854736, -4.899604797363281
1105277, 13.244245529174805, 14.664566993713379, -1.6823973655700684, 2.6498801708221436, 2.2955498695373535, 0.9577363133430481, 2.0507028102874756, 1.7841901779174805, -4.429543972015381, 0, 0, 0, 0.0, 0.0, 0.0, 0.0, 2.6498801708221436, 2.2955498695373535, 0.9577363133430481, 0.8097386360168457, 0.6958462595939636, -5.086236000061035
1105287, 15.066216468811035, 16.411462783813477, -2.2087385654449463, 2.6527388095855713, 2.2911622524261475, 0.9124556183815002, 2.057515859603882, 1.7821073532104492, -4.621110439300537, 0, 0, 0, 0.0, 0.0, 0.0, 0.0, 3.090521812438965, 2.6604080200195312, 1.1607378721237183, 1.1790493726730347, 0.9860330820083618, -4.023482799530029
1105297, 15.036216735839844, 16.43073272705078, -2.199202299118042, 3.1067774295806885, 2.682713747024536, 1.1283247470855713, 2.255159616470337, 1.9451755285263062, -3.3363497257232666, 0, 0, 0, 0.0, 0.0, 0.0, 0.0, 3.1067774295806885, 2.682713747024536, 1.1283247470855713, 1.14516282081604, 0.9696145057678223, -4.212981224060059
1105307, 15.13155746459961, 16.522441864013672, -2.225430965423584, 3.1081676483154297, 2.6827104091644287, 1.093965768814087, 2.2589900493621826, 1.9476429224014282, -3.527472972869873, 0, 0, 0, 0.0, 0.0, 0.0, 0.0, 3.1081676483154297, 2.6827104091644287, 1.093965768814087, 1.0871448516845703, 0.9176174998283386, -4.394950866699219
1105317, 15.76268196105957, 17.174854278564453, -2.3915958404541016, 3.1298868656158447, 2.6979317665100098, 1.0577418804168701, 2.2884199619293213, 1.969308614730835, -3.716848850250244, 0, 0, 0, 0.0, 0.0, 0.0, 0.0, 3.4071946144104004, 2.943471670150757, 1.1767836809158325, 1.3460028171539307, 1.143784523010254, -4.0191802978515625
1105327, 15.778615951538086, 17.2196044921875, -2.396254062652588, 3.4194512367248535, 2.959139347076416, 1.1458221673965454, 2.442997694015503, 2.11531662940979, -3.1893138885498047, 0, 0, 0, 0.0, 0.0, 0.0, 0.0, 3.4194512367248535, 2.959139347076416, 1.1458221673965454, 1.3016244173049927, 1.1132349967956543, -4.204888343811035
1105337, 15.762622833251953, 17.202136993408203, -2.391317367553711, 3.444045066833496, 2.9804375171661377, 1.1129920482635498, 2.4747655391693115, 2.1433963775634766, -3.3780171871185303, 0, 0, 0, 0.0, 0.0, 0.0, 0.0, 3.444045066833496, 2.9804375171661377, 1.1129920482635498, 1.2761623859405518, 1.0911946296691895, -4.394360542297363
1105347, 15.896251678466797, 17.35286521911621, -2.4228603839874268, 3.4689557552337646, 3.002016067504883, 1.078275442123413, 2.5062999725341797, 2.171351432800293, -3.5666375160217285, 0, 0, 0, 0.0, 0.0, 0.0, 0.0, 3.4689557552337646, 3.002016067504883, 1.078275442123413, 1.2507457733154297, 1.0690757036209106, -4.583668231964111
1105357, 16.009775161743164, 17.42450714111328, -2.4580955505371094, 3.557321310043335, 3.0725760459899902, 1.0704498291015625, 2.5634799003601074, 2.2139127254486084, -3.5822548866271973, 0, 0, 0, 0.0, 0.0, 0.0, 0.0, 3.557321310043335, 3.0725760459899902, 1.0704498291015625, 1.2788981199264526, 1.084180474281311, -4.636211395263672
1105367, 16.035655975341797, 17.557960510253906, -2.4595305919647217, 3.552584648132324, 3.088655710220337, 1.0336042642593384, 2.55859637260437, 2.234952926635742, -3.7720067501068115, 0, 0, 0, 0.0, 0.0, 0.0, 0.0, 3.552584648132324, 3.088655710220337, 1.0336042642593384, 1.2063161134719849, 1.0518690347671509, -4.817461967468262
1105377, 16.024417877197266, 17.50273323059082, -2.4599997997283936, 3.5860559940338135, 3.1094870567321777, 0.9949652552604675, 2.6000003814697266, 2.2609598636627197, -3.9602742195129395, 0, 0, 0, 0.0, 0.0, 0.0, 0.0, 3.5860559940338135, 3.1094870567321777, 0.9949652552604675, 1.1922273635864258, 1.0267324447631836, -5.008017539978027
1105387, 17.72747230529785, 19.361591339111328, -2.9298627376556396, 4.374598979949951, 3.823822021484375, 1.2373155355453491, 3.016089916229248, 2.6625874042510986, -2.5043036937713623, 0, 0, 0, 0.0, 0.0, 0.0, 0.0, 4.374598979949951, 3.823822021484375, 1.2373155355453491, 1.8815113306045532, 1.6688060760498047, -4.016566276550293
1105397, 17.812057495117188, 19.388029098510742, -2.9616501331329346, 4.395444393157959, 3.8312418460845947, 1.2113076448440552, 3.0393145084381104, 2.6685218811035156, -2.6920745372772217, 0, 0, 0, 0.0, 0.0, 0.0, 0.0, 4.395444393157959, 3.8312418460845947, 1.2113076448440552, 1.8380646705627441, 1.6144163608551025, -4.197734832763672
1105407, 17.92713165283203, 19.482078552246094, -2.9994843006134033, 4.402290344238281, 3.8337080478668213, 1.1833882331848145, 3.0448434352874756, 2.6686861515045166, -2.880345582962036, 0, 0, 0, 0.0, 0.0, 0.0, 0.0, 4.402290344238281, 3.8337080478668213, 1.1833882331848145, 1.7727413177490234, 1.5523186922073364, -4.374602317810059
1105417, 19.806806564331055, 21.24330711364746, -3.6827332973480225, 4.427125930786133, 3.8566973209381104, 1.1536438465118408, 3.072991371154785, 2.6946699619293213, -3.0673489570617676, 0, 0, 0, 0.0, 0.0, 0.0, 0.0, 5.097558975219727, 4.435624599456787, 1.3832288980484009, 2.3310670852661133, 2.032503604888916, -3.6515772342681885
1105427, 19.870508193969727, 21.353134155273438, -3.7033612728118896, 5.104163646697998, 4.451868534088135, 1.365131139755249, 3.3669393062591553, 2.9563775062561035, -1.8999089002609253, 0, 0, 0, 0.0, 0.0, 0.0, 0.0, 5.104163646697998, 4.451868534088135, 1.365131139755249, 2.258300304412842, 1.98433256149292, -3.827362537384033
1105437, 19.904769897460938, 21.370508193969727, -3.716596841812134, 5.13040018081665, 4.4715142250061035, 1.3451926708221436, 3.3957552909851074, 2.9768741130828857, -2.0854291915893555, 0, 0, 0, 0.0, 0.0, 0.0, 0.0, 5.13040018081665, 4.4715142250061035, 1.3451926708221436, 2.214634418487549, 1.94122314453125, -4.008627414703369
1105447, 21.15135383605957, 22.41547966003418, -4.220246315002441, 5.164555072784424, 4.501455307006836, 1.32342529296875, 3.4343459606170654, 3.010575532913208, -2.2703211307525635, 0, 0, 0, 0.0, 0.0, 0.0, 0.0, 5.545638561248779, 4.8152546882629395, 1.439766764640808, 2.4984960556030273, 2.162135362625122, -3.764399766921997
1105457, 21.128110885620117, 22.39434242248535, -4.210274696350098, 5.581752300262451, 4.846631050109863, 1.4231698513031006, 3.631232261657715, 3.1550920009613037, -1.7528095245361328, 0, 0, 0, 0.0, 0.0, 0.0, 0.0, 5.581752300262451, 4.846631050109863, 1.4231698513031006, 2.4647443294525146, 2.132768154144287, -3.948320150375366
1105467, 21.104236602783203, 22.37326431274414, -4.201089859008789, 5.618269920349121, 4.878363132476807, 1.4047361612319946, 3.6715571880340576, 3.190608501434326, -1.9364898204803467, 0, 0, 0, 0.0, 0.0, 0.0, 0.0, 5.618269920349121, 4.878363132476807, 1.4047361612319946, 2.431161642074585, 2.103487014770508, -4.132216930389404
1105477, 22.854122161865234, 23.925403594970703, -4.896190643310547, 5.655190944671631, 4.910449504852295, 1.384464979171753, 3.71178936958313, 3.225918769836426, -2.120321035385132, 0, 0, 0, 0.0, 0.0, 0.0, 0.0, 5.6474127769470215, 4.9024457931518555, 1.3844363689422607, 2.385983467102051, 2.062375545501709, -4.312479019165039
1105487, 22.970470428466797, 24.03548812866211, -4.943800449371338, 6.253393650054932, 5.428218841552734, 1.5111327171325684, 3.9968950748443604, 3.468412160873413, -1.3875834941864014, 0, 0, 0, 0.0, 0.0, 0.0, 0.0, 6.2405266761779785, 5.415231227874756, 1.5111030340194702, 2.787705898284912, 2.4064524173736572, -4.014881134033203
1105497, 22.943735122680664, 24.013139724731445, -4.932950973510742, 6.264052391052246, 5.4390716552734375, 1.496282696723938, 4.001402378082275, 3.4750232696533203, -1.5714664459228516, 0, 0, 0, 0.0, 0.0, 0.0, 0.0, 6.264052391052246, 5.4390716552734375, 1.496282696723938, 2.727292776107788, 2.3589024543762207, -4.189759731292725
1105507, 22.981002807617188, 24.029664993286133, -4.948943138122559, 6.304283618927002, 5.474013805389404, 1.4796735048294067, 4.044094085693359, 3.5127384662628174, -1.7533965110778809, 0, 0, 0, 0.0, 0.0, 0.0, 0.0, 6.295290470123291, 5.462874889373779, 1.4796395301818848, 2.6776530742645264, 2.3112895488739014, -4.366703510284424
1105517, 24.883708953857422, 25.74199676513672, -5.721137046813965, 6.335834503173828, 5.498051643371582, 1.4612035751342773, 4.075258731842041, 3.5360701084136963, -1.9361217021942139, 0, 0, 0, 0.0, 0.0, 0.0, 0.0, 6.922853946685791, 6.022894382476807, 1.6073768138885498, 3.080066680908203, 2.6797056198120117, -4.1303181648254395
1105527, 24.960180282592773, 25.758298873901367, -5.758052825927734, 6.966170310974121, 6.06068229675293, 1.5963135957717896, 4.354142189025879, 3.798535108566284, -1.1980482339859009, 0, 0, 0, 0.0, 0.0, 0.0, 0.0, 6.956556797027588, 6.041713714599609, 1.5962673425674438, 3.0266826152801514, 2.6186985969543457, -4.302911281585693
1105537, 24.976835250854492, 25.7890625, -5.763189315795898, 6.987833499908447, 6.072657585144043, 1.5833543539047241, 4.371890068054199, 3.8051090240478516, -1.3799517154693604, 0, 0, 0, 0.0, 0.0, 0.0, 0.0, 6.987833499908447, 6.072657585144043, 1.5833543539047241, 2.9700164794921875, 2.5744805335998535, -4.4774699211120605
1105547, 24.680269241333008, 25.512836456298828, -5.6405205726623535, 7.031783103942871, 6.110912322998047, 1.5686734914779663, 4.417306900024414, 3.845165252685547, -1.5597814321517944, 0, 0, 0, 0.0, 0.0, 0.0, 0.0, 6.897765636444092, 5.989140033721924, 1.5416451692581177, 2.8201069831848145, 2.4373373985290527, -4.713057994842529
1105557, 24.692081451416016, 25.56838607788086, -5.642065048217773, 6.924622058868408, 6.022128105163574, 1.5234426259994507, 4.36817741394043, 3.8082895278930664, -1.9094210863113403, 0, 0, 0, 0.0, 0.0, 0.0, 0.0, 6.924622058868408, 6.022128105163574, 1.5234426259994507, 2.7575325965881348, 2.3959007263183594, -4.887305736541748
1105567, 24.714229583740234, 25.56629180908203, -5.653241157531738, 6.968533515930176, 6.060412406921387, 1.5034645795822144, 4.413214206695557, 3.847754955291748, -2.089714527130127, 0, 0, 0, 0.0, 0.0, 0.0, 0.0, 6.963540077209473, 6.051089763641357, 1.503441572189331, 2.7112221717834473, 2.349013090133667, -5.06380558013916
1105577, 20.53217124938965, 21.772184371948242, -4.032417297363281, 6.988137245178223, 6.067278861999512, 1.4815864562988281, 4.428895950317383, 3.8492023944854736, -2.271080255508423, 0, 0, 0, 0.0, 0.0, 0.0, 0.0, 6.988137245178223, 6.067278861999512, 1.4815864562988281, 2.644172430038452, 2.2837414741516113, -5.232811450958252
1105587, 20.501657485961914, 21.776832580566406, -4.017141342163086, 5.740660190582275, 4.970422267913818, 1.150232195854187, 3.732424259185791, 3.2305142879486084, -4.174343109130859, 0, 0, 0, 0.0, 0.0, 0.0, 0.0, 5.734915733337402, 4.972841739654541, 1.15022873878479, 1.6904454231262207, 1.4522064924240112, -6.065987586975098
1105597, 20.570096969604492, 21.826505661010742, -4.043056488037109, 5.756552219390869, 4.988763332366943, 1.107555627822876, 3.747802972793579, 3.2493348121643066, -4.357878684997559, 0, 0, 0, 0.0, 0.0, 0.0, 0.0, 5.756552219390869, 4.988763332366943, 1.107555627822876, 1.6350315809249878, 1.4002004861831665, -6.241922855377197
1105607, 22.956892013549805, 24.02446746826172, -4.912579536437988, 5.7734808921813965, 4.993691921234131, 1.0630511045455933, 3.764883279800415, 3.254091262817383, -4.541275501251221, 0, 0, 0, 0.0, 0.0, 0.0, 0.0, 5.7734808921813965, 4.993691921234131, 1.0630511045455933, 1.5724824666976929, 1.3324565887451172, -6.413944244384766
1105617, 22.938859939575195, 24.048593521118164, -4.900619029998779, 6.160702705383301, 5.354471683502197, 1.1476119756698608, 3.9521450996398926, 3.4454915523529053, -3.955660104751587, 0, 0, 0, 0.0, 0.0, 0.0, 0.0, 6.160702705383301, 5.354471683502197, 1.1476119756698608, 1.7125422954559326, 1.483451247215271, -6.1648077964782715
1105627, 23.038677215576172, 24.119234085083008, -4.943955421447754, 6.200443267822266, 5.389117240905762, 1.1071614027023315, 3.9941678047180176, 3.482119560241699, -4.137442111968994, 0, 0, 0, 0.0, 0.0, 0.0, 0.0, 6.178653717041016, 5.366303443908691, 1.1071593761444092, 1.6455261707305908, 1.4199280738830566, -6.334928035736084
1105637, 23.08079719543457, 24.226863861083984, -4.9527058601379395, 6.189002513885498, 5.391510009765625, 1.0648831129074097, 3.982707977294922, 3.485351800918579, -4.320218563079834, 0, 0, 0, 0.0, 0.0, 0.0, 0.0, 6.189002513885498, 5.391510009765625, 1.0648831129074097, 1.5685616731643677, 1.3737940788269043, -6.505875110626221
1105647, 25.681819915771484, 26.42548942565918, -6.0435380935668945, 6.229048728942871, 5.426555633544922, 1.020788550376892, 4.024628162384033, 3.5220508575439453, -4.501733779907227, 0, 0, 0, 0.0, 0.0, 0.0, 0.0, 6.6267547607421875, 5.765013217926025, 1.1712591648101807, 1.7640788555145264, 1.5327939987182617, -6.1698222160339355
1105657, 25.66935920715332, 26.419605255126953, -6.03548526763916, 6.663926601409912, 5.798882007598877, 1.1344199180603027, 4.206657409667969, 3.675740957260132, -3.7749593257904053, 0, 0, 0, 0.0, 0.0, 0.0, 0.0, 6.663926601409912, 5.798882007598877, 1.1344199180603027, 1.717419981956482, 1.4945039749145508, -6.346216678619385
1105667, 25.747358322143555, 26.46898651123047, -6.0721869468688965, 6.706228733062744, 5.835846424102783, 1.09579336643219, 4.2519049644470215, 3.7155442237854004, -3.95385479927063, 0, 0, 0, 0.0, 0.0, 0.0, 0.0, 6.688158988952637, 5.816628932952881, 1.0957612991333008, 1.6522830724716187, 1.4331881999969482, -6.514832973480225
1105677, 28.360576629638672, 28.574264526367188, -7.288784980773926, 6.720503807067871, 5.851535797119141, 1.0553127527236938, 4.268497943878174, 3.7333827018737793, -4.135112762451172, 0, 0, 0, 0.0, 0.0, 0.0, 0.0, 7.364987373352051, 6.409717559814453, 1.2417023181915283, 2.1053805351257324, 1.8318023681640625, -6.133253574371338
1105687, 28.45522689819336, 28.632946014404297, -7.3359293937683105, 7.41081428527832, 6.449745178222656, 1.211198091506958, 4.606289386749268, 4.023470401763916, -3.140418767929077, 0, 0, 0, 0.0, 0.0, 0.0, 0.0, 7.389886856079102, 6.427840232849121, 1.211142897605896, 2.0330162048339844, 1.7639367580413818, -6.296960830688477
1105697, 28.467262268066406, 28.708168029785156, -7.333573818206787, 7.415591239929199, 6.459561347961426, 1.1787981986999512, 4.611306667327881, 4.034420013427734, -3.3207502365112305, 0, 0, 0, 0.0, 0.0, 0.0, 0.0, 7.415591239929199, 6.459561347961426, 1.1787981986999512, 1.9619200229644775, 1.7139335870742798, -6.463866233825684
1105707, 29.190027236938477, 29.239147186279297, -7.7008442878723145, 7.458687782287598, 6.504146575927734, 1.1447339057922363, 4.656413555145264, 4.081544876098633, -3.496379852294922, 0, 0, 0, 0.0, 0.0, 0.0, 0.0, 7.756143093109131, 6.7591328620910645, 1.2102465629577637, 2.1741416454315186, 1.9028067588806152, -6.492043972015381
1105717, 29.318260192871094, 29.255502700805664, -7.775679111480713, 7.792662143707275, 6.770744323730469, 1.1786248683929443, 4.860865116119385, 4.231338024139404, -3.246466875076294, 0, 0, 0, 0.0, 0.0, 0.0, 0.0, 7.792662143707275, 6.770744323730469, 1.1786248683929443, 2.1123127937316895, 1.8233647346496582, -6.654731750488281
1105727, 29.312509536743164, 29.302209854125977, -7.765334606170654, 7.841527462005615, 6.8132829666137695, 1.1453077793121338, 4.910394191741943, 4.274869918823242, -3.4214632511138916, 0, 0, 0, 0.0, 0.0, 0.0, 0.0, 7.824124813079834, 6.811020374298096, 1.1452614068984985, 2.044900894165039, 1.7808165550231934, -6.822916030883789
1105737, 31.065874099731445, 30.516904830932617, -8.702506065368652, 7.857690334320068, 6.8512492179870605, 1.1101356744766235, 4.9252848625183105, 4.314260005950928, -3.598228931427002, 0, 0, 0, 0.0, 0.0, 0.0, 0.0, 7.857690334320068, 6.8512492179870605, 1.1101356744766235, 1.979811191558838, 1.737776756286621, -6.991367816925049
1105747, 31.028461456298828, 30.491186141967773, -8.683638572692871, 8.589200973510742, 7.461410045623779, 1.2081644535064697, 5.384393215179443, 4.678129196166992, -2.873199462890625, 0, 0, 0, 0.0, 0.0, 0.0, 0.0, 8.589200973510742, 7.461410045623779, 1.2081644535064697, 2.51637864112854, 2.172436475753784, -6.934006690979004
1105757, 31.12464714050293, 30.538484573364258, -8.735989570617676, 8.643311500549316, 7.508424758911133, 1.1785919666290283, 5.436063766479492, 4.7233428955078125, -3.0465054512023926, 0, 0, 0, 0.0, 0.0, 0.0, 0.0, 8.643311500549316, 7.508424758911133, 1.1785919666290283, 2.470280408859253, 2.132206916809082, -7.1058855056762695
1105767, 33.597171783447266, 32.28589630126953, -10.001726150512695, 8.678800582885742, 7.533359527587891, 1.1472119092941284, 5.468378067016602, 4.745020389556885, -3.2206714153289795, 0, 0, 0, 0.0, 0.0, 0.0, 0.0, 8.678800582885742, 7.533359527587891, 1.1472119092941284, 2.3980140686035156, 2.0616631507873535, -7.265702247619629
1105777, 33.56637191772461, 32.32623291015625, -9.975469589233398, 9.492393493652344, 8.26115894317627, 1.2677785158157349, 5.925053119659424, 5.164578914642334, -2.3268797397613525, 0, 0, 0, 0.0, 0.0, 0.0, 0.0, 9.492393493652344, 8.26115894317627, 1.2677785158157349, 2.926725149154663, 2.541965961456299, -7.222634792327881
1105787, 33.62753677368164, 32.349430084228516, -10.011617660522461, 9.551923751831055, 8.31304931640625, 1.2436867952346802, 5.9795451164245605, 5.212161064147949, -2.4975826740264893, 0, 0, 0, 0.0, 0.0, 0.0, 0.0, 9.538043975830078, 8.296305656433105, 1.2436516284942627, 2.8587238788604736, 2.4769651889801025, -7.382225513458252
1105798, 33.73377990722656, 32.375911712646484, -10.076696395874023, 9.582892417907715, 8.323002815246582, 1.2178025245666504, 6.004673004150391, 5.21455717086792, -2.669072151184082, 0, 0, 0, 0.0, 0.0, 0.0, 0.0, 9.582892417907715, 8.323002815246582, 1.2178025245666504, 2.788897752761841, 2.401007890701294, -7.538510322570801
1105807, 32.444942474365234, 31.498010635375977, -9.41040325164795, 9.643218994140625, 8.375393867492676, 1.190289855003357, 6.059033393859863, 5.262120246887207, -2.839660167694092, 0, 0, 0, 0.0, 0.0, 0.0, 0.0, 9.328990936279297, 8.10612678527832, 1.1302086114883423, 2.5260465145111084, 2.1790847778320312, -7.7608184814453125
1105817, 32.4065055847168, 31.471092224121094, -9.391031265258789, 9.388079643249512, 8.15748119354248, 1.0967607498168945, 5.934194564819336, 5.157631874084473, -3.433681011199951, 0, 0, 0, 0.0, 0.0, 0.0, 0.0, 9.388079643249512, 8.15748119354248, 1.0967607498168945, 2.478708028793335, 2.1375133991241455, -7.930532455444336
1105827, 32.36870193481445, 31.444229125976562, -9.3726224899292, 9.447693824768066, 8.209296226501465, 1.061594009399414, 5.986599445343018, 5.203592300415039, -3.605600595474243, 0, 0, 0, 0.0, 0.0, 0.0, 0.0, 9.447693824768066, 8.209296226501465, 1.061594009399414, 2.431006669998169, 2.096005916595459, -8.10027027130127
1105837, 31.788524627685547, 31.03877830505371, -9.085247993469238, 9.489294052124023, 8.242565155029297, 1.024709701538086, 6.0213093757629395, 5.231049537658691, -3.776947498321533, 0, 0, 0, 0.0, 0.0, 0.0, 0.0, 9.360905647277832, 8.126633644104004, 0.9949783086776733, 2.2928988933563232, 1.969049334526062, -8.295032501220703
1105847, 31.752260208129883, 31.011533737182617, -9.066977500915527, 9.390841484069824, 8.161764144897461, 0.9543054103851318, 5.9727067947387695, 5.1931233406066895, -4.157377243041992, 0, 0, 0, 0.0, 0.0, 0.0, 0.0, 9.390841484069824, 8.161764144897461, 0.9543054103851318, 2.2070984840393066, 1.9047197103500366, -8.451427459716797
1105857, 31.905126571655273, 31.055816650390625, -9.158884048461914, 9.431076049804688, 8.179386138916016, 0.9119413495063782, 6.006834506988525, 5.205055236816406, -4.328469753265381, 0, 0, 0, 0.0, 0.0, 0.0, 0.0, 9.431076049804688, 8.179386138916016, 0.9119413495063782, 2.13230037689209, 1.8191306591033936, -8.605504035949707
1105867, 0.0005031483015045524, -0.0003344739379826933, 2.0518002202152275e-05, 9.475252151489258, 8.227056503295898, 0.8678514957427979, 6.043082237243652, 5.246579647064209, -4.500455856323242, 0, 0, 0, 0.0, 0.0, 0.0, 0.0, 9.475252151489258, 8.227056503295898, 0.8678514957427979, 2.0651235580444336, 1.7708238363265991, -8.769227027893066
1105877, -0.00010766479681478813, -0.0008683737833052874, 0.0017218075226992369, 7.110491537787311e-07, 6.712116373819299e-07, 2.0269408226013184, 0.0007108168792910874, 0.0006715572671964765, -0.039491817355155945, 0, 0, 0, 0.0, 0.0, 0.0, 0.0, 7.110491537787311e-07, 6.712116373819299e-07, 2.0269408226013184, 0.0007110491278581321, 0.0006712115718983114, -0.03949189931154251
1105887, 7.727427873760462e-05, 0.00101814279332757, 0.00031035003485158086, 2.3517413865192793e-05, 2.0843812308157794e-05, 2.025559186935425, 0.0041797892190515995, 0.0036920870188623667, -0.2368188351392746, 0, 0, 0, 0.0, 0.0, 0.0, 0.0, 2.3517413865192793e-05, 2.0843812308157794e-05, 2.025559186935425, 0.004183497745543718, 0.0036924139130860567, -0.23681923747062683
1105897, 0.00042313095764257014, 0.0009840279817581177, 0.001016072346828878, 8.69976356625557e-05, 8.32845107652247e-05, 2.0222034454345703, 0.008121156133711338, 0.00737949600443244, -0.434257835149765, 0, 0, 0, 0.0, 0.0, 0.0, 0.0, 8.69976356625557e-05, 8.32845107652247e-05, 2.0222034454345703, 0.008113496005535126, 0.007378881331533194, -0.4342588782310486
1105907, 0.0014515477232635021, 0.0035428949631750584, 0.0010399462189525366, 0.00018233303853776306, 0.00016987783601507545, 1.9604780673980713, 0.011691133491694927, 0.010677557438611984, -0.6538772583007812, 0, 0, 0, 0.0, 0.0, 0.0, 0.0, 0.00018233303853776306, 0.00016987783601507545, 1.9604780673980713, 0.0116801168769598, 0.010672543197870255, -0.6538788676261902
1105917, 0.009810101240873337, 0.003372694831341505, 0.00014034037303645164, 0.0003176938043907285, 0.0002775336615741253, 1.9529521465301514, 0.01540787797421217, 0.01362647581845522, -0.8513273596763611, 0, 0, 0, 0.0, 0.0, 0.0, 0.0, 0.0003176938043907285, 0.0002775336615741253, 1.9529521465301514, 0.015354656614363194, 0.01347377710044384, -0.8513324856758118
1105927, 0.0096431290730834, 0.004347572103142738, 0.0005091612110845745, 0.0004907776601612568, 0.0004307690542191267, 1.9434524774551392, 0.019208112731575966, 0.017018849030137062, -1.0486174821853638, 0, 0, 0, 0.0, 0.0, 0.0, 0.0, 0.0004907776601612568, 0.0004307690542191267, 1.9434524774551392, 0.019146466627717018, 0.016839291900396347, -1.0486235618591309
1105937, -0.037334490567445755, -0.04457005485892296, 0.0010178624652326107, 0.0007052200962789357, 0.0006253375322557986, 1.8681750297546387, 0.022756356745958328, 0.020074622705578804, -1.330562949180603, 0, 0, 0, 0.0, 0.0, 0.0, 0.0, 0.0007052200962789357, 0.0006253375322557986, 1.8681750297546387, 0.023778310045599937, 0.02092679962515831, -1.33053457736969
1105947, -0.026091521605849266, -0.0321260467171669, 0.0013791087549179792, 0.0009352874476462603, 0.0008254787535406649, 1.8538827896118164, 0.026425104588270187, 0.023106977343559265, -1.5279752016067505, 0, 0, 0, 0.0, 0.0, 0.0, 0.0, 0.0009352874476462603, 0.0008254787535406649, 1.8538827896118164, 0.027326077222824097, 0.02381540648639202, -1.5279514789581299
1105957, -0.035016756504774094, -0.03894032537937164, 0.0007319506257772446, 0.001235500443726778, 0.0010856835870072246, 1.83761465549469, 0.030385667458176613, 0.026489749550819397, -1.7255535125732422, 0, 0, 0, 0.0, 0.0, 0.0, 0.0, 0.001235500443726778, 0.0010856835870072246, 1.83761465549469, 0.03170930594205856, 0.027543364092707634, -1.725516676902771
1105967, -0.28282561898231506, -0.29901933670043945, -6.398370169335976e-05, 0.0015483974711969495, 0.0013848018134012818, 1.8193719387054443, 0.03404005244374275, 0.029957596212625504, -1.9229693412780762, 0, 0, 0, 0.0, 0.0, 0.0, 0.0, 0.0013554824981838465, 0.0012153326533734798, 1.6790529489517212, 0.03934841230511665, 0.03534700348973274, -2.3182621002197266
1105977, -0.2471422404050827, -0.29711389541625977, -0.0006119983736425638, 0.0016741479048505425, 0.001459206105209887, 1.6523548364639282, 0.030823474749922752, 0.02716659940779209, -2.5357706546783447, 0, 0, 0, 0.0, 0.0, 0.0, 0.0, 0.0016741479048505425, 0.001459206105209887, 1.6523548364639282, 0.04403004050254822, 0.03815704956650734, -2.5354392528533936
1105987, -0.24680738151073456, -0.2966339588165283, -0.0010463400976732373, 0.0019984934478998184, 0.0017449269071221352, 1.6260091066360474, 0.03406329080462456, 0.029992643743753433, -2.733372926712036, 0, 0, 0, 0.0, 0.0, 0.0, 0.0, 0.0019984934478998184, 0.0017449269071221352, 1.6260091066360474, 0.04823679476976395, 0.04178210720419884, -2.7330100536346436
1105997, -0.48090365529060364, -0.5667225122451782, -0.0027928275521844625, 0.002354725729674101, 0.002059724647551775, 1.5976877212524414, 0.037199024111032486, 0.0329798124730587, -2.930894374847412, 0, 0, 0, 0.0, 0.0, 0.0, 0.0, 0.0019444182980805635, 0.001700091757811606, 1.523768424987793, 0.05855479836463928, 0.05104146897792816, -3.271848201751709
1106007, -0.4956805109977722, -0.5636300444602966, -0.003061583498492837, 0.0022199172526597977, 0.0019478327594697475, 1.4900559186935425, 0.028836999088525772, 0.02607734501361847, -3.46993350982666, 0, 0, 0, 0.0, 0.0, 0.0, 0.0, 0.0022196087520569563, 0.001951518002897501, 1.4900554418563843, 0.0630965456366539, 0.05590607598423958, -3.4691431522369385
1106017, -0.4731215238571167, -0.5602883696556091, -0.00242896331474185, 0.002521342597901821, 0.002224275842308998, 1.4543706178665161, 0.03151354938745499, 0.02872282825410366, -3.6672255992889404, 0, 0, 0, 0.0, 0.0, 0.0, 0.0, 0.002521342597901821, 0.002224275842308998, 1.4543706178665161, 0.06747431308031082, 0.059064969420433044, -3.666384220123291
1106027, -0.10945259779691696, -0.11617477238178253, -0.001504693296737969, 0.0028517483733594418, 0.0025101264473050833, 1.4167096614837646, 0.034471720457077026, 0.03061024285852909, -3.864696502685547, 0, 0, 0, 0.0, 0.0, 0.0, 0.0, 0.0028517483733594418, 0.0025101264473050833, 1.4167096614837646, 0.07213909178972244, 0.06439713388681412, -3.863769769668579
1106037, -0.11441740393638611, -0.1283828318119049, -0.0021315317135304213, 0.0045655276626348495, 0.004029674921184778, 1.4742941856384277, 0.05547481030225754, 0.04926992580294609, -3.5135061740875244, 0, 0, 0, 0.0, 0.0, 0.0, 0.0, 0.0045655276626348495, 0.004029674921184778, 1.4742941856384277, 0.06342404335737228, 0.056354768574237823, -3.5132720470428467
