timeTick, roll, pitch, yaw, gyroX, gyroY, gyroZ, stateX, stateY, stateZ, stateVX, stateVY, stateVZ, whisker1, whisker2, whisker3, motor1, motor2, motor3, motor4, otX, otY, otZ, otRoll, otPitch, otYaw, otq0, otq1, otq2, otq3
330964, 0.8776711225509644, 0.4200180172920227, 0.03206992521882057, 0, 0, 0, 0, 0, 0, 0, 0, 0, 0, 0, 0, 0, 0, 0, 0, 0, 0, 0, 0, 0, 0, 0, 0, 0, 0
330974, 0.9107146263122559, 0.3710293471813202, -0.04317902401089668, -0.17748522758483887, -0.3492598533630371, -0.08815371990203857, 0.03820718452334404, -1.738977313041687, 0.015215662308037281, 0.00849378202110529, -0.0023565413430333138, -0.00048324489034712315, 0, 0, 0, 0.0, 0.0, 0.0, 0.0, 0, 0, 0, 0, 0, 0, 0, 0, 0, 0
330984, 0.890612781047821, 0.41201773285865784, -0.21794629096984863, 0.005901983007788658, -0.07110226899385452, 0.18129689991474152, 0.03798917308449745, -1.7392709255218506, 0.015111876651644707, 0.00863109901547432, -0.002602188615128398, -0.0010589048033580184, 0, 0, 0, 0.0, 0.0, 0.0, 0.0, 0, 0, 0, 0, 0, 0, 0, 0, 0, 0
330994, 0.8911601305007935, 0.4068565368652344, -0.25478923320770264, -0.35701343417167664, 0.054323986172676086, 0.013015528209507465, 0.03763006255030632, -1.7395356893539429, 0.014929691329598427, 0.002442940603941679, 0.0008864807314239442, -0.0019125911640003324, 0, 0, 0, 0.0, 0.0, 0.0, 0.0, 0, 0, 0, 0, 0, 0, 0, 0, 0, 0
331004, 0.9092267155647278, 0.42815542221069336, -0.32504624128341675, 0.04037373140454292, 0.10816583782434464, -0.1556764841079712, 0.03750469908118248, -1.7396916151046753, 0.014715292491018772, 0.002770631108433008, 0.0007143658003769815, -0.002964709885418415, 0, 0, 0, 0.0, 0.0, 0.0, 0.0, 0, 0, 0, 0, 0, 0, 0, 0, 0, 0
331014, 0.8836921453475952, 0.35682153701782227, -0.3463805913925171, -0.0696113333106041, 0.24444562196731567, 0.11495036631822586, 0.03735804930329323, -1.7397990226745605, 0.014591114595532417, -0.001062704250216484, -0.0005000599776394665, -0.003310103202238679, 0, 0, 0, 0.0, 0.0, 0.0, 0.0, 0, 0, 0, 0, 0, 0, 0, 0, 0, 0
331024, 0.926973283290863, 0.41332200169563293, -0.42626267671585083, -0.079892098903656, 0.1933116614818573, -0.12296515703201294, 0.03753284364938736, -1.7397756576538086, 0.014822791330516338, 0.008117645047605038, 0.0027677256148308516, -0.0018847458995878696, 0, 0, 0, 0.0, 0.0, 0.0, 0.0, 0, 0, 0, 0, 0, 0, 0, 0, 0, 0
331034, 0.9193894267082214, 0.3902779221534729, -0.4377392828464508, -0.1867656409740448, -0.060967061668634415, -0.09355062246322632, 0.03724532946944237, -1.7399228811264038, 0.014733239077031612, -0.0008227088255807757, -0.0012262392556294799, -0.002191645558923483, 0, 0, 0, 0.0, 0.0, 0.0, 0.0, 0, 0, 0, 0, 0, 0, 0, 0, 0, 0
331044, 0.9272592663764954, 0.38123834133148193, -0.4791571795940399, 0.0009024216560646892, 0.4493567645549774, 0.11017991602420807, 0.037329379469156265, -1.7399078607559204, 0.014544565230607986, 0.002100244862958789, -0.00010080786887556314, -0.003140176646411419, 0, 0, 0, 0.0, 0.0, 0.0, 0.0, 0, 0, 0, 0, 0, 0, 0, 0, 0, 0
331054, 0.9336037635803223, 0.3536798655986786, -0.4986039400100708, -0.21820932626724243, 0.23423413932323456, 0.13266700506210327, 0.037312962114810944, -1.7399624586105347, 0.014356282539665699, 0.0026258225552737713, -0.0003769504255615175, -0.004117255564779043, 0, 0, 0, 0.0, 0.0, 0.0, 0.0, 0, 0, 0, 0, 0, 0, 0, 0, 0, 0
331064, 0.9803081750869751, 0.3122957646846771, -0.531221330165863, -0.07173426449298859, 0.009597542695701122, -0.05684318393468857, 0.03743887320160866, -1.739978313446045, 0.015054655261337757, 0.005628541577607393, -0.0006613938603550196, 0.0005306206876412034, 0, 0, 0, 0.0, 0.0, 0.0, 0.0, 0, 0, 0, 0, 0, 0, 0, 0, 0, 0
331074, 0.9561818242073059, 0.372139573097229, -0.5572144985198975, -0.15594230592250824, 0.20217806100845337, 0.11196976155042648, 0.03769925981760025, -1.740250825881958, 0.014871017076075077, 0.010745147243142128, -0.005907333921641111, -0.0005479911342263222, 0, 0, 0, 0.0, 0.0, 0.0, 0.0, 0, 0, 0, 0, 0, 0, 0, 0, 0, 0
331084, 0.948576807975769, 0.3500674366950989, -0.5690693855285645, -0.1518934816122055, 0.3319869935512543, 0.11336315423250198, 0.03733140230178833, -1.74014151096344, 0.01481371745467186, 0.0028800363652408123, -0.003128318814560771, -0.0007318301941268146, 0, 0, 0, 0.0, 0.0, 0.0, 0.0, 0, 0, 0, 0, 0, 0, 0, 0, 0, 0
331094, 0.93480384349823, 0.34860455989837646, -0.5752211809158325, -0.02409793995320797, 0.15849202871322632, 0.11370330303907394, 0.03741138428449631, -1.7400492429733276, 0.014656281098723412, 0.0045417011715471745, -0.0008917739032767713, -0.0015584459761157632, 0, 0, 0, 0.0, 0.0, 0.0, 0.0, 0, 0, 0, 0, 0, 0, 0, 0, 0, 0
331104, 0.9963557124137878, 0.3778364062309265, -0.5868240594863892, 0.03164752200245857, 0.04377248138189316, -0.14967891573905945, 0.03741711750626564, -1.7399365901947021, 0.014469609595835209, 0.00466321874409914, 0.0012500179000198841, -0.002613913966342807, 0, 0, 0, 0.0, 0.0, 0.0, 0.0, 0, 0, 0, 0, 0, 0, 0, 0, 0, 0
331114, 0.9860630631446838, 0.3717138469219208, -0.6005038619041443, -0.07624976336956024, 0.13044579327106476, 0.2593836486339569, 0.037095557898283005, -1.740435004234314, 0.014488848857581615, -0.0002693933784030378, -0.006307033821940422, -0.0023113929200917482, 0, 0, 0, 0.0, 0.0, 0.0, 0.0, 0, 0, 0, 0, 0, 0, 0, 0, 0, 0
331124, 0.9758937358856201, 0.34515079855918884, -0.6125425100326538, -0.10311193019151688, -0.066602423787117, 0.06743211299180984, 0.03711539879441261, -1.740289330482483, 0.014337301254272461, 0.00013876287266612053, -0.0037002444732934237, -0.0030328352004289627, 0, 0, 0, 0.0, 0.0, 0.0, 0.0, 0, 0, 0, 0, 0, 0, 0, 0, 0, 0
331134, 0.9768093228340149, 0.34091803431510925, -0.6175073981285095, -0.12464287877082825, 0.11378540098667145, 0.14472191035747528, 0.03728592395782471, -1.7401485443115234, 0.014234279282391071, 0.0026705192867666483, -0.0012855131644755602, -0.0033703355584293604, 0, 0, 0, 0.0, 0.0, 0.0, 0.0, 0, 0, 0, 0, 0, 0, 0, 0, 0, 0
331145, 0.9836680889129639, 0.3239377737045288, -0.6301166415214539, -0.14943534135818481, 0.14122824370861053, -0.00875263661146164, 0.037316687405109406, -1.7401702404022217, 0.014050709083676338, 0.002922701183706522, -0.0014319928595796227, -0.0042481799609959126, 0, 0, 0, 0.0, 0.0, 0.0, 0.0, 0, 0, 0, 0, 0, 0, 0, 0, 0, 0
331154, 0.945308268070221, 0.3412763476371765, -0.6294728517532349, -0.07511211931705475, 0.024696992710232735, 0.038166578859090805, 0.03744160383939743, -1.740193486213684, 0.014533701352775097, 0.004309727344661951, -0.0017752128187566996, -0.0009272872121073306, 0, 0, 0, 0.0, 0.0, 0.0, 0.0, 0, 0, 0, 0, 0, 0, 0, 0, 0, 0
331164, 0.9783599972724915, 0.31305035948753357, -0.6348152756690979, 0.12592913210391998, -0.10264576226472855, 0.10343191772699356, 0.03725134953856468, -1.7398262023925781, 0.014388250187039375, 0.001982457935810089, 0.002968517830595374, -0.0015482199378311634, 0, 0, 0, 0.0, 0.0, 0.0, 0.0, 0, 0, 0, 0, 0, 0, 0, 0, 0, 0
331174, 0.9775102734565735, 0.3131310045719147, -0.6331304311752319, 0.2671234905719757, -0.0437796451151371, 0.08760810643434525, 0.03756176680326462, -1.7401612997055054, 0.01421559602022171, 0.005770474672317505, -0.001201524049974978, -0.0025414293631911278, 0, 0, 0, 0.0, 0.0, 0.0, 0.0, 0, 0, 0, 0, 0, 0, 0, 0, 0, 0
331184, 0.9960306286811829, 0.30950793623924255, -0.640783429145813, -0.006448226980865002, 0.06913530081510544, -0.05396489053964615, 0.03755660355091095, -1.740169882774353, 0.014153480529785156, 0.0058379885740578175, -0.001313631422817707, -0.0029526359867304564, 0, 0, 0, 0.0, 0.0, 0.0, 0.0, 0, 0, 0, 0, 0, 0, 0, 0, 0, 0
331195, 1.002034306526184, 0.34670305252075195, -0.6403370499610901, -0.002056860364973545, 0.05582020431756973, 0.1158662885427475, 0.03714776039123535, -1.7404119968414307, 0.013938361778855324, 0.000842886627651751, -0.003749014111235738, -0.0038302242755889893, 0, 0, 0, 0.0, 0.0, 0.0, 0.0, 0, 0, 0, 0, 0, 0, 0, 0, 0, 0
331204, 1.0015501976013184, 0.3451487421989441, -0.6394842863082886, -0.16039426624774933, 0.07761938124895096, -0.10757624357938766, 0.03714747354388237, -1.740422248840332, 0.014490439556539059, 0.0009858527919277549, -0.004060089122503996, -0.00024178391322493553, 0, 0, 0, 0.0, 0.0, 0.0, 0.0, 0, 0, 0, 0, 0, 0, 0, 0, 0, 0
331214, 0.9928842782974243, 0.3246990144252777, -0.6430107951164246, 0.042323268949985504, 0.08365608751773834, -0.09140903502702713, 0.03716525807976723, -1.740457534790039, 0.01442781463265419, 0.0012689384166151285, -0.0041396720334887505, -0.0007510373252443969, 0, 0, 0, 0.0, 0.0, 0.0, 0.0, 0, 0, 0, 0, 0, 0, 0, 0, 0, 0
331224, 0.9916983842849731, 0.3244324028491974, -0.6413851976394653, -0.09416580945253372, 0.20510821044445038, 0.11789200454950333, 0.037407536059617996, -1.7403724193572998, 0.0142130171880126, 0.004256498068571091, -0.0030502299778163433, -0.0021747483406215906, 0, 0, 0, 0.0, 0.0, 0.0, 0.0, 0, 0, 0, 0, 0, 0, 0, 0, 0, 0
331235, 0.9991722106933594, 0.3101385533809662, -0.6480890512466431, -0.027499867603182793, 0.1868257075548172, 0.14878983795642853, 0.03751831874251366, -1.74039626121521, 0.014047217555344105, 0.005825715139508247, -0.003246217267587781, -0.003061076160520315, 0, 0, 0, 0.0, 0.0, 0.0, 0.0, 0, 0, 0, 0, 0, 0, 0, 0, 0, 0
331245, 1.0282845497131348, 0.34145745635032654, -0.6506397128105164, -0.1612573117017746, 0.2852286696434021, -0.04344634711742401, 0.037566233426332474, -1.7404515743255615, 0.015867510810494423, 0.006201297044754028, -0.0036578327417373657, 0.009226024150848389, 0, 0, 0, 0.0, 0.0, 0.0, 0.0, 0, 0, 0, 0, 0, 0, 0, 0, 0, 0
331254, 0.992117166519165, 0.3109031915664673, -0.6585253477096558, -0.03275372460484505, -0.0324941948056221, -0.11342708766460419, 0.03710703179240227, -1.7407821416854858, 0.015743736177682877, 0.0009814021177589893, -0.007025710307061672, 0.007862230762839317, 0, 0, 0, 0.0, 0.0, 0.0, 0.0, 0, 0, 0, 0, 0, 0, 0, 0, 0, 0
331264, 1.013960361480713, 0.3157794773578644, -0.6603294610977173, -0.14653675258159637, 0.245073139667511, -0.06487584859132767, 0.03748275339603424, -1.7403377294540405, 0.015735730528831482, 0.004911626689136028, -0.0020588103216141462, 0.00736808218061924, 0, 0, 0, 0.0, 0.0, 0.0, 0.0, 0, 0, 0, 0, 0, 0, 0, 0, 0, 0
331274, 1.0043950080871582, 0.295940637588501, -0.6619778871536255, -0.08639281243085861, 0.02625042386353016, 0.08328762650489807, 0.037373173981904984, -1.740594506263733, 0.015599309466779232, 0.003991102334111929, -0.004542394541203976, 0.0060359518975019455, 0, 0, 0, 0.0, 0.0, 0.0, 0.0, 0, 0, 0, 0, 0, 0, 0, 0, 0, 0
331284, 0.9675361514091492, 0.2619870603084564, -0.6655299067497253, -0.014354589395225048, 0.06232870742678642, 0.04646723344922066, 0.0376204252243042, -1.7404946088790894, 0.015434365719556808, 0.006633751094341278, -0.0034315173979848623, 0.004579197149723768, 0, 0, 0, 0.0, 0.0, 0.0, 0.0, 0, 0, 0, 0, 0, 0, 0, 0, 0, 0
331295, 1.0192655324935913, 0.3110652267932892, -0.6653529405593872, -0.12375478446483612, 0.23573780059814453, 0.10387466102838516, 0.03811383247375488, -1.739928960800171, 0.015818102285265923, 0.011400018818676472, 0.002100554760545492, 0.0065347300842404366, 0, 0, 0, 0.0, 0.0, 0.0, 0.0, 0, 0, 0, 0, 0, 0, 0, 0, 0, 0
331304, 1.0078728199005127, 0.2955375015735626, -0.6656022071838379, 0.048957206308841705, 0.10186664760112762, -0.12661921977996826, 0.03740444406867027, -1.7406398057937622, 0.015695378184318542, 0.004227201920002699, -0.0051474361680448055, 0.005162335466593504, 0, 0, 0, 0.0, 0.0, 0.0, 0.0, 0, 0, 0, 0, 0, 0, 0, 0, 0, 0
331314, 1.010883092880249, 0.2918190360069275, -0.6652270555496216, -0.1795661598443985, 0.07306903600692749, 0.16137051582336426, 0.037657443434000015, -1.7405458688735962, 0.015525261871516705, 0.006754282396286726, -0.004178098402917385, 0.0033745216205716133, 0, 0, 0, 0.0, 0.0, 0.0, 0.0, 0, 0, 0, 0, 0, 0, 0, 0, 0, 0
331324, 1.013025164604187, 0.2815062701702118, -0.6666997671127319, 0.015458920039236546, 0.14692384004592896, 0.08237870782613754, 0.037713948637247086, -1.7405872344970703, 0.015443001873791218, 0.007009471300989389, -0.004397908691316843, 0.0024590850807726383, 0, 0, 0, 0.0, 0.0, 0.0, 0.0, 0, 0, 0, 0, 0, 0, 0, 0, 0, 0
331334, 1.0222678184509277, 0.27965375781059265, -0.6680173277854919, -0.03158692270517349, 0.06030094996094704, -0.039218395948410034, 0.0378381684422493, -1.7406069040298462, 0.015147333964705467, 0.007965926080942154, -0.004587397910654545, 0.0003394596860744059, 0, 0, 0, 0.0, 0.0, 0.0, 0.0, 0, 0, 0, 0, 0, 0, 0, 0, 0, 0
331345, 1.00868821144104, 0.2799164652824402, -0.670495331287384, -0.23558886349201202, 0.07571673393249512, 0.12257328629493713, 0.03783690929412842, -1.7407416105270386, 0.014978893101215363, 0.00787992961704731, -0.005725025199353695, -0.0006905219634063542, 0, 0, 0, 0.0, 0.0, 0.0, 0.0, 0, 0, 0, 0, 0, 0, 0, 0, 0, 0
331354, 1.019673466682434, 0.27682629227638245, -0.6729614734649658, 0.04378888010978699, -0.3904792070388794, 0.0371435210108757, 0.037838853895664215, -1.7406188249588013, 0.01480319257825613, 0.007702913600951433, -0.00441761827096343, -0.001674257218837738, 0, 0, 0, 0.0, 0.0, 0.0, 0.0, 0, 0, 0, 0, 0, 0, 0, 0, 0, 0
331364, 1.0243432521820068, 0.3024919033050537, -0.6724336743354797, -0.017358433455228806, 0.2452622950077057, -0.0663895234465599, 0.0378827303647995, -1.7406588792800903, 0.014610394835472107, 0.0080043263733387, -0.004863133188337088, -0.002799604320898652, 0, 0, 0, 0.0, 0.0, 0.0, 0.0, 0, 0, 0, 0, 0, 0, 0, 0, 0, 0
331374, 1.0139894485473633, 0.2755548655986786, -0.6718756556510925, 0.06763970851898193, 0.10658971965312958, 0.13463923335075378, 0.03750661760568619, -1.7407954931259155, 0.014487918466329575, 0.004510890226811171, -0.00600328017026186, -0.0034949700348079205, 0, 0, 0, 0.0, 0.0, 0.0, 0.0, 0, 0, 0, 0, 0, 0, 0, 0, 0, 0
331384, 1.0238856077194214, 0.30004066228866577, -0.6716787815093994, 0.04080697521567345, 0.10652440786361694, 0.2225913256406784, 0.03790457174181938, -1.7406655550003052, 0.015153655782341957, 0.008002103306353092, -0.0046720304526388645, 0.0007279714336618781, 0, 0, 0, 0.0, 0.0, 0.0, 0.0, 0, 0, 0, 0, 0, 0, 0, 0, 0, 0
331394, 1.0280556678771973, 0.2964397966861725, -0.6730524897575378, -0.197549507021904, -0.059503309428691864, -0.0919887125492096, 0.0375087633728981, -1.7408130168914795, 0.014992096461355686, 0.004560981411486864, -0.0057737333700060844, -0.0002955971867777407, 0, 0, 0, 0.0, 0.0, 0.0, 0.0, 0, 0, 0, 0, 0, 0, 0, 0, 0, 0
331404, 1.0219683647155762, 0.2774219512939453, -0.6746404767036438, 0.09776554256677628, 0.06896129995584488, 0.043880488723516464, 0.03754660114645958, -1.7408462762832642, 0.014819413423538208, 0.005093881394714117, -0.006004219874739647, -0.00149520393460989, 0, 0, 0, 0.0, 0.0, 0.0, 0.0, 0, 0, 0, 0, 0, 0, 0, 0, 0, 0
331414, 1.0216327905654907, 0.27757909893989563, -0.6740657091140747, 0.21592286229133606, -0.03672610968351364, -0.13553963601589203, 0.03782851994037628, -1.7407301664352417, 0.014705338515341282, 0.00770419230684638, -0.0048872558400034904, -0.0021923293825238943, 0, 0, 0, 0.0, 0.0, 0.0, 0.0, 0, 0, 0, 0, 0, 0, 0, 0, 0, 0
331424, 1.0279675722122192, 0.22438138723373413, -0.675189733505249, 0.10522740334272385, 0.2103385478258133, -0.19980281591415405, 0.037872929126024246, -1.7407677173614502, 0.014318129979074001, 0.00814282987266779, -0.005152131896466017, -0.004685730207711458, 0, 0, 0, 0.0, 0.0, 0.0, 0.0, 0, 0, 0, 0, 0, 0, 0, 0, 0, 0
331434, 1.0298140048980713, 0.2967730760574341, -0.6782956719398499, -0.01462648343294859, -0.02655611000955105, -0.14934183657169342, 0.03868499770760536, -1.7409096956253052, 0.014140951447188854, 0.014674406498670578, -0.006239935755729675, -0.0055615464225411415, 0, 0, 0, 0.0, 0.0, 0.0, 0.0, 0, 0, 0, 0, 0, 0, 0, 0, 0, 0
331444, 1.0343583822250366, 0.2924578785896301, -0.6800519824028015, -0.0711776539683342, 0.20093238353729248, -0.0757395401597023, 0.03759660944342613, -1.7408922910690308, 0.013985666446387768, 0.005295010283589363, -0.006094084586948156, -0.006149214692413807, 0, 0, 0, 0.0, 0.0, 0.0, 0.0, 0, 0, 0, 0, 0, 0, 0, 0, 0, 0
331454, 1.0315395593643188, 0.2718445956707001, -0.6790394186973572, -0.07470020651817322, 0.026728525757789612, -0.08123134821653366, 0.0378446951508522, -1.7408676147460938, 0.013715855777263641, 0.007604428566992283, -0.006139662116765976, -0.007328675128519535, 0, 0, 0, 0.0, 0.0, 0.0, 0.0, 0, 0, 0, 0, 0, 0, 0, 0, 0, 0
331464, 1.0184341669082642, 0.26512640714645386, -0.6779446601867676, 4.089884168934077e-05, 0.14277249574661255, 0.0708770826458931, 0.037981197237968445, -1.7407580614089966, 0.013582661747932434, 0.008531654253602028, -0.005017647985368967, -0.007566089276224375, 0, 0, 0, 0.0, 0.0, 0.0, 0.0, 0, 0, 0, 0, 0, 0, 0, 0, 0, 0
331474, 0.9754876494407654, 0.2300616204738617, -0.6793498396873474, -0.12635116279125214, 0.29229483008384705, -0.042651548981666565, 0.03805083408951759, -1.7408119440078735, 0.013930692337453365, 0.009015346877276897, -0.005239606369286776, -0.004967117682099342, 0, 0, 0, 0.0, 0.0, 0.0, 0.0, 0, 0, 0, 0, 0, 0, 0, 0, 0, 0
331484, 1.013595700263977, 0.26677030324935913, -0.6806735396385193, 0.05633242428302765, -0.08629318326711655, 0.12807245552539825, 0.03857807815074921, -1.74015474319458, 0.013779212720692158, 0.013258328661322594, 0.00011533094948390499, -0.005545638035982847, 0, 0, 0, 0.0, 0.0, 0.0, 0.0, 0, 0, 0, 0, 0, 0, 0, 0, 0, 0
331494, 1.0121254920959473, 0.2672463059425354, -0.6808673143386841, 0.009931785985827446, -0.12214497476816177, -0.2294015735387802, 0.03802412375807762, -1.7406814098358154, 0.0136147141456604, 0.008672405034303665, -0.0042653814889490604, -0.006305804010480642, 0, 0, 0, 0.0, 0.0, 0.0, 0.0, 0, 0, 0, 0, 0, 0, 0, 0, 0, 0
331504, 1.0171900987625122, 0.2954716682434082, -0.6790811419487, -0.08063198626041412, 0.2491065263748169, -0.08212059736251831, 0.038060858845710754, -1.7407200336456299, 0.013431667350232601, 0.008885262534022331, -0.004597160033881664, -0.007039853371679783, 0, 0, 0, 0.0, 0.0, 0.0, 0.0, 0, 0, 0, 0, 0, 0, 0, 0, 0, 0
331514, 1.0236440896987915, 0.28990453481674194, -0.6787593364715576, 0.14692315459251404, -0.168186753988266, -0.10547224432229996, 0.03774987906217575, -1.740944504737854, 0.013486625626683235, 0.006169809028506279, -0.006348750554025173, -0.006259552668780088, 0, 0, 0, 0.0, 0.0, 0.0, 0.0, 0, 0, 0, 0, 0, 0, 0, 0, 0, 0
331524, 1.0228586196899414, 0.2976546883583069, -0.6795873045921326, -0.09687373042106628, -0.09198290854692459, 0.043832484632730484, 0.03779532387852669, -1.7409933805465698, 0.01337425410747528, 0.006419312674552202, -0.006437310483306646, -0.0065832603722810745, 0, 0, 0, 0.0, 0.0, 0.0, 0.0, 0, 0, 0, 0, 0, 0, 0, 0, 0, 0
331534, 1.0149977207183838, 0.2727483808994293, -0.6798586249351501, -0.0813886746764183, -0.15794283151626587, 0.09063810110092163, 0.037670351564884186, -1.7409781217575073, 0.013232207857072353, 0.005680009722709656, -0.0061178975738584995, -0.006923571228981018, 0, 0, 0, 0.0, 0.0, 0.0, 0.0, 0, 0, 0, 0, 0, 0, 0, 0, 0, 0
331544, 1.0112080574035645, 0.3100106418132782, -0.6793655753135681, -0.16316591203212738, 0.10576033592224121, -0.05140504240989685, 0.038046929985284805, -1.7408517599105835, 0.01306900940835476, 0.00879875011742115, -0.005046987906098366, -0.007391550578176975, 0, 0, 0, 0.0, 0.0, 0.0, 0.0, 0, 0, 0, 0, 0, 0, 0, 0, 0, 0
331554, 1.0109578371047974, 0.31068745255470276, -0.6781359910964966, 0.04333039000630379, -0.07409337908029556, 0.02119753509759903, 0.03754275292158127, -1.7408325672149658, 0.012923210859298706, 0.004700754303485155, -0.004846126772463322, -0.007846019230782986, 0, 0, 0, 0.0, 0.0, 0.0, 0.0, 0, 0, 0, 0, 0, 0, 0, 0, 0, 0
331564, 1.041947603225708, 0.3207257091999054, -0.6767246723175049, -0.11084697395563126, 0.21475152671337128, 0.10607821494340897, 0.03756890445947647, -1.740874171257019, 0.014051665551960468, 0.005105405114591122, -0.005077485926449299, -0.0009165481314994395, 0, 0, 0, 0.0, 0.0, 0.0, 0.0, 0, 0, 0, 0, 0, 0, 0, 0, 0, 0
331574, 1.017019510269165, 0.31911084055900574, -0.6797245740890503, 0.08106828480958939, -0.0786183550953865, -0.0997430682182312, 0.03744521737098694, -1.7414007186889648, 0.013980341143906116, 0.003983482252806425, -0.00894208624958992, -0.0011700685136020184, 0, 0, 0, 0.0, 0.0, 0.0, 0.0, 0, 0, 0, 0, 0, 0, 0, 0, 0, 0
331584, 0.9988908767700195, 0.27604639530181885, -0.6796518564224243, -0.046070754528045654, 0.049737248569726944, 0.02584628202021122, 0.03745114430785179, -1.7410105466842651, 0.013840866275131702, 0.0041002375073730946, -0.005782346241176128, -0.0018350930185988545, 0, 0, 0, 0.0, 0.0, 0.0, 0.0, 0, 0, 0, 0, 0, 0, 0, 0, 0, 0
331594, 1.003796935081482, 0.27812132239341736, -0.6773552894592285, -0.14095443487167358, 0.13676302134990692, 0.06553643941879272, 0.03807700797915459, -1.7407571077346802, 0.013701798394322395, 0.009303068742156029, -0.0037737730890512466, -0.002617037622258067, 0, 0, 0, 0.0, 0.0, 0.0, 0.0, 0, 0, 0, 0, 0, 0, 0, 0, 0, 0
331604, 1.0318220853805542, 0.2559642195701599, -0.6760515570640564, -0.32858338952064514, 0.1706252545118332, 0.026389675214886665, 0.03807098791003227, -1.7408961057662964, 0.014941968023777008, 0.009267741814255714, -0.0048268078826367855, 0.005153278354555368, 0, 0, 0, 0.0, 0.0, 0.0, 0.0, 0, 0, 0, 0, 0, 0, 0, 0, 0, 0
331614, 0.9971336126327515, 0.3058195412158966, -0.6767770051956177, 0.01939474418759346, 0.24486498534679413, 0.0731949731707573, 0.038458507508039474, -1.7413994073867798, 0.014923927374184132, 0.012112715281546116, -0.008606499992311, 0.004744492005556822, 0, 0, 0, 0.0, 0.0, 0.0, 0.0, 0, 0, 0, 0, 0, 0, 0, 0, 0, 0
331624, 0.9975209832191467, 0.28010958433151245, -0.6767982840538025, -0.015699096024036407, -0.0019381423480808735, -0.007664672564715147, 0.03772154450416565, -1.7408679723739624, 0.014830950647592545, 0.006056811194866896, -0.004349443595856428, 0.003944106865674257, 0, 0, 0, 0.0, 0.0, 0.0, 0.0, 0, 0, 0, 0, 0, 0, 0, 0, 0, 0
331634, 1.0028929710388184, 0.27982065081596375, -0.6779976487159729, -0.17627917230129242, 0.06694696843624115, -0.1293974667787552, 0.038028594106435776, -1.7407042980194092, 0.014644011855125427, 0.00860773678869009, -0.0031194263137876987, 0.002623435342684388, 0, 0, 0, 0.0, 0.0, 0.0, 0.0, 0, 0, 0, 0, 0, 0, 0, 0, 0, 0
331645, 1.0074809789657593, 0.30392178893089294, -0.6781336069107056, 0.13824577629566193, -0.29564201831817627, 0.1334678679704666, 0.03808704391121864, -1.7407381534576416, 0.014571637846529484, 0.008941899053752422, -0.0033601191826164722, 0.002044995315372944, 0, 0, 0, 0.0, 0.0, 0.0, 0.0, 0, 0, 0, 0, 0, 0, 0, 0, 0, 0
331654, 1.037099003791809, 0.2461894303560257, -0.6778199076652527, -0.025160307064652443, 0.3231865465641022, -0.06600327044725418, 0.03771502897143364, -1.7407512664794922, 0.014902066439390182, 0.005993535742163658, -0.0035925775300711393, 0.0037747565656900406, 0, 0, 0, 0.0, 0.0, 0.0, 0.0, 0, 0, 0, 0, 0, 0, 0, 0, 0, 0
331664, 1.0248818397521973, 0.3075118064880371, -0.6753756999969482, 0.02065054513514042, 0.005461166612803936, 0.22123712301254272, 0.03853465989232063, -1.7412059307098389, 0.014772236347198486, 0.012707456946372986, -0.007472932804375887, 0.0027909250929951668, 0, 0, 0, 0.0, 0.0, 0.0, 0.0, 0, 0, 0, 0, 0, 0, 0, 0, 0, 0
331674, 1.0183299779891968, 0.2815150320529938, -0.6757943630218506, -0.039144113659858704, -0.06436283886432648, 0.012914272025227547, 0.037716444581747055, -1.741094708442688, 0.01474087592214346, 0.005533238407224417, -0.006350141949951649, 0.0024994632694870234, 0, 0, 0, 0.0, 0.0, 0.0, 0.0, 0, 0, 0, 0, 0, 0, 0, 0, 0, 0
331685, 1.0168935060501099, 0.2787502110004425, -0.6752414107322693, -0.01645774394273758, 0.330557644367218, 0.04233676567673683, 0.03807200863957405, -1.7409764528274536, 0.014592577703297138, 0.008333612233400345, -0.005361057352274656, 0.001582893542945385, 0, 0, 0, 0.0, 0.0, 0.0, 0.0, 0, 0, 0, 0, 0, 0, 0, 0, 0, 0
331694, 1.0030522346496582, 0.24697783589363098, -0.6771522760391235, -0.08790755271911621, -0.09318211674690247, 0.07201171666383743, 0.03810986876487732, -1.740994930267334, 0.014927208423614502, 0.008542472496628761, -0.005484024994075298, 0.00340474396944046, 0, 0, 0, 0.0, 0.0, 0.0, 0.0, 0, 0, 0, 0, 0, 0, 0, 0, 0, 0
331704, 1.0009174346923828, 0.2733962833881378, -0.6750953197479248, 0.03691762685775757, 0.4255698025226593, 0.25129756331443787, 0.03857393190264702, -1.7407636642456055, 0.014805992133915424, 0.012549804523587227, -0.0035352385602891445, 0.002279240172356367, 0, 0, 0, 0.0, 0.0, 0.0, 0.0, 0, 0, 0, 0, 0, 0, 0, 0, 0, 0
331714, 1.0056684017181396, 0.28301966190338135, -0.6731743216514587, -0.27052968740463257, 0.2813747823238373, 0.00723659060895443, 0.03820260241627693, -1.7407582998275757, 0.014682343229651451, 0.00954418908804655, -0.0034603895619511604, 0.0011585429310798645, 0, 0, 0, 0.0, 0.0, 0.0, 0.0, 0, 0, 0, 0, 0, 0, 0, 0, 0, 0
331724, 1.0045132637023926, 0.28203529119491577, -0.6716059446334839, -0.009213353507220745, 0.009356572292745113, 0.12283163517713547, 0.03809025138616562, -1.7408812046051025, 0.014606996439397335, 0.008290538564324379, -0.004470302257686853, 0.0005993826198391616, 0, 0, 0, 0.0, 0.0, 0.0, 0.0, 0, 0, 0, 0, 0, 0, 0, 0, 0, 0
331734, 1.000701904296875, 0.3075697720050812, -0.6730391979217529, -0.16612868010997772, 0.13277499377727509, 0.20352670550346375, 0.03812897205352783, -1.7409049272537231, 0.014455346390604973, 0.008536242879927158, -0.004693624097853899, -0.0002755233726929873, 0, 0, 0, 0.0, 0.0, 0.0, 0.0, 0, 0, 0, 0, 0, 0, 0, 0, 0, 0
331745, 0.9681640863418579, 0.2962316870689392, -0.6733284592628479, -0.09055761247873306, 0.20674726366996765, -0.010351698845624924, 0.0377502515912056, -1.7408804893493652, 0.014494571834802628, 0.00543327396735549, -0.004446852020919323, 3.4623164538061246e-05, 0, 0, 0, 0.0, 0.0, 0.0, 0.0, 0, 0, 0, 0, 0, 0, 0, 0, 0, 0
331754, 0.9976689219474792, 0.27888575196266174, -0.6723955273628235, -0.03342149034142494, 0.1294175088405609, 0.07868404686450958, 0.037870991975069046, -1.7403991222381592, 0.014372561126947403, 0.006770591251552105, -0.0002261996123706922, -0.0006760677206330001, 0, 0, 0, 0.0, 0.0, 0.0, 0.0, 0, 0, 0, 0, 0, 0, 0, 0, 0, 0
331764, 0.9955784678459167, 0.2779439091682434, -0.6727733016014099, -0.06297583132982254, 0.08358749747276306, -0.13723981380462646, 0.03812212869524956, -1.7407816648483276, 0.014282953925430775, 0.008847767487168312, -0.003411779645830393, -0.0013345092302188277, 0, 0, 0, 0.0, 0.0, 0.0, 0.0, 0, 0, 0, 0, 0, 0, 0, 0, 0, 0
331774, 0.9933027029037476, 0.27437320351600647, -0.6708049178123474, -0.02813638746738434, 0.4396616816520691, 0.04851289466023445, 0.038148876279592514, -1.7407972812652588, 0.01403748244047165, 0.009292153641581535, -0.0036195802967995405, -0.0026823256630450487, 0, 0, 0, 0.0, 0.0, 0.0, 0.0, 0, 0, 0, 0, 0, 0, 0, 0, 0, 0
331784, 1.030829668045044, 0.23914499580860138, -0.6710729598999023, -0.0438116230070591, -0.008958272635936737, 0.0534495934844017, 0.038223233073949814, -1.7408447265625, 0.0155683858320117, 0.009560314938426018, -0.00390869053080678, 0.007248635869473219, 0, 0, 0, 0.0, 0.0, 0.0, 0.0, 0, 0, 0, 0, 0, 0, 0, 0, 0, 0
331794, 1.0166362524032593, 0.30680611729621887, -0.6685471534729004, -0.18474532663822174, 0.1086718812584877, -0.24924996495246887, 0.03874625265598297, -1.7413945198059082, 0.015469899401068687, 0.013781195506453514, -0.008453354239463806, 0.006189079489558935, 0, 0, 0, 0.0, 0.0, 0.0, 0.0, 0, 0, 0, 0, 0, 0, 0, 0, 0, 0
331804, 1.00764799118042, 0.3051223158836365, -0.6704168915748596, -0.03018147312104702, 0.08190623670816422, -0.03471370041370392, 0.03781215846538544, -1.741251826286316, 0.01546622347086668, 0.005707516800612211, -0.006938286125659943, 0.005836998112499714, 0, 0, 0, 0.0, 0.0, 0.0, 0.0, 0, 0, 0, 0, 0, 0, 0, 0, 0, 0
331814, 1.0003708600997925, 0.28763335943222046, -0.6708304286003113, 0.08550585806369781, -0.28885024785995483, 0.02859126590192318, 0.03780973702669144, -1.7410944700241089, 0.015325134620070457, 0.005874372087419033, -0.005550523288547993, 0.004700664430856705, 0, 0, 0, 0.0, 0.0, 0.0, 0.0, 0, 0, 0, 0, 0, 0, 0, 0, 0, 0
331824, 0.9998713135719299, 0.28788840770721436, -0.6696009039878845, 0.023421309888362885, -0.30448484420776367, 0.019302628934383392, 0.038058340549468994, -1.74095618724823, 0.015149482525885105, 0.007893596775829792, -0.004347565118223429, 0.003452951554208994, 0, 0, 0, 0.0, 0.0, 0.0, 0.0, 0, 0, 0, 0, 0, 0, 0, 0, 0, 0
331834, 0.9569339156150818, 0.24427813291549683, -0.6707453727722168, -0.14253981411457062, 0.2941382825374603, 0.070470429956913, 0.038093965500593185, -1.740970253944397, 0.014669102616608143, 0.008063285611569881, -0.004421034827828407, 0.00044855946907773614, 0, 0, 0, 0.0, 0.0, 0.0, 0.0, 0, 0, 0, 0, 0, 0, 0, 0, 0, 0
331845, 1.0050139427185059, 0.27178263664245605, -0.6694765090942383, 0.15158723294734955, 0.013554972596466541, -0.017275694757699966, 0.03876838833093643, -1.7402822971343994, 0.01451638713479042, 0.013630738481879234, 0.001258732401765883, -0.0005776929901912808, 0, 0, 0, 0.0, 0.0, 0.0, 0.0, 0, 0, 0, 0, 0, 0, 0, 0, 0, 0
331854, 1.0025336742401123, 0.2927364408969879, -0.6687887907028198, -0.04636375606060028, 0.15410351753234863, 0.01703217625617981, 0.03833601996302605, -1.7409653663635254, 0.014375417493283749, 0.009927554056048393, -0.004601422231644392, -0.0013187045697122812, 0, 0, 0, 0.0, 0.0, 0.0, 0.0, 0, 0, 0, 0, 0, 0, 0, 0, 0, 0
331864, 1.0076887607574463, 0.31316128373146057, -0.6680156588554382, -0.20303697884082794, -0.14329537749290466, 0.035789310932159424, 0.03805755451321602, -1.7409542798995972, 0.014193625189363956, 0.007597262971103191, -0.004580867942422628, -0.002219290239736438, 0, 0, 0, 0.0, 0.0, 0.0, 0.0, 0, 0, 0, 0, 0, 0, 0, 0, 0, 0
331874, 1.028287410736084, 0.24376150965690613, -0.6690078973770142, 0.16853614151477814, 0.27389058470726013, 0.0036361413076519966, 0.0377439484000206, -1.7410191297531128, 0.014392836950719357, 0.004986299201846123, -0.005291465669870377, -0.0008958068210631609, 0, 0, 0, 0.0, 0.0, 0.0, 0.0, 0, 0, 0, 0, 0, 0, 0, 0, 0, 0
331884, 0.9985098838806152, 0.32686272263526917, -0.6680478453636169, -0.20805050432682037, 0.019351009279489517, 0.0853586196899414, 0.0387076698243618, -1.741280436515808, 0.014250604435801506, 0.013605560176074505, -0.007605784572660923, -0.0018752325559034944, 0, 0, 0, 0.0, 0.0, 0.0, 0.0, 0, 0, 0, 0, 0, 0, 0, 0, 0, 0
331894, 0.9913122653961182, 0.3024277985095978, -0.6701520085334778, 0.09003680944442749, 0.17649735510349274, 0.15171971917152405, 0.03759437054395676, -1.7408862113952637, 0.014130541123449802, 0.0033498553093522787, -0.0038787045050412416, -0.0025899552274495363, 0, 0, 0, 0.0, 0.0, 0.0, 0.0, 0, 0, 0, 0, 0, 0, 0, 0, 0, 0
331904, 1.0053449869155884, 0.3141530454158783, -0.6682403683662415, -0.052440911531448364, 0.14692220091819763, 0.16566939651966095, 0.03796936199069023, -1.7408579587936401, 0.014019095338881016, 0.006601400673389435, -0.0034929385874420404, -0.0031660778913646936, 0, 0, 0, 0.0, 0.0, 0.0, 0.0, 0, 0, 0, 0, 0, 0, 0, 0, 0, 0
331914, 1.0048625469207764, 0.3141573667526245, -0.6668243408203125, -0.0763230174779892, 0.1911945790052414, -0.03837389498949051, 0.03771647810935974, -1.7409785985946655, 0.01378141064196825, 0.004542510025203228, -0.00472636753693223, -0.004453185945749283, 0, 0, 0, 0.0, 0.0, 0.0, 0.0, 0, 0, 0, 0, 0, 0, 0, 0, 0, 0
331924, 0.9555850625038147, 0.31961768865585327, -0.6679801344871521, -0.10241126269102097, 0.07821890711784363, -0.050324853509664536, 0.03774518519639969, -1.741034746170044, 0.015107880346477032, 0.004678948316723108, -0.005005878396332264, 0.004597464110702276, 0, 0, 0, 0.0, 0.0, 0.0, 0.0, 0, 0, 0, 0, 0, 0, 0, 0, 0, 0
331935, 1.0018272399902344, 0.3162831962108612, -0.6671398878097534, -0.2823408246040344, 0.09050209075212479, 0.020244602113962173, 0.03762795403599739, -1.7402514219284058, 0.01498405635356903, 0.003442323300987482, 0.001739539671689272, 0.0034383574966341257, 0, 0, 0, 0.0, 0.0, 0.0, 0.0, 0, 0, 0, 0, 0, 0, 0, 0, 0, 0
331944, 1.0022801160812378, 0.288229763507843, -0.6674550175666809, -0.050411008298397064, 0.013670286163687706, 0.09501379728317261, 0.037604719400405884, -1.7408944368362427, 0.014856234192848206, 0.0034161806106567383, -0.004187681712210178, 0.0023225992918014526, 0, 0, 0, 0.0, 0.0, 0.0, 0.0, 0, 0, 0, 0, 0, 0, 0, 0, 0, 0
331954, 1.0072755813598633, 0.2853076756000519, -0.666842520236969, -0.09403200447559357, 0.0062848785892128944, 0.15789467096328735, 0.037966374307870865, -1.7408868074417114, 0.014694953337311745, 0.006949558388441801, -0.004009794443845749, 0.0010332210222259164, 0, 0, 0, 0.0, 0.0, 0.0, 0.0, 0, 0, 0, 0, 0, 0, 0, 0, 0, 0
331964, 1.0396316051483154, 0.24384021759033203, -0.6658674478530884, -0.1517057567834854, 0.11651492118835449, -0.017944561317563057, 0.03868085518479347, -1.7414578199386597, 0.014995512552559376, 0.012925240211188793, -0.008602392859756947, 0.0029695641715079546, 0, 0, 0, 0.0, 0.0, 0.0, 0.0, 0, 0, 0, 0, 0, 0, 0, 0, 0, 0
331974, 1.0137027502059937, 0.30314016342163086, -0.6659784317016602, -0.15245895087718964, -0.08511264622211456, 0.11002466082572937, 0.03864810988306999, -1.7414194345474243, 0.01492323074489832, 0.01286104042083025, -0.008532442152500153, 0.0024772868491709232, 0, 0, 0, 0.0, 0.0, 0.0, 0.0, 0, 0, 0, 0, 0, 0, 0, 0, 0, 0
331984, 1.0041706562042236, 0.3013182282447815, -0.6655620336532593, -0.20355655252933502, 0.25324246287345886, -0.02343948371708393, 0.037735387682914734, -1.7410176992416382, 0.014810951426625252, 0.004898183513432741, -0.004877404775470495, 0.001645706477575004, 0, 0, 0, 0.0, 0.0, 0.0, 0.0, 0, 0, 0, 0, 0, 0, 0, 0, 0, 0
331994, 1.0001319646835327, 0.2838461399078369, -0.6648101210594177, -0.07050333172082901, 0.02005132846534252, -0.029277615249156952, 0.03773657977581024, -1.7408738136291504, 0.014670315198600292, 0.0048240553587675095, -0.0037178422790020704, 0.0007998158107511699, 0, 0, 0, 0.0, 0.0, 0.0, 0.0, 0, 0, 0, 0, 0, 0, 0, 0, 0, 0
332004, 1.0051958560943604, 0.29967862367630005, -0.6643595695495605, -0.07389688491821289, 0.3201352059841156, 0.03894105181097984, 0.03796488419175148, -1.7408684492111206, 0.014484602957963943, 0.006887075956910849, -0.0038267902564257383, -0.0003672645543701947, 0, 0, 0, 0.0, 0.0, 0.0, 0.0, 0, 0, 0, 0, 0, 0, 0, 0, 0, 0
332014, 0.9899213314056396, 0.23721247911453247, -0.6651099920272827, 0.02491413988173008, -0.11617549508810043, 0.003278690157458186, 0.03772563114762306, -1.7408769130706787, 0.014585264958441257, 0.004760437645018101, -0.0038266084156930447, 0.0002783399249892682, 0, 0, 0, 0.0, 0.0, 0.0, 0.0, 0, 0, 0, 0, 0, 0, 0, 0, 0, 0
332024, 0.9985501170158386, 0.3003154993057251, -0.6665815711021423, 0.004879255313426256, 0.4111904799938202, -0.09129884093999863, 0.038685597479343414, -1.7406398057937622, 0.014448236674070358, 0.013108995743095875, -0.001960485940799117, -0.0005384566611610353, 0, 0, 0, 0.0, 0.0, 0.0, 0.0, 0, 0, 0, 0, 0, 0, 0, 0, 0, 0
332035, 1.0147126913070679, 0.30259883403778076, -0.6687830686569214, -0.019183842465281487, -0.059223201125860214, 0.13104499876499176, 0.03772508352994919, -1.7407288551330566, 0.014334878884255886, 0.004767354112118483, -0.0029102652333676815, -0.0014001858653500676, 0, 0, 0, 0.0, 0.0, 0.0, 0.0, 0, 0, 0, 0, 0, 0, 0, 0, 0, 0
332044, 1.0195116996765137, 0.30280601978302, -0.666653037071228, 0.03439505770802498, 0.00578604731708765, 0.10238901525735855, 0.03759492561221123, -1.7408547401428223, 0.014154396019876003, 0.004073715303093195, -0.004014218226075172, -0.0024111757520586252, 0, 0, 0, 0.0, 0.0, 0.0, 0.0, 0, 0, 0, 0, 0, 0, 0, 0, 0, 0
332054, 1.0388171672821045, 0.29957813024520874, -0.6663140058517456, 0.028858819976449013, 0.1095195859670639, 0.10648886114358902, 0.03758986294269562, -1.7409615516662598, 0.014298135414719582, 0.004480612464249134, -0.00481780618429184, -0.0011043675476685166, 0, 0, 0, 0.0, 0.0, 0.0, 0.0, 0, 0, 0, 0, 0, 0, 0, 0, 0, 0
332064, 1.0313687324523926, 0.26668986678123474, -0.6650479435920715, -0.04961567372083664, 0.0026761232875287533, -0.06018469110131264, 0.03759969025850296, -1.7412078380584717, 0.014217707328498363, 0.004922079853713512, -0.0067179398611187935, -0.001565363840200007, 0, 0, 0, 0.0, 0.0, 0.0, 0.0, 0, 0, 0, 0, 0, 0, 0, 0, 0, 0
332074, 1.0304555892944336, 0.26600003242492676, -0.6641172170639038, -0.023608194664120674, 0.05558956041932106, -0.10802138596773148, 0.03808225318789482, -1.7410786151885986, 0.014077214524149895, 0.009173590689897537, -0.005732936784625053, -0.0023162418510764837, 0, 0, 0, 0.0, 0.0, 0.0, 0.0, 0, 0, 0, 0, 0, 0, 0, 0, 0, 0
332084, 1.0191699266433716, 0.2635299265384674, -0.6667523980140686, -0.16972529888153076, 0.26119011640548706, -0.03827466070652008, 0.038126107305288315, -1.7410924434661865, 0.013912119902670383, 0.009618345648050308, -0.005977677647024393, -0.003075751243159175, 0, 0, 0, 0.0, 0.0, 0.0, 0.0, 0, 0, 0, 0, 0, 0, 0, 0, 0, 0
332094, 1.0147770643234253, 0.29258742928504944, -0.6667568683624268, -0.24569040536880493, -0.15485244989395142, -0.14082124829292297, 0.03811633959412575, -1.7408427000045776, 0.013747668825089931, 0.009419472888112068, -0.003992974758148193, -0.0037524939980357885, 0, 0, 0, 0.0, 0.0, 0.0, 0.0, 0, 0, 0, 0, 0, 0, 0, 0, 0, 0
332104, 1.001451849937439, 0.2682543694972992, -0.6675421595573425, 0.010602053254842758, -0.0934935212135315, 0.027864504605531693, 0.03774695470929146, -1.740845799446106, 0.014687428250908852, 0.006358015816658735, -0.004135805182158947, 0.002479918533936143, 0, 0, 0, 0.0, 0.0, 0.0, 0.0, 0, 0, 0, 0, 0, 0, 0, 0, 0, 0
332114, 1.0244730710983276, 0.29478225111961365, -0.6654950976371765, -0.04566080495715141, -0.0979108065366745, 0.06834663450717926, 0.03809617832303047, -1.740620732307434, 0.014568747021257877, 0.009561988525092602, -0.0023616545367985964, 0.0016129190335050225, 0, 0, 0, 0.0, 0.0, 0.0, 0.0, 0, 0, 0, 0, 0, 0, 0, 0, 0, 0
332124, 1.0170173645019531, 0.2771797478199005, -0.6656870245933533, -0.18995121121406555, -0.028805729001760483, -0.12121419608592987, 0.03775620087981224, -1.7409778833389282, 0.014513715170323849, 0.006665118504315615, -0.005240348167717457, 0.00132333068177104, 0, 0, 0, 0.0, 0.0, 0.0, 0.0, 0, 0, 0, 0, 0, 0, 0, 0, 0, 0
332135, 1.0147132873535156, 0.27821221947669983, -0.6648430824279785, 0.01024108286947012, 0.18483953177928925, -0.05449462682008743, 0.037996791303157806, -1.7408554553985596, 0.014366047456860542, 0.008819597773253918, -0.004194959998130798, 0.00036738807102665305, 0, 0, 0, 0.0, 0.0, 0.0, 0.0, 0, 0, 0, 0, 0, 0, 0, 0, 0, 0
332144, 1.0204451084136963, 0.23748710751533508, -0.6646472215652466, 0.06380222737789154, 0.2060578465461731, -0.0920749083161354, 0.038042888045310974, -1.7408820390701294, 0.014454448595643044, 0.009477637708187103, -0.004262453876435757, 0.0008934278157539666, 0, 0, 0, 0.0, 0.0, 0.0, 0.0, 0, 0, 0, 0, 0, 0, 0, 0, 0, 0
332154, 1.0212920904159546, 0.30064156651496887, -0.6659552454948425, -0.04394429177045822, -0.26841816306114197, -0.2968950867652893, 0.038674913346767426, -1.7410095930099487, 0.014400215819478035, 0.01437570620328188, -0.005202608648687601, 0.00045113626401871443, 0, 0, 0, 0.0, 0.0, 0.0, 0.0, 0, 0, 0, 0, 0, 0, 0, 0, 0, 0
332164, 1.0143320560455322, 0.30901801586151123, -0.6658618450164795, -0.005562604404985905, 0.2506205439567566, 0.09563860297203064, 0.03779943287372589, -1.7409905195236206, 0.014288555830717087, 0.007020249031484127, -0.005162297748029232, -0.0002342828520340845, 0, 0, 0, 0.0, 0.0, 0.0, 0.0, 0, 0, 0, 0, 0, 0, 0, 0, 0, 0
332174, 1.0122935771942139, 0.2738674581050873, -0.6660000681877136, -0.09632211178541183, -0.18268141150474548, -0.29568955302238464, 0.03768622502684593, -1.740864872932434, 0.014152717776596546, 0.006040873471647501, -0.004089497961103916, -0.0009881802834570408, 0, 0, 0, 0.0, 0.0, 0.0, 0.0, 0, 0, 0, 0, 0, 0, 0, 0, 0, 0
332185, 1.0108596086502075, 0.27205994725227356, -0.6658893823623657, -0.02680755779147148, 0.005675464402884245, 0.08209268003702164, 0.03815614804625511, -1.7408512830734253, 0.013989215716719627, 0.010039689019322395, -0.003957946784794331, -0.001892543863505125, 0, 0, 0, 0.0, 0.0, 0.0, 0.0, 0, 0, 0, 0, 0, 0, 0, 0, 0, 0
332194, 1.0486040115356445, 0.2316986471414566, -0.6664333343505859, -0.23907403647899628, -0.1639116406440735, -0.10896887630224228, 0.03821159154176712, -1.740893840789795, 0.014795295894145966, 0.010503302328288555, -0.004377737641334534, 0.0027690217830240726, 0, 0, 0, 0.0, 0.0, 0.0, 0.0, 0, 0, 0, 0, 0, 0, 0, 0, 0, 0
332204, 1.0251673460006714, 0.3005187511444092, -0.6671507954597473, 0.1468401849269867, 0.3698585629463196, -0.06998725235462189, 0.03880311921238899, -1.7413755655288696, 0.01466528419405222, 0.01522433664649725, -0.008419433608651161, 0.0017686329083517194, 0, 0, 0, 0.0, 0.0, 0.0, 0.0, 0, 0, 0, 0, 0, 0, 0, 0, 0, 0
332214, 1.0129493474960327, 0.27666234970092773, -0.6675254106521606, -0.16733698546886444, 0.17210958898067474, -0.00855233520269394, 0.03782268986105919, -1.7409863471984863, 0.01456749252974987, 0.006706985179334879, -0.0051254271529614925, 0.0011679456802085042, 0, 0, 0, 0.0, 0.0, 0.0, 0.0, 0, 0, 0, 0, 0, 0, 0, 0, 0, 0
332224, 1.0110503435134888, 0.2739144265651703, -0.6656743884086609, -0.16591592133045197, 0.4456340968608856, 0.14270678162574768, 0.03819860890507698, -1.7408788204193115, 0.014490675181150436, 0.009777997620403767, -0.004150088410824537, 0.0006737408111803234, 0, 0, 0, 0.0, 0.0, 0.0, 0.0, 0, 0, 0, 0, 0, 0, 0, 0, 0, 0
332235, 0.976402997970581, 0.2464592009782791, -0.6667231917381287, -0.2000095099210739, 0.12067257612943649, 0.15012593567371368, 0.03824327886104584, -1.7408850193023682, 0.01326977089047432, 0.010344994254410267, -0.0043401215225458145, -0.006949917413294315, 0, 0, 0, 0.0, 0.0, 0.0, 0.0, 0, 0, 0, 0, 0, 0, 0, 0, 0, 0
332244, 1.017408013343811, 0.3044443130493164, -0.6663418412208557, -0.16421380639076233, -0.1156834214925766, -0.222329244017601, 0.03860919922590256, -1.7403901815414429, 0.013125124387443066, 0.013513164594769478, -0.0002785076212603599, -0.007328562438488007, 0, 0, 0, 0.0, 0.0, 0.0, 0.0, 0, 0, 0, 0, 0, 0, 0, 0, 0, 0
332254, 1.017785906791687, 0.303922176361084, -0.6662551760673523, 0.07268404960632324, -0.17881914973258972, 0.11657923460006714, 0.037894345819950104, -1.7409892082214355, 0.013054692186415195, 0.007369250524789095, -0.005154543090611696, -0.0072564613074064255, 0, 0, 0, 0.0, 0.0, 0.0, 0.0, 0, 0, 0, 0, 0, 0, 0, 0, 0, 0
332264, 1.0261603593826294, 0.30350014567375183, -0.6652299761772156, -0.2736053466796875, 0.3692263960838318, 0.00676844222471118, 0.037877269089221954, -1.7408584356307983, 0.012876693159341812, 0.007446362171322107, -0.003972824662923813, -0.007953795604407787, 0, 0, 0, 0.0, 0.0, 0.0, 0.0, 0, 0, 0, 0, 0, 0, 0, 0, 0, 0
332274, 1.0255225896835327, 0.31006547808647156, -0.6660248637199402, 0.06641096621751785, 0.14297428727149963, 0.1408860981464386, 0.03786952793598175, -1.7409851551055908, 0.012724809348583221, 0.007461484521627426, -0.0049648405984044075, -0.008508147671818733, 0, 0, 0, 0.0, 0.0, 0.0, 0.0, 0, 0, 0, 0, 0, 0, 0, 0, 0, 0
332285, 1.010204792022705, 0.23358693718910217, -0.6660691499710083, -0.202318012714386, 0.042325712740421295, 0.038812149316072464, 0.03775012120604515, -1.7409943342208862, 0.01454227790236473, 0.006591621786355972, -0.005081827286630869, 0.002663911785930395, 0, 0, 0, 0.0, 0.0, 0.0, 0.0, 0, 0, 0, 0, 0, 0, 0, 0, 0, 0
332294, 1.0085262060165405, 0.28138506412506104, -0.6668258905410767, 0.28161999583244324, 0.1530935913324356, -0.18294626474380493, 0.038826826959848404, -1.7407654523849487, 0.01442570798099041, 0.01539588812738657, -0.003384652314707637, 0.0020588673651218414, 0, 0, 0, 0.0, 0.0, 0.0, 0.0, 0, 0, 0, 0, 0, 0, 0, 0, 0, 0
332304, 1.0078108310699463, 0.2803539037704468, -0.6659908294677734, 0.16956360638141632, 0.12249674648046494, -0.08019694685935974, 0.0382155142724514, -1.7407587766647339, 0.014327983371913433, 0.009953001514077187, -0.0034234870690852404, 0.0016285780584439635, 0, 0, 0, 0.0, 0.0, 0.0, 0.0, 0, 0, 0, 0, 0, 0, 0, 0, 0, 0
332314, 1.0114175081253052, 0.2760807275772095, -0.6659040451049805, -0.1477777659893036, -0.004438132047653198, 0.23997199535369873, 0.038259997963905334, -1.7407774925231934, 0.01419154740869999, 0.010263187810778618, -0.0037346426397562027, 0.0009734853520058095, 0, 0, 0, 0.0, 0.0, 0.0, 0.0, 0, 0, 0, 0, 0, 0, 0, 0, 0, 0
332324, 0.9776008725166321, 0.24060975015163422, -0.6662119626998901, 0.15616649389266968, -0.0020327484235167503, 0.041366271674633026, 0.03833213075995445, -1.7408075332641602, 0.014086028560996056, 0.010798654519021511, -0.0038551518227905035, 0.00039994248072616756, 0, 0, 0, 0.0, 0.0, 0.0, 0.0, 0, 0, 0, 0, 0, 0, 0, 0, 0, 0
332335, 1.0117168426513672, 0.30961307883262634, -0.663645327091217, -0.10175016522407532, 0.22280411422252655, 0.10390578955411911, 0.03883057460188866, -1.7402995824813843, 0.013976456597447395, 0.014953928999602795, 0.0002535776002332568, -0.00024031657085288316, 0, 0, 0, 0.0, 0.0, 0.0, 0.0, 0, 0, 0, 0, 0, 0, 0, 0, 0, 0
332344, 1.0171229839324951, 0.31012457609176636, -0.6619798541069031, -0.1466233730316162, 0.038081541657447815, 0.02139541134238243, 0.037920426577329636, -1.740789532661438, 0.013867641799151897, 0.007298758253455162, -0.0040040407329797745, -0.001006932114250958, 0, 0, 0, 0.0, 0.0, 0.0, 0.0, 0, 0, 0, 0, 0, 0, 0, 0, 0, 0
332354, 1.0137991905212402, 0.2942362427711487, -0.6593692302703857, -0.040501341223716736, 0.01620425097644329, 0.1489110291004181, 0.03792519122362137, -1.7409266233444214, 0.01374140940606594, 0.007476376835256815, -0.00511448597535491, -0.0017220446607097983, 0, 0, 0, 0.0, 0.0, 0.0, 0.0, 0, 0, 0, 0, 0, 0, 0, 0, 0, 0
332364, 1.0101522207260132, 0.31421932578086853, -0.658176600933075, 0.01757771335542202, 0.19250629842281342, 0.02307220548391342, 0.038170818239450455, -1.7409212589263916, 0.013590346090495586, 0.00950740184634924, -0.005069713573902845, -0.0024188938550651073, 0, 0, 0, 0.0, 0.0, 0.0, 0.0, 0, 0, 0, 0, 0, 0, 0, 0, 0, 0
332374, 0.9684174656867981, 0.31008508801460266, -0.6586297154426575, -0.08542756736278534, 0.2809886336326599, 0.01609785668551922, 0.037948787212371826, -1.7409418821334839, 0.0152658112347126, 0.007416281849145889, -0.005178643856197596, 0.007615155074745417, 0, 0, 0, 0.0, 0.0, 0.0, 0.0, 0, 0, 0, 0, 0, 0, 0, 0, 0, 0
332384, 1.0151605606079102, 0.301851361989975, -0.6593767404556274, -0.06392576545476913, -0.07361802458763123, -0.12285875529050827, 0.03795004263520241, -1.7402011156082153, 0.015187345445156097, 0.007448002230376005, 0.0007724894094280899, 0.006609364412724972, 0, 0, 0, 0.0, 0.0, 0.0, 0.0, 0, 0, 0, 0, 0, 0, 0, 0, 0, 0
332394, 1.0111722946166992, 0.28879982233047485, -0.6593532562255859, -0.15028856694698334, 0.11032341420650482, -0.007864697836339474, 0.03806820139288902, -1.7408432960510254, 0.015074007213115692, 0.008447621949017048, -0.004722974728792906, 0.005421395413577557, 0, 0, 0, 0.0, 0.0, 0.0, 0.0, 0, 0, 0, 0, 0, 0, 0, 0, 0, 0
332404, 1.0086606740951538, 0.2875198721885681, -0.6581730246543884, -0.11942459642887115, -0.12288615107536316, 0.018954722210764885, 0.038342174142599106, -1.7408506870269775, 0.015022087842226028, 0.010699321515858173, -0.004570078104734421, 0.0049642035737633705, 0, 0, 0, 0.0, 0.0, 0.0, 0.0, 0, 0, 0, 0, 0, 0, 0, 0, 0, 0
332414, 1.0393123626708984, 0.2496873140335083, -0.6574629545211792, -0.26033374667167664, 0.04269234463572502, -0.14583906531333923, 0.038348205387592316, -1.740871787071228, 0.014837629161775112, 0.011058088392019272, -0.004880954977124929, 0.003553587943315506, 0, 0, 0, 0.0, 0.0, 0.0, 0.0, 0, 0, 0, 0, 0, 0, 0, 0, 0, 0
332424, 1.0174099206924438, 0.3229686915874481, -0.6573204398155212, -0.03731678053736687, -0.10609240084886551, 0.4676936864852905, 0.039012037217617035, -1.7414029836654663, 0.014788630418479443, 0.016178758814930916, -0.009100127033889294, 0.002988513559103012, 0, 0, 0, 0.0, 0.0, 0.0, 0.0, 0, 0, 0, 0, 0, 0, 0, 0, 0, 0
332435, 1.0044804811477661, 0.3266391456127167, -0.6549625992774963, 0.024927658960223198, 0.032794076949357986, 0.04215891286730766, 0.037944696843624115, -1.7411208152770996, 0.014699943363666534, 0.007059094496071339, -0.00662376219406724, 0.002373605268076062, 0, 0, 0, 0.0, 0.0, 0.0, 0.0, 0, 0, 0, 0, 0, 0, 0, 0, 0, 0
332444, 1.000612735748291, 0.3103632628917694, -0.6536253094673157, -0.12523101270198822, 0.49204447865486145, -0.063899926841259, 0.0379408560693264, -1.7409807443618774, 0.014567536301910877, 0.007068020757287741, -0.005475112237036228, 0.001577230985276401, 0, 0, 0, 0.0, 0.0, 0.0, 0.0, 0, 0, 0, 0, 0, 0, 0, 0, 0, 0
332454, 0.999487578868866, 0.32539790868759155, -0.6530250906944275, -0.24683983623981476, -0.05722751095890999, 0.1364053338766098, 0.03821313753724098, -1.7409933805465698, 0.01448839996010065, 0.009270726703107357, -0.005426797550171614, 0.0010569841833785176, 0, 0, 0, 0.0, 0.0, 0.0, 0.0, 0, 0, 0, 0, 0, 0, 0, 0, 0, 0
332464, 0.9457240700721741, 0.30410829186439514, -0.6522180438041687, -0.06420682370662689, -0.09841853380203247, 0.0010509653948247433, 0.0379202775657177, -1.7409756183624268, 0.014803601428866386, 0.006931432988494635, -0.005308511666953564, 0.003044518642127514, 0, 0, 0, 0.0, 0.0, 0.0, 0.0, 0, 0, 0, 0, 0, 0, 0, 0, 0, 0
332474, 1.0088276863098145, 0.30630218982696533, -0.6524566411972046, 0.06752102822065353, 0.1694355458021164, -0.01205676980316639, 0.03832362964749336, -1.7402287721633911, 0.014769090339541435, 0.01021103747189045, 0.001159612205810845, 0.002548088086768985, 0, 0, 0, 0.0, 0.0, 0.0, 0.0, 0, 0, 0, 0, 0, 0, 0, 0, 0, 0
332485, 1.0080947875976562, 0.3289242684841156, -0.6521143317222595, -0.11119081825017929, 0.2895924150943756, -0.08311127126216888, 0.0382964164018631, -1.7411000728607178, 0.014613551087677479, 0.00986053328961134, -0.006251544691622257, 0.0013751176884397864, 0, 0, 0, 0.0, 0.0, 0.0, 0.0, 0, 0, 0, 0, 0, 0, 0, 0, 0, 0
332494, 0.9931626915931702, 0.30128952860832214, -0.6536906361579895, -0.04191524162888527, 0.07656928896903992, 0.292481929063797, 0.0379144623875618, -1.74109947681427, 0.014461529441177845, 0.0065164207480847836, -0.005980272311717272, 0.00039943409501574934, 0, 0, 0, 0.0, 0.0, 0.0, 0.0, 0, 0, 0, 0, 0, 0, 0, 0, 0, 0
332504, 0.9968063831329346, 0.260840505361557, -0.6529572010040283, -0.0016078262124210596, 0.05703723430633545, 0.13724322617053986, 0.03828814998269081, -1.7408543825149536, 0.014526375569403172, 0.009635488502681255, -0.0037991188000887632, 0.000861981650814414, 0, 0, 0, 0.0, 0.0, 0.0, 0.0, 0, 0, 0, 0, 0, 0, 0, 0, 0, 0
332514, 1.0111981630325317, 0.2963569462299347, -0.6535460948944092, 0.09201571345329285, 0.15742191672325134, -0.0051628476940095425, 0.03879207745194435, -1.7408298254013062, 0.014449985697865486, 0.01430788729339838, -0.003742500673979521, 0.00033973107929341495, 0, 0, 0, 0.0, 0.0, 0.0, 0.0, 0, 0, 0, 0, 0, 0, 0, 0, 0, 0
332524, 1.014257550239563, 0.3272358775138855, -0.6540100574493408, -0.017975643277168274, -0.17312166094779968, -0.027883099392056465, 0.03830664977431297, -1.74103581905365, 0.014337914995849133, 0.009800825268030167, -0.005610238760709763, -0.0004902139189653099, 0, 0, 0, 0.0, 0.0, 0.0, 0.0, 0, 0, 0, 0, 0, 0, 0, 0, 0, 0
332534, 1.0170538425445557, 0.3175143599510193, -0.6538695096969604, -0.17543312907218933, 0.23013688623905182, 0.14059023559093475, 0.03782530874013901, -1.7410335540771484, 0.014178048819303513, 0.0052978042513132095, -0.005471587646752596, -0.0015472224913537502, 0, 0, 0, 0.0, 0.0, 0.0, 0.0, 0, 0, 0, 0, 0, 0, 0, 0, 0, 0
332545, 0.9976198077201843, 0.2808580994606018, -0.6526215672492981, 0.004008219111710787, -0.26225724816322327, 0.051365457475185394, 0.037930432707071304, -1.7410203218460083, 0.014009089209139347, 0.006233420688658953, -0.005239625461399555, -0.0024411051999777555, 0, 0, 0, 0.0, 0.0, 0.0, 0.0, 0, 0, 0, 0, 0, 0, 0, 0, 0, 0
332554, 0.9538900852203369, 0.34421396255493164, -0.6513038873672485, 0.12386362254619598, 0.05596407130360603, 0.020248018205165863, 0.03847410902380943, -1.7408065795898438, 0.014848115853965282, 0.011168451979756355, -0.0031412013340741396, 0.003449415322393179, 0, 0, 0, 0.0, 0.0, 0.0, 0.0, 0, 0, 0, 0, 0, 0, 0, 0, 0, 0
332564, 0.994363009929657, 0.342854768037796, -0.6522170901298523, 0.03587651997804642, -0.3344326317310333, 0.004746451508253813, 0.03769933059811592, -1.7402291297912598, 0.014826430939137936, 0.0035933901090174913, 0.00198680954053998, 0.0030134369153529406, 0, 0, 0, 0.0, 0.0, 0.0, 0.0, 0, 0, 0, 0, 0, 0, 0, 0, 0, 0
332574, 0.9974414706230164, 0.31076881289482117, -0.6514099836349487, -0.2071325182914734, 0.33441150188446045, -0.009922852739691734, 0.037690289318561554, -1.7408000230789185, 0.014693926088511944, 0.0037215547636151314, -0.0035051030572503805, 0.0019028496462851763, 0, 0, 0, 0.0, 0.0, 0.0, 0.0, 0, 0, 0, 0, 0, 0, 0, 0, 0, 0
332584, 0.9945501089096069, 0.30834442377090454, -0.6507536768913269, 0.08824943751096725, 0.17894916236400604, 0.13046041131019592, 0.0381486713886261, -1.7407896518707275, 0.014533009380102158, 0.007876163348555565, -0.0034373614471405745, 0.0006951256655156612, 0, 0, 0, 0.0, 0.0, 0.0, 0.0, 0, 0, 0, 0, 0, 0, 0, 0, 0, 0
332594, 0.9494549632072449, 0.26906317472457886, -0.648931086063385, -0.068437360227108, -0.02360282465815544, 0.243885338306427, 0.038169533014297485, -1.7408148050308228, 0.015509593300521374, 0.008020365610718727, -0.0036301552318036556, 0.007098254282027483, 0, 0, 0, 0.0, 0.0, 0.0, 0.0, 0, 0, 0, 0, 0, 0, 0, 0, 0, 0
332604, 1.002410888671875, 0.3104247450828552, -0.6476452946662903, -0.0427536815404892, -0.23451006412506104, -0.04620225727558136, 0.038781262934207916, -1.740228533744812, 0.015494905412197113, 0.013161741197109222, 0.0017570167547091842, 0.006602313835173845, 0, 0, 0, 0.0, 0.0, 0.0, 0.0, 0, 0, 0, 0, 0, 0, 0, 0, 0, 0
332614, 1.0024468898773193, 0.33440014719963074, -0.6477508544921875, -0.15495803952217102, -0.05883583053946495, 0.12811750173568726, 0.03814038634300232, -1.7409498691558838, 0.015383301302790642, 0.007576387841254473, -0.004551848396658897, 0.005562273785471916, 0, 0, 0, 0.0, 0.0, 0.0, 0.0, 0, 0, 0, 0, 0, 0, 0, 0, 0, 0
332624, 0.9947075247764587, 0.3073774576187134, -0.6469813585281372, -0.035231444984674454, 0.13130615651607513, 0.14164488017559052, 0.03778356313705444, -1.7409391403198242, 0.015238504856824875, 0.004686376545578241, -0.004456678871065378, 0.004242941737174988, 0, 0, 0, 0.0, 0.0, 0.0, 0.0, 0, 0, 0, 0, 0, 0, 0, 0, 0, 0
332634, 0.9857221841812134, 0.2867582142353058, -0.6471500992774963, 0.12076230347156525, -0.41416868567466736, 0.1543259620666504, 0.03813348338007927, -1.7408225536346436, 0.015063824132084846, 0.00808394979685545, -0.0035492011811584234, 0.002866130555048585, 0, 0, 0, 0.0, 0.0, 0.0, 0.0, 0, 0, 0, 0, 0, 0, 0, 0, 0, 0
332644, 1.0135034322738647, 0.2792545557022095, -0.6474217772483826, -0.010807857848703861, 0.18927843868732452, -0.02725001610815525, 0.038487132638692856, -1.7406851053237915, 0.014913653954863548, 0.010959578678011894, -0.0025465821381658316, 0.0017519755056127906, 0, 0, 0, 0.0, 0.0, 0.0, 0.0, 0, 0, 0, 0, 0, 0, 0, 0, 0, 0
332654, 1.0004249811172485, 0.3227351903915405, -0.6469338536262512, -0.05882338434457779, -0.08065979927778244, 0.028866980224847794, 0.03795640170574188, -1.7408913373947144, 0.014777329750359058, 0.00596891762688756, -0.004397804848849773, 0.0007379699381999671, 0, 0, 0, 0.0, 0.0, 0.0, 0.0, 0, 0, 0, 0, 0, 0, 0, 0, 0, 0
332664, 1.0027412176132202, 0.3133115768432617, -0.646219789981842, -0.24030156433582306, 0.18708306550979614, 0.08334934711456299, 0.03798957169055939, -1.7409274578094482, 0.014693822711706161, 0.005936390720307827, -0.004540219437330961, 2.3014859834802337e-05, 0, 0, 0, 0.0, 0.0, 0.0, 0.0, 0, 0, 0, 0, 0, 0, 0, 0, 0, 0
332674, 1.0058834552764893, 0.3366292119026184, -0.6470703482627869, 0.09991306066513062, 0.06481217592954636, -0.03518816456198692, 0.03809624910354614, -1.7409249544143677, 0.014519613236188889, 0.006813351530581713, -0.00453941011801362, -0.0009504943736828864, 0, 0, 0, 0.0, 0.0, 0.0, 0.0, 0, 0, 0, 0, 0, 0, 0, 0, 0, 0
332684, 1.0261831283569336, 0.28840571641921997, -0.645595371723175, -0.06770174205303192, 0.20343302190303802, -0.04040611907839775, 0.037734854966402054, -1.7409193515777588, 0.014881063252687454, 0.003919053357094526, -0.004494817461818457, 0.0015125434147194028, 0, 0, 0, 0.0, 0.0, 0.0, 0.0, 0, 0, 0, 0, 0, 0, 0, 0, 0, 0
332694, 0.9909782409667969, 0.3057907223701477, -0.6443353295326233, 0.0734734833240509, -0.019932666793465614, 0.14505842328071594, 0.03841239959001541, -1.7412617206573486, 0.014744721353054047, 0.009964192286133766, -0.007399695459753275, 0.0007170171593315899, 0, 0, 0, 0.0, 0.0, 0.0, 0.0, 0, 0, 0, 0, 0, 0, 0, 0, 0, 0
332704, 0.9957788586616516, 0.3162209987640381, -0.6427420377731323, -0.10809695720672607, -0.21136996150016785, 0.051457617431879044, 0.038012195378541946, -1.7408900260925293, 0.014599068090319633, 0.00664167245849967, -0.004163830541074276, -0.00015743782569188625, 0, 0, 0, 0.0, 0.0, 0.0, 0.0, 0, 0, 0, 0, 0, 0, 0, 0, 0, 0
332714, 0.993867814540863, 0.31488847732543945, -0.6415104866027832, -0.06556287407875061, -0.03138064220547676, 0.1372559368610382, 0.038053326308727264, -1.740919589996338, 0.014513560570776463, 0.006699167191982269, -0.004318413324654102, -0.0005922048003412783, 0, 0, 0, 0.0, 0.0, 0.0, 0.0, 0, 0, 0, 0, 0, 0, 0, 0, 0, 0
332724, 0.9920706152915955, 0.3143989145755768, -0.640691876411438, 0.021484483033418655, 0.1535039097070694, -0.16163718700408936, 0.03807980194687843, -1.7409356832504272, 0.0143405981361866, 0.0067702424712479115, -0.004457417409867048, -0.0013892543502151966, 0, 0, 0, 0.0, 0.0, 0.0, 0.0, 0, 0, 0, 0, 0, 0, 0, 0, 0, 0
332734, 0.967045783996582, 0.35019227862358093, -0.6397247314453125, -0.09539145231246948, -0.07531239837408066, 0.2617324888706207, 0.038105227053165436, -1.7409653663635254, 0.015053785406053066, 0.006989337503910065, -0.00470699742436409, 0.0029147667810320854, 0, 0, 0, 0.0, 0.0, 0.0, 0.0, 0, 0, 0, 0, 0, 0, 0, 0, 0, 0
332744, 0.982517421245575, 0.32498812675476074, -0.6398149728775024, 0.06696759164333344, 0.088045634329319, -0.38031086325645447, 0.03760227933526039, -1.7405799627304077, 0.014932566322386265, 0.0028709860052913427, -0.00147561589255929, 0.0020233532413840294, 0, 0, 0, 0.0, 0.0, 0.0, 0.0, 0, 0, 0, 0, 0, 0, 0, 0, 0, 0
332754, 0.9699792265892029, 0.31685778498649597, -0.6390586495399475, -0.12551134824752808, 0.28806477785110474, -0.0898834615945816, 0.037962574511766434, -1.7408329248428345, 0.01478327251970768, 0.006039302330464125, -0.0036130838561803102, 0.0009526513167656958, 0, 0, 0, 0.0, 0.0, 0.0, 0.0, 0, 0, 0, 0, 0, 0, 0, 0, 0, 0
332764, 0.9895213842391968, 0.31460967659950256, -0.6384527683258057, -0.0548795647919178, 0.22014997899532318, 0.08069159835577011, 0.03809114918112755, -1.740714192390442, 0.014705481007695198, 0.00699299480766058, -0.00254790298640728, 0.00043116428423672915, 0, 0, 0, 0.0, 0.0, 0.0, 0.0, 0, 0, 0, 0, 0, 0, 0, 0, 0, 0
332775, 1.0160468816757202, 0.3484334945678711, -0.6380788683891296, -0.01480343658477068, -0.11159010976552963, -0.06289993971586227, 0.03807298094034195, -1.7409619092941284, 0.01530649047344923, 0.006863605696707964, -0.004633932840079069, 0.004106826148927212, 0, 0, 0, 0.0, 0.0, 0.0, 0.0, 0, 0, 0, 0, 0, 0, 0, 0, 0, 0
332784, 0.9832143187522888, 0.3214481770992279, -0.6379165649414062, -0.13373374938964844, 0.2726454734802246, -0.008217687718570232, 0.03757450357079506, -1.741304874420166, 0.015177832916378975, 0.002634016564115882, -0.007450716104358435, 0.0031642375979572535, 0, 0, 0, 0.0, 0.0, 0.0, 0.0, 0, 0, 0, 0, 0, 0, 0, 0, 0, 0
332794, 0.9812219142913818, 0.33942797780036926, -0.6382855772972107, 0.04408873990178108, 0.3693491220474243, -0.07404955476522446, 0.03792481869459152, -1.7408299446105957, 0.01504477672278881, 0.005715570878237486, -0.003377423854544759, 0.0024714721366763115, 0, 0, 0, 0.0, 0.0, 0.0, 0.0, 0, 0, 0, 0, 0, 0, 0, 0, 0, 0
332804, 0.9772120714187622, 0.3230725824832916, -0.6374972462654114, -0.09623811393976212, -0.016986699774861336, -0.17219087481498718, 0.03768822178244591, -1.7408186197280884, 0.014898138120770454, 0.0037762350402772427, -0.0032189541961997747, 0.001688124961219728, 0, 0, 0, 0.0, 0.0, 0.0, 0.0, 0, 0, 0, 0, 0, 0, 0, 0, 0, 0
