timeTick, roll, pitch, yaw, whisker1, whisker2, whisker3, motor1, motor2, motor3, motor4, ext_pos_X,ext_pos_Y,ext_pos_Z, kalX, kalY, kalZ, kalPX, kalPY, kalPZ
575009, 1.1960681676864624, -2.322789192199707, -12.666961669921875, 0, 0, 0, 0, 0, 0, 0, 0, 0, 0, 0, 0, 0, 0, 0, 0
575019, 1.7718318700790405, -2.4332516193389893, -12.40029239654541, 0, 0, 0, 0.0, 0.0, 0.0, 0.0, 0.0, 0.0, 0.0, -0.03141999989748001, -0.409795343875885, 0.014879366382956505, 0.01085489522665739, -0.05781318247318268, 0.002702551195397973
575029, 2.058525562286377, -2.648465156555176, -12.302082061767578, 0, 0, 0, 0.0, 0.0, 0.0, 0.0, 0.0, 0.0, 0.0, -0.03330251947045326, -0.40980514883995056, 0.015052692033350468, 0.011905805207788944, -0.06755421310663223, 0.004049462731927633
575039, 2.0764784812927246, -2.6646602153778076, -12.275090217590332, 0, 0, 0, 0.0, 0.0, 0.0, 0.0, 0.0, 0.0, 0.0, -0.03329615667462349, -0.4093887507915497, 0.015755537897348404, 0.03337666392326355, -0.060654427856206894, 0.008255473338067532
575049, 2.1772894859313965, -2.739978790283203, -12.25688648223877, 0, 0, 0, 0.0, 0.0, 0.0, 0.0, 0.0, 0.0, 0.0, -0.0343276709318161, -0.40954717993736267, 0.016001814976334572, 0.01496155932545662, -0.06578661501407623, 0.009455304592847824
575059, 2.2786927223205566, -2.7584540843963623, -12.20842170715332, 0, 0, 0, 0.0, 0.0, 0.0, 0.0, 0.0, 0.0, 0.0, -0.03482383117079735, -0.4100264608860016, 0.016064031049609184, 0.016287479549646378, -0.0744810551404953, 0.009774584323167801
575069, 2.3142757415771484, -2.823545217514038, -12.214951515197754, 0, 0, 0, 0.0, 0.0, 0.0, 0.0, 0.0, 0.0, 0.0, -0.035015769302845, -0.4103928506374359, 0.016125431284308434, 0.020115520805120468, -0.07713703066110611, 0.009604224003851414
575079, 2.3762972354888916, -2.8285908699035645, -12.194000244140625, 0, 0, 0, 0.0, 0.0, 0.0, 0.0, 0.0, 0.0, 0.0, -0.03515903279185295, -0.41088080406188965, 0.016223376616835594, 0.024602480232715607, -0.08119698613882065, 0.010087383911013603
575089, 2.4241018295288086, -2.842568874359131, -12.161532402038574, 0, 0, 0, 0.0, 0.0, 0.0, 0.0, 0.0, 0.0, 0.0, -0.03523654863238335, -0.4111432135105133, 0.01700739935040474, 0.022809214890003204, -0.07746929675340652, 0.01431006845086813
575099, 2.4688241481781006, -2.8775579929351807, -12.150643348693848, 0, 0, 0, 0.0, 0.0, 0.0, 0.0, 0.0, 0.0, 0.0, -0.03548930957913399, -0.4114093780517578, 0.017101872712373734, 0.02104201167821884, -0.07956738024950027, 0.014337950386106968
575109, 2.403254508972168, -2.952115774154663, -12.146456718444824, 0, 0, 0, 0.0, 0.0, 0.0, 0.0, 0.0, 0.0, 0.0, -0.03554127365350723, -0.4117518961429596, 0.017175188288092613, 0.023778168484568596, -0.08124785125255585, 0.01431248988956213
575120, 2.439960479736328, -2.9469516277313232, -12.129549026489258, 0, 0, 0, 0.0, 0.0, 0.0, 0.0, 0.0, 0.0, 0.0, -0.03551718592643738, -0.41213205456733704, 0.017191870138049126, 0.026563813909888268, -0.08372742682695389, 0.014095993712544441
575129, 2.40820050239563, -2.9998245239257812, -12.136068344116211, 0, 0, 0, 0.0, 0.0, 0.0, 0.0, 0.0, 0.0, 0.0, -0.0355069600045681, -0.4123184084892273, 0.016285788267850876, 0.027974078431725502, -0.08107881247997284, 0.007759830914437771
575139, 2.497525691986084, -2.9559171199798584, -12.123893737792969, 0, 0, 0, 0.0, 0.0, 0.0, 0.0, 0.0, 0.0, 0.0, -0.03435300663113594, -0.4134710431098938, 0.016108011826872826, 0.0486801415681839, -0.08822072297334671, 0.007203200366348028
575149, 2.528721809387207, -2.9615676403045654, -12.107356071472168, 0, 0, 0, 0.0, 0.0, 0.0, 0.0, 0.0, 0.0, 0.0, -0.03531923517584801, -0.4144016206264496, 0.016079982742667198, 0.03607714921236038, -0.10193725675344467, 0.006933293770998716
575159, 2.430870294570923, -3.0167839527130127, -12.09654712677002, 0, 0, 0, 0.0, 0.0, 0.0, 0.0, 0.0, 0.0, 0.0, -0.03558870777487755, -0.4144308567047119, 0.016262643039226532, 0.03199377283453941, -0.0984029471874237, 0.007851171307265759
575170, 2.495234489440918, -3.004072904586792, -12.082364082336426, 0, 0, 0, 0.0, 0.0, 0.0, 0.0, 0.0, 0.0, 0.0, -0.03565460816025734, -0.41471952199935913, 0.016351094469428062, 0.03184119611978531, -0.09867750108242035, 0.008415392599999905
575179, 2.5490312576293945, -3.0057783126831055, -12.075798988342285, 0, 0, 0, 0.0, 0.0, 0.0, 0.0, 0.0, 0.0, 0.0, -0.03485845401883125, -0.4146413803100586, 0.0163759533315897, 0.04203565791249275, -0.09166058897972107, 0.008810285478830338
575189, 2.4716243743896484, -3.047714948654175, -12.082681655883789, 0, 0, 0, 0.0, 0.0, 0.0, 0.0, 0.0, 0.0, 0.0, -0.03557134419679642, -0.4152895510196686, 0.016524294391274452, 0.03256780654191971, -0.09495074301958084, 0.009672243148088455
575199, 2.5338292121887207, -3.028787136077881, -12.082276344299316, 0, 0, 0, 0.0, 0.0, 0.0, 0.0, 0.0, 0.0, 0.0, -0.03555607795715332, -0.41550302505493164, 0.016615552827715874, 0.033581897616386414, -0.09429488331079483, 0.010283111594617367
575209, 2.531463384628296, -3.023949146270752, -12.071405410766602, 0, 0, 0, 0.0, 0.0, 0.0, 0.0, 0.0, 0.0, 0.0, -0.03521602973341942, -0.4156300127506256, 0.016667082905769348, 0.037852250039577484, -0.09191615879535675, 0.010341019369661808
575219, 2.6421010494232178, -3.0181798934936523, -12.077518463134766, 0, 0, 0, 0.0, 0.0, 0.0, 0.0, 0.0, 0.0, 0.0, -0.03550330549478531, -0.41578158736228943, 0.016188710927963257, 0.034921832382678986, -0.09255319088697433, 0.006902616936713457
575230, 2.6135551929473877, -3.0234484672546387, -12.070725440979004, 0, 0, 0, 0.0, 0.0, 0.0, 0.0, 0.0, 0.0, 0.0, -0.03455172851681709, -0.4143114984035492, 0.016586100682616234, 0.041613563895225525, -0.07104580849409103, 0.009351913817226887
575239, 2.646557092666626, -3.0652923583984375, -12.05037784576416, 0, 0, 0, 0.0, 0.0, 0.0, 0.0, 0.0, 0.0, 0.0, -0.034515105187892914, -0.41448742151260376, 0.01669509895145893, 0.04057883098721504, -0.07007814943790436, 0.010069564916193485
575249, 2.550180196762085, -3.0635054111480713, -12.067564964294434, 0, 0, 0, 0.0, 0.0, 0.0, 0.0, 0.0, 0.0, 0.0, -0.03222561255097389, -0.4132414162158966, 0.016832519322633743, 0.06161446496844292, -0.05046301707625389, 0.011256357654929161
575259, 2.502258777618408, -3.0859010219573975, -12.055222511291504, 0, 0, 0, 0.0, 0.0, 0.0, 0.0, 0.0, 0.0, 0.0, -0.03209051117300987, -0.4131607413291931, 0.016929084435105324, 0.060389693826436996, -0.049185093492269516, 0.011549324728548527
575269, 2.488079071044922, -3.1276516914367676, -12.05714225769043, 0, 0, 0, 0.0, 0.0, 0.0, 0.0, 0.0, 0.0, 0.0, -0.032236747443675995, -0.41290032863616943, 0.017746709287166595, 0.05689645931124687, -0.04704825580120087, 0.016310563310980797
575280, 2.442614793777466, -3.145334005355835, -12.057740211486816, 0, 0, 0, 0.0, 0.0, 0.0, 0.0, 0.0, 0.0, 0.0, -0.031515490263700485, -0.4130445420742035, 0.017697108909487724, 0.06362041085958481, -0.04711233079433441, 0.015532785095274448
575289, 2.4731287956237793, -3.1327688694000244, -12.053976058959961, 0, 0, 0, 0.0, 0.0, 0.0, 0.0, 0.0, 0.0, 0.0, -0.03182738274335861, -0.41320762038230896, 0.017773335799574852, 0.059272997081279755, -0.04998021200299263, 0.015468064695596695
575299, 2.6060235500335693, -3.103896379470825, -12.053153991699219, 0, 0, 0, 0.0, 0.0, 0.0, 0.0, 0.0, 0.0, 0.0, -0.031515005975961685, -0.41375091671943665, 0.017815163359045982, 0.06059734895825386, -0.0546400249004364, 0.015286782756447792
575309, 2.590198516845703, -3.096201181411743, -12.045632362365723, 0, 0, 0, 0.0, 0.0, 0.0, 0.0, 0.0, 0.0, 0.0, -0.03166431933641434, -0.4134500324726105, 0.015901269391179085, 0.057885438203811646, -0.05277556553483009, 0.0015076091513037682
575319, 2.5262959003448486, -3.1134889125823975, -12.04698371887207, 0, 0, 0, 0.0, 0.0, 0.0, 0.0, 0.0, 0.0, 0.0, -0.031589966267347336, -0.4134381413459778, 0.015899721533060074, 0.057890135794878006, -0.052379488945007324, 0.0016895898152142763
575329, 2.6377921104431152, -3.075061321258545, -12.054287910461426, 0, 0, 0, 0.0, 0.0, 0.0, 0.0, 0.0, 0.0, 0.0, -0.031542807817459106, -0.4137384295463562, 0.015852132812142372, 0.057981010526418686, -0.0560360848903656, 0.001881422707810998
575340, 2.645087718963623, -3.0491373538970947, -12.036273002624512, 0, 0, 0, 0.0, 0.0, 0.0, 0.0, 0.0, 0.0, 0.0, -0.03134158253669739, -0.41394832730293274, 0.01586453802883625, 0.058063022792339325, -0.056928135454654694, 0.002368072047829628
575349, 2.616392135620117, -3.086977005004883, -12.044593811035156, 0, 0, 0, 0.0, 0.0, 0.0, 0.0, 0.0, 0.0, 0.0, -0.031731996685266495, -0.41369009017944336, 0.016009006649255753, 0.053303565829992294, -0.05550254136323929, 0.0033937967382371426
575359, 2.6078646183013916, -3.091435670852661, -12.034528732299805, 0, 0, 0, 0.0, 0.0, 0.0, 0.0, 0.0, 0.0, 0.0, -0.031873852014541626, -0.41394099593162537, 0.01496998593211174, 0.05265548452734947, -0.058637864887714386, -0.002979753538966179
575370, 2.6353893280029297, -3.0688111782073975, -12.037304878234863, 0, 0, 0, 0.0, 0.0, 0.0, 0.0, 0.0, 0.0, 0.0, -0.03399189934134483, -0.4138268828392029, 0.015203772112727165, 0.034116316586732864, -0.06208642199635506, -0.001369727193377912
575379, 2.5941264629364014, -3.077219247817993, -12.030797004699707, 0, 0, 0, 0.0, 0.0, 0.0, 0.0, 0.0, 0.0, 0.0, -0.03399600461125374, -0.4142071008682251, 0.015177110210061073, 0.03479999676346779, -0.06415015459060669, -0.0008936719968914986
575389, 2.650299549102783, -3.0584471225738525, -12.053298950195312, 0, 0, 0, 0.0, 0.0, 0.0, 0.0, 0.0, 0.0, 0.0, -0.03408808261156082, -0.4144057035446167, 0.015173624269664288, 0.035027630627155304, -0.06601602584123611, -0.00028299898258410394
575399, 2.6373283863067627, -3.0885415077209473, -12.03801155090332, 0, 0, 0, 0.0, 0.0, 0.0, 0.0, 0.0, 0.0, 0.0, -0.034098997712135315, -0.41436782479286194, 0.015505677089095116, 0.03527456894516945, -0.06616561859846115, 0.002145372098311782
575409, 2.6304433345794678, -3.0785470008850098, -12.03215503692627, 0, 0, 0, 0.0, 0.0, 0.0, 0.0, 0.0, 0.0, 0.0, -0.033509865403175354, -0.4138852059841156, 0.015569256618618965, 0.039474938064813614, -0.06071596220135689, 0.0027994373813271523
575419, 2.6998848915100098, -3.0866544246673584, -12.02469539642334, 0, 0, 0, 0.0, 0.0, 0.0, 0.0, 0.0, 0.0, 0.0, -0.03407580405473709, -0.4145142436027527, 0.015548708848655224, 0.036469995975494385, -0.06739839166402817, 0.002934008603915572
575429, 2.660576581954956, -3.0833399295806885, -12.03218936920166, 0, 0, 0, 0.0, 0.0, 0.0, 0.0, 0.0, 0.0, 0.0, -0.03448795527219772, -0.4145551323890686, 0.01567479968070984, 0.03312285244464874, -0.06777426600456238, 0.003922347445040941
575439, 2.639620065689087, -3.1238856315612793, -12.02596378326416, 0, 0, 0, 0.0, 0.0, 0.0, 0.0, 0.0, 0.0, 0.0, -0.034206923097372055, -0.4146134853363037, 0.01568177156150341, 0.03577651455998421, -0.0672101229429245, 0.004329188726842403
575449, 2.7266244888305664, -3.0972378253936768, -12.020328521728516, 0, 0, 0, 0.0, 0.0, 0.0, 0.0, 0.0, 0.0, 0.0, -0.034223124384880066, -0.41454073786735535, 0.014875675551593304, 0.03623039275407791, -0.06775304675102234, -5.349352431949228e-05
575459, 2.6432135105133057, -3.125011682510376, -12.04956340789795, 0, 0, 0, 0.0, 0.0, 0.0, 0.0, 0.0, 0.0, 0.0, -0.034280117601156235, -0.41473713517189026, 0.014866931363940239, 0.03666185215115547, -0.06861484795808792, 0.0002950717171188444
575470, 2.6412386894226074, -3.120516538619995, -12.03689956665039, 0, 0, 0, 0.0, 0.0, 0.0, 0.0, 0.0, 0.0, 0.0, -0.034189846366643906, -0.41509753465652466, 0.01484084501862526, 0.038621436804533005, -0.0711953341960907, 0.0007426589145325124
575479, 2.5602009296417236, -3.1454219818115234, -12.02584171295166, 0, 0, 0, 0.0, 0.0, 0.0, 0.0, 0.0, 0.0, 0.0, -0.0343785434961319, -0.41505810618400574, 0.014979620464146137, 0.03689764812588692, -0.07016076147556305, 0.0020160269923508167
575489, 2.5731496810913086, -3.133068799972534, -12.027825355529785, 0, 0, 0, 0.0, 0.0, 0.0, 0.0, 0.0, 0.0, 0.0, -0.03404781594872475, -0.41500961780548096, 0.014382962137460709, 0.040329497307538986, -0.06802262365818024, -0.001385431387461722
575499, 2.6291980743408203, -3.1107771396636963, -12.037165641784668, 0, 0, 0, 0.0, 0.0, 0.0, 0.0, 0.0, 0.0, 0.0, -0.034441377967596054, -0.41522613167762756, 0.014413176104426384, 0.03752797842025757, -0.07138649374246597, -0.0005661695031449199
575509, 2.634950637817383, -3.1084532737731934, -12.030556678771973, 0, 0, 0, 0.0, 0.0, 0.0, 0.0, 0.0, 0.0, 0.0, -0.033720288425683975, -0.4152032434940338, 0.014432805590331554, 0.042991578578948975, -0.07018094509840012, 0.00015729876758996397
575519, 2.5508947372436523, -3.146519899368286, -12.0256986618042, 0, 0, 0, 0.0, 0.0, 0.0, 0.0, 0.0, 0.0, 0.0, -0.03432740643620491, -0.4152727723121643, 0.01458201464265585, 0.03839180991053581, -0.07088746130466461, 0.0014144218293949962
575530, 2.548907995223999, -3.1271345615386963, -12.025276184082031, 0, 0, 0, 0.0, 0.0, 0.0, 0.0, 0.0, 0.0, 0.0, -0.03401823341846466, -0.4154740869998932, 0.01463343482464552, 0.04141351208090782, -0.07091911882162094, 0.0019776010885834694
575539, 2.54347562789917, -3.162069797515869, -12.022624015808105, 0, 0, 0, 0.0, 0.0, 0.0, 0.0, 0.0, 0.0, 0.0, -0.0340004563331604, -0.41538357734680176, 0.015155205503106117, 0.041444551199674606, -0.07096890360116959, 0.005188864655792713
575549, 2.608712673187256, -3.132282018661499, -12.022290229797363, 0, 0, 0, 0.0, 0.0, 0.0, 0.0, 0.0, 0.0, 0.0, -0.03385937958955765, -0.41572874784469604, 0.01516041997820139, 0.04327256977558136, -0.072740837931633, 0.005280682351440191
575559, 2.5719659328460693, -3.12369441986084, -12.011428833007812, 0, 0, 0, 0.0, 0.0, 0.0, 0.0, 0.0, 0.0, 0.0, -0.03416511416435242, -0.41565752029418945, 0.015278711915016174, 0.04116074740886688, -0.07270416617393494, 0.005884975660592318
575569, 2.533268451690674, -3.1526567935943604, -12.019405364990234, 0, 0, 0, 0.0, 0.0, 0.0, 0.0, 0.0, 0.0, 0.0, -0.03398129343986511, -0.4162616431713104, 0.01528169121593237, 0.04308638349175453, -0.0759638100862503, 0.006041842978447676
575579, 2.5825352668762207, -3.1375646591186523, -12.01971435546875, 0, 0, 0, 0.0, 0.0, 0.0, 0.0, 0.0, 0.0, 0.0, -0.033633675426244736, -0.416100412607193, 0.015868855640292168, 0.04605826362967491, -0.07484202086925507, 0.009801953099668026
575589, 2.5939698219299316, -3.1163928508758545, -12.011463165283203, 0, 0, 0, 0.0, 0.0, 0.0, 0.0, 0.0, 0.0, 0.0, -0.0316917821764946, -0.41494232416152954, 0.01609089970588684, 0.057683512568473816, -0.06207975745201111, 0.010992220602929592
575599, 2.592176914215088, -3.1160013675689697, -12.006511688232422, 0, 0, 0, 0.0, 0.0, 0.0, 0.0, 0.0, 0.0, 0.0, -0.034127287566661835, -0.41649267077445984, 0.016200628131628036, 0.041959695518016815, -0.0773429349064827, 0.01122118066996336
575609, 2.609006643295288, -3.1414778232574463, -12.0145263671875, 0, 0, 0, 0.0, 0.0, 0.0, 0.0, 0.0, 0.0, 0.0, -0.03396474942564964, -0.4169712960720062, 0.01623626798391342, 0.04427776858210564, -0.08026199042797089, 0.011116423644125462
575619, 2.6011855602264404, -3.101057529449463, -12.026033401489258, 0, 0, 0, 0.0, 0.0, 0.0, 0.0, 0.0, 0.0, 0.0, -0.033576685935258865, -0.41691017150878906, 0.01631069928407669, 0.046689342707395554, -0.07852272689342499, 0.011225610040128231
575629, 2.574387311935425, -3.110178232192993, -12.017674446105957, 0, 0, 0, 0.0, 0.0, 0.0, 0.0, 0.0, 0.0, 0.0, -0.03443983569741249, -0.41653764247894287, 0.01642242632806301, 0.03967674449086189, -0.07643968611955643, 0.0115138478577137
575639, 2.5350356101989746, -3.131683111190796, -12.02955150604248, 0, 0, 0, 0.0, 0.0, 0.0, 0.0, 0.0, 0.0, 0.0, -0.03500727191567421, -0.4168694317340851, 0.016568265855312347, 0.035966239869594574, -0.07784081250429153, 0.01205827109515667
575649, 2.6036477088928223, -3.1118016242980957, -12.026405334472656, 0, 0, 0, 0.0, 0.0, 0.0, 0.0, 0.0, 0.0, 0.0, -0.034012965857982635, -0.41663283109664917, 0.01667548343539238, 0.042867716401815414, -0.07465152442455292, 0.012584677897393703
575659, 2.5164031982421875, -3.147124767303467, -12.030617713928223, 0, 0, 0, 0.0, 0.0, 0.0, 0.0, 0.0, 0.0, 0.0, -0.03432637080550194, -0.41558510065078735, 0.01674458384513855, 0.039887435734272, -0.06944401562213898, 0.01285556610673666
575670, 2.5734689235687256, -3.1244609355926514, -12.023059844970703, 0, 0, 0, 0.0, 0.0, 0.0, 0.0, 0.0, 0.0, 0.0, -0.033959511667490005, -0.4166104793548584, 0.01532796211540699, 0.04386148601770401, -0.07509607821702957, 0.0038416001480072737
575679, 2.509481430053711, -3.136347532272339, -12.032931327819824, 0, 0, 0, 0.0, 0.0, 0.0, 0.0, 0.0, 0.0, 0.0, -0.03275211155414581, -0.41589051485061646, 0.01531271729618311, 0.052783530205488205, -0.06873403489589691, 0.003900794079527259
575689, 2.5814552307128906, -3.111064910888672, -12.024934768676758, 0, 0, 0, 0.0, 0.0, 0.0, 0.0, 0.0, 0.0, 0.0, -0.034273404628038406, -0.4166114330291748, 0.015555166639387608, 0.04137527570128441, -0.07555045932531357, 0.005444524344056845
575699, 2.5885581970214844, -3.0965824127197266, -12.038164138793945, 0, 0, 0, 0.0, 0.0, 0.0, 0.0, 0.0, 0.0, 0.0, -0.03453727439045906, -0.4158880114555359, 0.015683365985751152, 0.03852558881044388, -0.07133983075618744, 0.006117510609328747
575709, 2.590435028076172, -3.1195993423461914, -12.035516738891602, 0, 0, 0, 0.0, 0.0, 0.0, 0.0, 0.0, 0.0, 0.0, -0.034784041345119476, -0.4157398045063019, 0.015807051211595535, 0.03690420091152191, -0.07027243822813034, 0.006787932012230158
575719, 2.597033977508545, -3.111185073852539, -12.033307075500488, 0, 0, 0, 0.0, 0.0, 0.0, 0.0, 0.0, 0.0, 0.0, -0.03418959677219391, -0.4166877567768097, 0.015888288617134094, 0.04223870486021042, -0.07450592517852783, 0.007182839792221785
575730, 2.6060855388641357, -3.135012149810791, -12.030296325683594, 0, 0, 0, 0.0, 0.0, 0.0, 0.0, 0.0, 0.0, 0.0, -0.03427029401063919, -0.41662031412124634, 0.015986841171979904, 0.041762180626392365, -0.07413958758115768, 0.007763415575027466
575739, 2.535067319869995, -3.1363110542297363, -12.027556419372559, 0, 0, 0, 0.0, 0.0, 0.0, 0.0, 0.0, 0.0, 0.0, -0.03468242660164833, -0.4158250689506531, 0.016117917373776436, 0.03784995898604393, -0.06898035854101181, 0.008366575464606285
575749, 2.6608896255493164, -3.112311601638794, -12.018290519714355, 0, 0, 0, 0.0, 0.0, 0.0, 0.0, 0.0, 0.0, 0.0, -0.03473808988928795, -0.4158942699432373, 0.01616310141980648, 0.037630170583724976, -0.07040506601333618, 0.008548091165721416
575759, 2.61982798576355, -3.119640588760376, -12.015494346618652, 0, 0, 0, 0.0, 0.0, 0.0, 0.0, 0.0, 0.0, 0.0, -0.0347362644970417, -0.4156908690929413, 0.015268604271113873, 0.03789587318897247, -0.06895161420106888, 0.002389701548963785
575769, 2.7365362644195557, -3.113126516342163, -12.022411346435547, 0, 0, 0, 0.0, 0.0, 0.0, 0.0, 0.0, 0.0, 0.0, -0.03284262865781784, -0.4158932566642761, 0.015189195051789284, 0.05334365367889404, -0.06693671643733978, 0.0023269441444426775
575779, 2.602897882461548, -3.133589267730713, -12.017108917236328, 0, 0, 0, 0.0, 0.0, 0.0, 0.0, 0.0, 0.0, 0.0, -0.034721143543720245, -0.41566094756126404, 0.015460941009223461, 0.037874143570661545, -0.06864055246114731, 0.0036480161361396313
575789, 2.6390349864959717, -3.1090309619903564, -12.02527904510498, 0, 0, 0, 0.0, 0.0, 0.0, 0.0, 0.0, 0.0, 0.0, -0.035068538039922714, -0.41595882177352905, 0.015513249672949314, 0.035102397203445435, -0.07034065574407578, 0.004097624681890011
575799, 2.6456429958343506, -3.1093697547912598, -12.03099250793457, 0, 0, 0, 0.0, 0.0, 0.0, 0.0, 0.0, 0.0, 0.0, -0.03486466780304909, -0.4159865379333496, 0.015543670393526554, 0.03683450445532799, -0.07040701806545258, 0.0046030450612306595
575809, 2.5571234226226807, -3.1618528366088867, -12.035918235778809, 0, 0, 0, 0.0, 0.0, 0.0, 0.0, 0.0, 0.0, 0.0, -0.03468998521566391, -0.4155280590057373, 0.01517876423895359, 0.03787655755877495, -0.06587052345275879, 0.002507552271708846
575819, 2.5712809562683105, -3.135058879852295, -12.029088973999023, 0, 0, 0, 0.0, 0.0, 0.0, 0.0, 0.0, 0.0, 0.0, -0.03473464772105217, -0.4158453345298767, 0.015165351331233978, 0.03825772553682327, -0.068353071808815, 0.002697449643164873
575829, 2.638157606124878, -3.1189231872558594, -12.03001880645752, 0, 0, 0, 0.0, 0.0, 0.0, 0.0, 0.0, 0.0, 0.0, -0.03493119403719902, -0.41590866446495056, 0.015234059654176235, 0.03665817528963089, -0.06978492438793182, 0.003341454081237316
575839, 2.652367115020752, -3.118489980697632, -12.023723602294922, 0, 0, 0, 0.0, 0.0, 0.0, 0.0, 0.0, 0.0, 0.0, -0.03476633131504059, -0.4164521098136902, 0.015223507769405842, 0.03864157199859619, -0.07310466468334198, 0.003481273539364338
575849, 2.7091829776763916, -3.116147994995117, -12.029995918273926, 0, 0, 0, 0.0, 0.0, 0.0, 0.0, 0.0, 0.0, 0.0, -0.03478221222758293, -0.41649749875068665, 0.015193570405244827, 0.038723140954971313, -0.0736682340502739, 0.0035568950697779655
575860, 2.649357557296753, -3.082291841506958, -12.019072532653809, 0, 0, 0, 0.0, 0.0, 0.0, 0.0, 0.0, 0.0, 0.0, -0.035297930240631104, -0.41569578647613525, 0.015430285595357418, 0.0325654000043869, -0.06751132756471634, 0.00501254154369235
575869, 2.544694423675537, -3.1438260078430176, -12.026073455810547, 0, 0, 0, 0.0, 0.0, 0.0, 0.0, 0.0, 0.0, 0.0, -0.03470864146947861, -0.4164663553237915, 0.015371081419289112, 0.038482677191495895, -0.0714988186955452, 0.004927779547870159
575880, 2.587082862854004, -3.152472972869873, -12.02657413482666, 0, 0, 0, 0.0, 0.0, 0.0, 0.0, 0.0, 0.0, 0.0, -0.033880434930324554, -0.41656458377838135, 0.015350000001490116, 0.0453224740922451, -0.07067650556564331, 0.005151899065822363
575889, 2.584075450897217, -3.1260299682617188, -12.025386810302734, 0, 0, 0, 0.0, 0.0, 0.0, 0.0, 0.0, 0.0, 0.0, -0.03467739373445511, -0.4164448082447052, 0.015560470521450043, 0.03839564695954323, -0.07098418474197388, 0.006521274801343679
575899, 2.6246957778930664, -3.0993924140930176, -12.033784866333008, 0, 0, 0, 0.0, 0.0, 0.0, 0.0, 0.0, 0.0, 0.0, -0.033804915845394135, -0.4161691963672638, 0.015751676633954048, 0.0450427271425724, -0.06740745157003403, 0.007975850254297256
575909, 2.6212987899780273, -3.095412015914917, -12.033092498779297, 0, 0, 0, 0.0, 0.0, 0.0, 0.0, 0.0, 0.0, 0.0, -0.03366770222783089, -0.4164547622203827, 0.015754617750644684, 0.046601299196481705, -0.0696650892496109, 0.007955535314977169
575919, 2.6086997985839844, -3.1133360862731934, -12.018133163452148, 0, 0, 0, 0.0, 0.0, 0.0, 0.0, 0.0, 0.0, 0.0, -0.03445132449269295, -0.4166218638420105, 0.015862157568335533, 0.04027640074491501, -0.07240571826696396, 0.008373390883207321
575929, 2.690716505050659, -3.115976095199585, -12.030872344970703, 0, 0, 0, 0.0, 0.0, 0.0, 0.0, 0.0, 0.0, 0.0, -0.03435640409588814, -0.41693180799484253, 0.015862373635172844, 0.04169473424553871, -0.07534965872764587, 0.008440468460321426
575939, 2.6800060272216797, -3.108339786529541, -12.028313636779785, 0, 0, 0, 0.0, 0.0, 0.0, 0.0, 0.0, 0.0, 0.0, -0.034338437020778656, -0.4171364903450012, 0.015299213118851185, 0.04165400192141533, -0.07568902522325516, 0.004484327044337988
575949, 2.6353960037231445, -3.109835386276245, -12.028534889221191, 0, 0, 0, 0.0, 0.0, 0.0, 0.0, 0.0, 0.0, 0.0, -0.032870687544345856, -0.4176340103149414, 0.015146629884839058, 0.0537821501493454, -0.07684830576181412, 0.003848177846521139
575959, 2.584845542907715, -3.1313908100128174, -12.021956443786621, 0, 0, 0, 0.0, 0.0, 0.0, 0.0, 0.0, 0.0, 0.0, -0.0326356515288353, -0.41595613956451416, 0.015546558424830437, 0.0525219552218914, -0.06299202144145966, 0.006203994154930115
575969, 2.5975592136383057, -3.1155264377593994, -12.025880813598633, 0, 0, 0, 0.0, 0.0, 0.0, 0.0, 0.0, 0.0, 0.0, -0.033094219863414764, -0.4158969819545746, 0.015669485554099083, 0.04863254725933075, -0.06370346248149872, 0.007037845905870199
575979, 2.6284639835357666, -3.111926317214966, -12.022096633911133, 0, 0, 0, 0.0, 0.0, 0.0, 0.0, 0.0, 0.0, 0.0, -0.032718561589717865, -0.41613590717315674, 0.01571309193968773, 0.05091358721256256, -0.06457263231277466, 0.007359781768172979
575989, 2.6126182079315186, -3.116727113723755, -12.023645401000977, 0, 0, 0, 0.0, 0.0, 0.0, 0.0, 0.0, 0.0, 0.0, -0.03254299238324165, -0.4160917103290558, 0.015845688059926033, 0.05184757336974144, -0.06442385911941528, 0.008066591806709766
575999, 2.67720890045166, -3.104102373123169, -12.012510299682617, 0, 0, 0, 0.0, 0.0, 0.0, 0.0, 0.0, 0.0, 0.0, -0.03206004574894905, -0.4155312478542328, 0.015971260145306587, 0.05420137569308281, -0.06043689697980881, 0.008897033520042896
576009, 2.6575353145599365, -3.0936453342437744, -12.029818534851074, 0, 0, 0, 0.0, 0.0, 0.0, 0.0, 0.0, 0.0, 0.0, -0.03264828771352768, -0.41594526171684265, 0.016014592722058296, 0.050173319876194, -0.06519804149866104, 0.00897937174886465
576019, 2.579058885574341, -3.138122797012329, -12.022680282592773, 0, 0, 0, 0.0, 0.0, 0.0, 0.0, 0.0, 0.0, 0.0, -0.0323917493224144, -0.41650131344795227, 0.016022618860006332, 0.0521264374256134, -0.06900414824485779, 0.008942514657974243
576029, 2.655266046524048, -3.1100640296936035, -12.018861770629883, 0, 0, 0, 0.0, 0.0, 0.0, 0.0, 0.0, 0.0, 0.0, -0.03250068053603172, -0.4163874089717865, 0.01614541932940483, 0.05114592984318733, -0.06843109428882599, 0.00953436829149723
576039, 2.6590936183929443, -3.102597713470459, -12.016498565673828, 0, 0, 0, 0.0, 0.0, 0.0, 0.0, 0.0, 0.0, 0.0, -0.034339919686317444, -0.41798776388168335, 0.01572047919034958, 0.040057212114334106, -0.08316648751497269, 0.006787953432649374
576049, 2.6192567348480225, -3.116569995880127, -12.011327743530273, 0, 0, 0, 0.0, 0.0, 0.0, 0.0, 0.0, 0.0, 0.0, -0.033541239798069, -0.42081502079963684, 0.015103750862181187, 0.05058816820383072, -0.10188744217157364, 0.003900701878592372
576059, 2.571497917175293, -3.1494133472442627, -12.008251190185547, 0, 0, 0, 0.0, 0.0, 0.0, 0.0, 0.0, 0.0, 0.0, -0.03350280597805977, -0.42109620571136475, 0.015208172611892223, 0.05035250261425972, -0.10138630121946335, 0.004806573037058115
576069, 2.606741428375244, -3.1297144889831543, -12.010299682617188, 0, 0, 0, 0.0, 0.0, 0.0, 0.0, 0.0, 0.0, 0.0, -0.03337877616286278, -0.4214616119861603, 0.015174332074820995, 0.05181951820850372, -0.10283320397138596, 0.004773447290062904
576079, 2.623922109603882, -3.117489814758301, -12.0116605758667, 0, 0, 0, 0.0, 0.0, 0.0, 0.0, 0.0, 0.0, 0.0, -0.03338741883635521, -0.42120665311813354, 0.015560907311737537, 0.051027119159698486, -0.09997353702783585, 0.007082703523337841
576089, 2.624013662338257, -3.122823476791382, -12.018054008483887, 0, 0, 0, 0.0, 0.0, 0.0, 0.0, 0.0, 0.0, 0.0, -0.03379793465137482, -0.4209669828414917, 0.015720728784799576, 0.047705721110105515, -0.09811731427907944, 0.007816173136234283
576099, 2.6575746536254883, -3.105043411254883, -12.020522117614746, 0, 0, 0, 0.0, 0.0, 0.0, 0.0, 0.0, 0.0, 0.0, -0.033049918711185455, -0.4209604561328888, 0.015732331201434135, 0.05316857993602753, -0.09664353728294373, 0.00785556435585022
576110, 2.6245200634002686, -3.132145404815674, -12.013242721557617, 0, 0, 0, 0.0, 0.0, 0.0, 0.0, 0.0, 0.0, 0.0, -0.032993774861097336, -0.4209814965724945, 0.015794094651937485, 0.05376746505498886, -0.09572867304086685, 0.008038563653826714
576119, 2.668382406234741, -3.1150569915771484, -12.027270317077637, 0, 0, 0, 0.0, 0.0, 0.0, 0.0, 0.0, 0.0, 0.0, -0.033327702432870865, -0.420786052942276, 0.015974581241607666, 0.05075912922620773, -0.09445708245038986, 0.009020557627081871
576129, 2.634770154953003, -3.1032025814056396, -12.023612022399902, 0, 0, 0, 0.0, 0.0, 0.0, 0.0, 0.0, 0.0, 0.0, -0.033367741852998734, -0.42069384455680847, 0.016510503366589546, 0.0494258813560009, -0.09171973168849945, 0.012271549552679062
576139, 2.6373863220214844, -3.1102254390716553, -12.008167266845703, 0, 0, 0, 0.0, 0.0, 0.0, 0.0, 0.0, 0.0, 0.0, -0.03290104120969772, -0.42071571946144104, 0.016525018960237503, 0.052851587533950806, -0.09078996628522873, 0.012299385853111744
576149, 2.6300079822540283, -3.1257681846618652, -12.021492958068848, 0, 0, 0, 0.0, 0.0, 0.0, 0.0, 0.0, 0.0, 0.0, -0.03319096565246582, -0.4205297529697418, 0.01666928082704544, 0.05054013803601265, -0.08966038376092911, 0.012900247238576412
576160, 2.5653555393218994, -3.1501502990722656, -12.02377700805664, 0, 0, 0, 0.0, 0.0, 0.0, 0.0, 0.0, 0.0, 0.0, -0.033046428114175797, -0.4207555651664734, 0.016648516058921814, 0.05229131132364273, -0.0902673751115799, 0.012547875754535198
576170, 2.6210291385650635, -3.143413543701172, -12.013534545898438, 0, 0, 0, 0.0, 0.0, 0.0, 0.0, 0.0, 0.0, 0.0, -0.03338881954550743, -0.42050114274024963, 0.016230130568146706, 0.049507319927215576, -0.08919607102870941, 0.00965112168341875
576179, 2.5368545055389404, -3.157566785812378, -12.018787384033203, 0, 0, 0, 0.0, 0.0, 0.0, 0.0, 0.0, 0.0, 0.0, -0.03275590389966965, -0.4208996891975403, 0.01624506525695324, 0.053769249469041824, -0.08944015949964523, 0.009830108843743801
576189, 2.569129467010498, -3.133718490600586, -12.023710250854492, 0, 0, 0, 0.0, 0.0, 0.0, 0.0, 0.0, 0.0, 0.0, -0.03261817991733551, -0.4211566150188446, 0.016224252060055733, 0.05518069118261337, -0.09059245884418488, 0.009538338519632816
576199, 2.561983823776245, -3.13496732711792, -12.019309043884277, 0, 0, 0, 0.0, 0.0, 0.0, 0.0, 0.0, 0.0, 0.0, -0.03306614235043526, -0.4208720922470093, 0.016386324539780617, 0.051292482763528824, -0.08937656134366989, 0.010383094660937786
576209, 2.6349847316741943, -3.139918565750122, -12.0132474899292, 0, 0, 0, 0.0, 0.0, 0.0, 0.0, 0.0, 0.0, 0.0, -0.03294503316283226, -0.4211299419403076, 0.016345398500561714, 0.05287858098745346, -0.0914156511425972, 0.010065768845379353
576219, 2.6491377353668213, -3.1147656440734863, -12.011148452758789, 0, 0, 0, 0.0, 0.0, 0.0, 0.0, 0.0, 0.0, 0.0, -0.03287927806377411, -0.42118021845817566, 0.01606089249253273, 0.05261005088686943, -0.09033487737178802, 0.008237887173891068
576229, 2.6686553955078125, -3.1065990924835205, -12.022287368774414, 0, 0, 0, 0.0, 0.0, 0.0, 0.0, 0.0, 0.0, 0.0, -0.03438514843583107, -0.42231932282447815, 0.015955379232764244, 0.04323109984397888, -0.10086285322904587, 0.00735443877056241
576239, 2.6403486728668213, -3.1096136569976807, -12.023970603942871, 0, 0, 0, 0.0, 0.0, 0.0, 0.0, 0.0, 0.0, 0.0, -0.03428526222705841, -0.42211177945137024, 0.01603850908577442, 0.044194068759679794, -0.09867249429225922, 0.007872993126511574
576249, 2.520936965942383, -3.1431612968444824, -12.023417472839355, 0, 0, 0, 0.0, 0.0, 0.0, 0.0, 0.0, 0.0, 0.0, -0.034050457179546356, -0.4218321740627289, 0.016132919117808342, 0.04595794901251793, -0.0947662889957428, 0.008365008048713207
576259, 2.5600509643554688, -3.141739845275879, -12.018966674804688, 0, 0, 0, 0.0, 0.0, 0.0, 0.0, 0.0, 0.0, 0.0, -0.03657545521855354, -0.42194193601608276, 0.015605488792061806, 0.027826599776744843, -0.09959354996681213, 0.004427943378686905
576270, 2.6595053672790527, -3.108668327331543, -12.02092456817627, 0, 0, 0, 0.0, 0.0, 0.0, 0.0, 0.0, 0.0, 0.0, -0.036114756017923355, -0.4214613139629364, 0.015727698802947998, 0.03125370666384697, -0.0952274426817894, 0.005485247820615768
576279, 2.605229616165161, -3.106522798538208, -12.014983177185059, 0, 0, 0, 0.0, 0.0, 0.0, 0.0, 0.0, 0.0, 0.0, -0.036404628306627274, -0.4218382239341736, 0.015767643228173256, 0.02976960316300392, -0.09604515135288239, 0.005826102569699287
576289, 2.6909050941467285, -3.099275827407837, -12.015876770019531, 0, 0, 0, 0.0, 0.0, 0.0, 0.0, 0.0, 0.0, 0.0, -0.036518897861242294, -0.4218021631240845, 0.015802841633558273, 0.02954886108636856, -0.09584946930408478, 0.0061752209439873695
576299, 2.6595516204833984, -3.089848756790161, -12.022645950317383, 0, 0, 0, 0.0, 0.0, 0.0, 0.0, 0.0, 0.0, 0.0, -0.03684816509485245, -0.42145195603370667, 0.015970617532730103, 0.02728682942688465, -0.09362058341503143, 0.007192948367446661
576309, 2.7043514251708984, -3.1084773540496826, -12.016301155090332, 0, 0, 0, 0.0, 0.0, 0.0, 0.0, 0.0, 0.0, 0.0, -0.03613066300749779, -0.42136088013648987, 0.015681978315114975, 0.03352285549044609, -0.09217829257249832, 0.00564114423468709
576319, 2.6572766304016113, -3.103261947631836, -12.017311096191406, 0, 0, 0, 0.0, 0.0, 0.0, 0.0, 0.0, 0.0, 0.0, -0.03617515787482262, -0.4211050868034363, 0.015747839584946632, 0.03316044434905052, -0.08993562310934067, 0.006233071442693472
576329, 2.6379752159118652, -3.0958781242370605, -12.011978149414062, 0, 0, 0, 0.0, 0.0, 0.0, 0.0, 0.0, 0.0, 0.0, -0.03620665892958641, -0.4212450683116913, 0.015844345092773438, 0.03318462148308754, -0.08917133510112762, 0.006965033244341612
576339, 2.597839117050171, -3.0966057777404785, -12.000869750976562, 0, 0, 0, 0.0, 0.0, 0.0, 0.0, 0.0, 0.0, 0.0, -0.036103274673223495, -0.42084985971450806, 0.015964539721608162, 0.03388036787509918, -0.0859413743019104, 0.007575447671115398
576349, 2.662261486053467, -3.092329740524292, -12.020877838134766, 0, 0, 0, 0.0, 0.0, 0.0, 0.0, 0.0, 0.0, 0.0, -0.035857152193784714, -0.4209672212600708, 0.01665211282670498, 0.03619208186864853, -0.08659776300191879, 0.011591707356274128
576359, 2.64345383644104, -3.093630075454712, -12.02177906036377, 0, 0, 0, 0.0, 0.0, 0.0, 0.0, 0.0, 0.0, 0.0, -0.03564003109931946, -0.42047828435897827, 0.01676539145410061, 0.0374484658241272, -0.08262760192155838, 0.011893128976225853
576370, 2.678286552429199, -3.0972864627838135, -12.012511253356934, 0, 0, 0, 0.0, 0.0, 0.0, 0.0, 0.0, 0.0, 0.0, -0.03595350310206413, -0.42059797048568726, 0.016794580966234207, 0.03551936149597168, -0.0846191868185997, 0.011790717020630836
576379, 2.716140031814575, -3.0991129875183105, -12.018790245056152, 0, 0, 0, 0.0, 0.0, 0.0, 0.0, 0.0, 0.0, 0.0, -0.03582758828997612, -0.4208148717880249, 0.016754046082496643, 0.03724168241024017, -0.08662282675504684, 0.011393535882234573
576389, 2.680716037750244, -3.093661308288574, -12.019369125366211, 0, 0, 0, 0.0, 0.0, 0.0, 0.0, 0.0, 0.0, 0.0, -0.03553948178887367, -0.4209878146648407, 0.016861455515027046, 0.039464790374040604, -0.08547671884298325, 0.011767316609621048
576399, 2.609787940979004, -3.10774302482605, -12.010509490966797, 0, 0, 0, 0.0, 0.0, 0.0, 0.0, 0.0, 0.0, 0.0, -0.035349469631910324, -0.42085760831832886, 0.016972258687019348, 0.04099006578326225, -0.08327426016330719, 0.012130801565945148
576409, 2.5943737030029297, -3.119143486022949, -12.008145332336426, 0, 0, 0, 0.0, 0.0, 0.0, 0.0, 0.0, 0.0, 0.0, -0.03267179802060127, -0.4198700785636902, 0.01701718382537365, 0.059972215443849564, -0.07136663049459457, 0.01265362836420536
576419, 2.607362985610962, -3.1167550086975098, -12.003835678100586, 0, 0, 0, 0.0, 0.0, 0.0, 0.0, 0.0, 0.0, 0.0, -0.033212319016456604, -0.41975441575050354, 0.017285648733377457, 0.05403148755431175, -0.0707409679889679, 0.013845629058778286
576429, 2.6342694759368896, -3.111762285232544, -12.013344764709473, 0, 0, 0, 0.0, 0.0, 0.0, 0.0, 0.0, 0.0, 0.0, -0.033909671008586884, -0.4210679233074188, 0.016927752643823624, 0.05116045102477074, -0.08486615121364594, 0.011193947866559029
576439, 2.6210193634033203, -3.1068568229675293, -12.025887489318848, 0, 0, 0, 0.0, 0.0, 0.0, 0.0, 0.0, 0.0, 0.0, -0.03429174795746803, -0.4207327365875244, 0.01641780696809292, 0.04733937978744507, -0.08327259868383408, 0.007748430594801903
576449, 2.6382250785827637, -3.1014249324798584, -12.020464897155762, 0, 0, 0, 0.0, 0.0, 0.0, 0.0, 0.0, 0.0, 0.0, -0.03335583582520485, -0.42075514793395996, 0.01646198146045208, 0.05379192531108856, -0.0804339051246643, 0.008254272863268852
576460, 2.531893253326416, -3.1349754333496094, -12.019124031066895, 0, 0, 0, 0.0, 0.0, 0.0, 0.0, 0.0, 0.0, 0.0, -0.034127913415431976, -0.4206419587135315, 0.016592642292380333, 0.04754582792520523, -0.08034367859363556, 0.008909526281058788
576469, 2.551018238067627, -3.1236448287963867, -12.029549598693848, 0, 0, 0, 0.0, 0.0, 0.0, 0.0, 0.0, 0.0, 0.0, -0.03380179777741432, -0.4206882417201996, 0.016592051833868027, 0.04969418793916702, -0.08014846593141556, 0.00892792921513319
576479, 2.667142391204834, -3.1165497303009033, -12.026700019836426, 0, 0, 0, 0.0, 0.0, 0.0, 0.0, 0.0, 0.0, 0.0, -0.03121297061443329, -0.4190044403076172, 0.016231024637818336, 0.06747785955667496, -0.06295027583837509, 0.006688266526907682
576489, 2.707869052886963, -3.114201545715332, -12.014657974243164, 0, 0, 0, 0.0, 0.0, 0.0, 0.0, 0.0, 0.0, 0.0, -0.031354933977127075, -0.41868382692337036, 0.01620330847799778, 0.06690865755081177, -0.06171805411577225, 0.006422684993594885
576499, 2.667945623397827, -3.137155771255493, -12.032676696777344, 0, 0, 0, 0.0, 0.0, 0.0, 0.0, 0.0, 0.0, 0.0, -0.03204484283924103, -0.42045778036117554, 0.01605178788304329, 0.06309927254915237, -0.07752683758735657, 0.005511443130671978
576510, 2.630220651626587, -3.1332144737243652, -12.020550727844238, 0, 0, 0, 0.0, 0.0, 0.0, 0.0, 0.0, 0.0, 0.0, -0.031878095120191574, -0.4206431210041046, 0.015971893444657326, 0.06403219699859619, -0.0798196941614151, 0.005287108477205038
576519, 2.6071274280548096, -3.1211366653442383, -12.022841453552246, 0, 0, 0, 0.0, 0.0, 0.0, 0.0, 0.0, 0.0, 0.0, -0.031699586659669876, -0.4208027124404907, 0.015890371054410934, 0.06495819985866547, -0.08098310977220535, 0.004931541159749031
576530, 2.583890914916992, -3.14097261428833, -12.034401893615723, 0, 0, 0, 0.0, 0.0, 0.0, 0.0, 0.0, 0.0, 0.0, -0.03153572231531143, -0.42090511322021484, 0.014933315105736256, 0.06603989750146866, -0.08183160424232483, -0.0011918955715373158
576539, 2.6111464500427246, -3.121025562286377, -12.025525093078613, 0, 0, 0, 0.0, 0.0, 0.0, 0.0, 0.0, 0.0, 0.0, -0.029856324195861816, -0.4236205518245697, 0.014169360511004925, 0.08221827447414398, -0.09954649955034256, -0.0047424486838281155
576549, 2.5650999546051025, -3.141139268875122, -12.02690601348877, 0, 0, 0, 0.0, 0.0, 0.0, 0.0, 0.0, 0.0, 0.0, -0.02962677739560604, -0.423808217048645, 0.014074217528104782, 0.08285246044397354, -0.09936793148517609, -0.004430015105754137
576559, 2.663193702697754, -3.122274875640869, -12.029341697692871, 0, 0, 0, 0.0, 0.0, 0.0, 0.0, 0.0, 0.0, 0.0, -0.029470091685652733, -0.4241073429584503, 0.013976791873574257, 0.08292818814516068, -0.10210969299077988, -0.003920791205018759
576569, 2.5215115547180176, -3.167278528213501, -12.075847625732422, 0, 0, 0, 0.0, 0.0, 0.0, 0.0, 0.0, 0.0, 0.0, -0.029506094753742218, -0.42364373803138733, 0.01415937952697277, 0.0808468759059906, -0.09699679166078568, -0.0020993321668356657
576580, 2.543079376220703, -3.1436171531677246, -12.03929328918457, 0, 0, 0, 0.0, 0.0, 0.0, 0.0, 0.0, 0.0, 0.0, -0.02676841989159584, -0.42194899916648865, 0.01424191240221262, 0.09604150801897049, -0.07760818302631378, -0.0010539502836763859
576589, 2.4792957305908203, -3.1618714332580566, -12.042170524597168, 0, 0, 0, 0.0, 0.0, 0.0, 0.0, 0.0, 0.0, 0.0, -0.027798905968666077, -0.42084839940071106, 0.014661459252238274, 0.08469948172569275, -0.07160110026597977, 0.0013346367049962282
576599, 2.489325523376465, -3.172560930252075, -12.055526733398438, 0, 0, 0, 0.0, 0.0, 0.0, 0.0, 0.0, 0.0, 0.0, -0.027429232373833656, -0.4209415912628174, 0.014628633856773376, 0.0860675722360611, -0.07223359495401382, 0.0016247513704001904
576609, 2.543447732925415, -3.1299548149108887, -12.037544250488281, 0, 0, 0, 0.0, 0.0, 0.0, 0.0, 0.0, 0.0, 0.0, -0.027895910665392876, -0.42177364230155945, 0.014681514352560043, 0.0806957557797432, -0.0783773884177208, 0.002427840605378151
576621, 2.5809388160705566, -3.114187002182007, -12.032095909118652, 0, 0, 0, 0.0, 0.0, 0.0, 0.0, 0.0, 0.0, 0.0, -0.030648915097117424, -0.42156729102134705, 0.015158778987824917, 0.05961386859416962, -0.0818355455994606, 0.005277540534734726
576629, 2.649675130844116, -3.104016065597534, -12.047608375549316, 0, 0, 0, 0.0, 0.0, 0.0, 0.0, 0.0, 0.0, 0.0, -0.03015335649251938, -0.41986918449401855, 0.015450642444193363, 0.06046336144208908, -0.06963140517473221, 0.007152345962822437
576639, 2.5759739875793457, -3.1201043128967285, -12.035788536071777, 0, 0, 0, 0.0, 0.0, 0.0, 0.0, 0.0, 0.0, 0.0, -0.03027823008596897, -0.41888007521629333, 0.015565773472189903, 0.059308115392923355, -0.06463319808244705, 0.007799265440553427
576650, 2.5795018672943115, -3.12221622467041, -12.033365249633789, 0, 0, 0, 0.0, 0.0, 0.0, 0.0, 0.0, 0.0, 0.0, -0.03001648560166359, -0.4193180799484253, 0.015555920079350471, 0.06102890521287918, -0.06733157485723495, 0.007760956417769194
576659, 2.4921071529388428, -3.1421926021575928, -12.057703018188477, 0, 0, 0, 0.0, 0.0, 0.0, 0.0, 0.0, 0.0, 0.0, -0.029903598129749298, -0.4194045662879944, 0.01555454358458519, 0.062144935131073, -0.0680115669965744, 0.007453607860952616
576669, 2.570147752761841, -3.128006935119629, -12.057428359985352, 0, 0, 0, 0.0, 0.0, 0.0, 0.0, 0.0, 0.0, 0.0, -0.030176417902112007, -0.41955381631851196, 0.01539697777479887, 0.060595978051424026, -0.07117876410484314, 0.0063336314633488655
576679, 2.6463379859924316, -3.1072230339050293, -12.045148849487305, 0, 0, 0, 0.0, 0.0, 0.0, 0.0, 0.0, 0.0, 0.0, -0.03000137023627758, -0.4189637303352356, 0.015600503422319889, 0.05978364124894142, -0.06699522584676743, 0.007449315395206213
576689, 2.572796106338501, -3.106292486190796, -12.063484191894531, 0, 0, 0, 0.0, 0.0, 0.0, 0.0, 0.0, 0.0, 0.0, -0.030151518061757088, -0.4188757538795471, 0.01564190536737442, 0.05884828791022301, -0.06684700399637222, 0.007647062186151743
576699, 2.637887954711914, -3.0963592529296875, -12.050936698913574, 0, 0, 0, 0.0, 0.0, 0.0, 0.0, 0.0, 0.0, 0.0, -0.0301474928855896, -0.4190909266471863, 0.015625881031155586, 0.058949314057826996, -0.07019998133182526, 0.007780145853757858
576709, 2.627958059310913, -3.089087963104248, -12.03598403930664, 0, 0, 0, 0.0, 0.0, 0.0, 0.0, 0.0, 0.0, 0.0, -0.030502725392580032, -0.41887569427490234, 0.015176291577517986, 0.05615405738353729, -0.06981880217790604, 0.004894721787422895
576720, 2.683436155319214, -3.0649943351745605, -12.046181678771973, 0, 0, 0, 0.0, 0.0, 0.0, 0.0, 0.0, 0.0, 0.0, -0.03328503295779228, -0.4203101098537445, 0.015205634757876396, 0.037564508616924286, -0.0862431675195694, 0.005037620663642883
576729, 2.6552343368530273, -3.135329484939575, -12.049851417541504, 0, 0, 0, 0.0, 0.0, 0.0, 0.0, 0.0, 0.0, 0.0, -0.032760411500930786, -0.4195600748062134, 0.015473606064915657, 0.04079444706439972, -0.07883317768573761, 0.006830181460827589
576739, 2.643000841140747, -3.107570171356201, -12.046802520751953, 0, 0, 0, 0.0, 0.0, 0.0, 0.0, 0.0, 0.0, 0.0, -0.0324220135807991, -0.41937536001205444, 0.015519000589847565, 0.04411376640200615, -0.07701258361339569, 0.007072858978062868
576749, 2.6482646465301514, -3.107590913772583, -12.034650802612305, 0, 0, 0, 0.0, 0.0, 0.0, 0.0, 0.0, 0.0, 0.0, -0.03288179636001587, -0.41949161887168884, 0.01555081270635128, 0.04147178679704666, -0.07913874834775925, 0.007087088655680418
576759, 2.621110677719116, -3.123243570327759, -12.029276847839355, 0, 0, 0, 0.0, 0.0, 0.0, 0.0, 0.0, 0.0, 0.0, -0.03273988515138626, -0.4192063510417938, 0.015537098981440067, 0.041957952082157135, -0.07511035352945328, 0.006948869209736586
576769, 2.6310791969299316, -3.1097934246063232, -12.029994010925293, 0, 0, 0, 0.0, 0.0, 0.0, 0.0, 0.0, 0.0, 0.0, -0.030905788764357567, -0.41976338624954224, 0.01524178497493267, 0.057677313685417175, -0.07879039645195007, 0.005693449173122644
576779, 2.627317428588867, -3.0955257415771484, -12.04142951965332, 0, 0, 0, 0.0, 0.0, 0.0, 0.0, 0.0, 0.0, 0.0, -0.03185627982020378, -0.4182022213935852, 0.015857433900237083, 0.047004032880067825, -0.06751517206430435, 0.009094229899346828
576789, 2.5256853103637695, -3.1327614784240723, -12.045525550842285, 0, 0, 0, 0.0, 0.0, 0.0, 0.0, 0.0, 0.0, 0.0, -0.03183525800704956, -0.41838333010673523, 0.015846766531467438, 0.04776248335838318, -0.06970654428005219, 0.008869997225701809
576800, 2.562042236328125, -3.142133951187134, -12.048722267150879, 0, 0, 0, 0.0, 0.0, 0.0, 0.0, 0.0, 0.0, 0.0, -0.03168356418609619, -0.41822993755340576, 0.016276367008686066, 0.04928163066506386, -0.06840240955352783, 0.011556694284081459
576809, 2.51366925239563, -3.1517977714538574, -12.036123275756836, 0, 0, 0, 0.0, 0.0, 0.0, 0.0, 0.0, 0.0, 0.0, -0.02993777021765709, -0.4179236888885498, 0.01621328666806221, 0.062430597841739655, -0.06346818804740906, 0.01122287381440401
576820, 2.6094107627868652, -3.119253396987915, -12.026629447937012, 0, 0, 0, 0.0, 0.0, 0.0, 0.0, 0.0, 0.0, 0.0, -0.02967412956058979, -0.41807398200035095, 0.016180044040083885, 0.06425250321626663, -0.06571836024522781, 0.01089464034885168
576829, 2.5237250328063965, -3.130674362182617, -12.039151191711426, 0, 0, 0, 0.0, 0.0, 0.0, 0.0, 0.0, 0.0, 0.0, -0.02915957197546959, -0.4183882772922516, 0.016237134113907814, 0.06640689820051193, -0.06671398133039474, 0.011059894226491451
576839, 2.5225284099578857, -3.1469838619232178, -12.038054466247559, 0, 0, 0, 0.0, 0.0, 0.0, 0.0, 0.0, 0.0, 0.0, -0.029116099700331688, -0.4183306097984314, 0.016326187178492546, 0.06597115099430084, -0.06659209728240967, 0.011193647980690002
576849, 2.5550777912139893, -3.1227662563323975, -12.027894973754883, 0, 0, 0, 0.0, 0.0, 0.0, 0.0, 0.0, 0.0, 0.0, -0.029643306508660316, -0.4181652069091797, 0.016343221068382263, 0.06179003790020943, -0.06667834520339966, 0.010795051231980324
576860, 2.5629994869232178, -3.133988618850708, -12.026071548461914, 0, 0, 0, 0.0, 0.0, 0.0, 0.0, 0.0, 0.0, 0.0, -0.030357155948877335, -0.42288491129875183, 0.015551483258605003, 0.06444811075925827, -0.10402046889066696, 0.00634160777553916
576869, 2.5651118755340576, -3.1430907249450684, -12.037762641906738, 0, 0, 0, 0.0, 0.0, 0.0, 0.0, 0.0, 0.0, 0.0, -0.03054950013756752, -0.42306238412857056, 0.01558821089565754, 0.06329695135354996, -0.10441290587186813, 0.0066113704815506935
576879, 2.515610933303833, -3.1678287982940674, -12.025869369506836, 0, 0, 0, 0.0, 0.0, 0.0, 0.0, 0.0, 0.0, 0.0, -0.03039403446018696, -0.4229879379272461, 0.015838680788874626, 0.06322323530912399, -0.10017180442810059, 0.008029522374272346
576889, 2.5073437690734863, -3.123790979385376, -12.032959938049316, 0, 0, 0, 0.0, 0.0, 0.0, 0.0, 0.0, 0.0, 0.0, -0.030410993844270706, -0.42317694425582886, 0.014539109542965889, 0.06342688202857971, -0.10166536271572113, -4.144205740885809e-05
576899, 2.5552759170532227, -3.117159128189087, -12.026569366455078, 0, 0, 0, 0.0, 0.0, 0.0, 0.0, 0.0, 0.0, 0.0, -0.030071869492530823, -0.4226298928260803, 0.014649342745542526, 0.064790278673172, -0.09652175009250641, 0.0013958922354504466
576909, 2.5649077892303467, -3.1143107414245605, -12.02785873413086, 0, 0, 0, 0.0, 0.0, 0.0, 0.0, 0.0, 0.0, 0.0, -0.03077809140086174, -0.4231274425983429, 0.01476305816322565, 0.05906229838728905, -0.09863080084323883, 0.0024808826856315136
576920, 2.566020965576172, -3.1076393127441406, -12.023397445678711, 0, 0, 0, 0.0, 0.0, 0.0, 0.0, 0.0, 0.0, 0.0, -0.030890950933098793, -0.42281028628349304, 0.014890165999531746, 0.05767161026597023, -0.09622299671173096, 0.003435185644775629
576929, 2.5304625034332275, -3.119245767593384, -12.029698371887207, 0, 0, 0, 0.0, 0.0, 0.0, 0.0, 0.0, 0.0, 0.0, -0.030810430645942688, -0.42268362641334534, 0.014970575459301472, 0.058344125747680664, -0.09403198957443237, 0.0040049985982477665
576939, 2.5729000568389893, -3.1109302043914795, -12.017295837402344, 0, 0, 0, 0.0, 0.0, 0.0, 0.0, 0.0, 0.0, 0.0, -0.030773377045989037, -0.4229523241519928, 0.01460639201104641, 0.058900050818920135, -0.09635011851787567, 0.0019752930384129286
576950, 2.5702006816864014, -3.0969672203063965, -12.041983604431152, 0, 0, 0, 0.0, 0.0, 0.0, 0.0, 0.0, 0.0, 0.0, -0.030824273824691772, -0.42269402742385864, 0.014672419987618923, 0.05785863474011421, -0.09401045739650726, 0.0024855465162545443
576960, 2.6588823795318604, -3.0930473804473877, -12.033439636230469, 0, 0, 0, 0.0, 0.0, 0.0, 0.0, 0.0, 0.0, 0.0, -0.03132005035877228, -0.4222939908504486, 0.014889782294631004, 0.05319926515221596, -0.09218889474868774, 0.003997188061475754
576969, 2.6873292922973633, -3.0996932983398438, -12.024940490722656, 0, 0, 0, 0.0, 0.0, 0.0, 0.0, 0.0, 0.0, 0.0, -0.031030455604195595, -0.4220306873321533, 0.014950364828109741, 0.055381890386343, -0.08988998085260391, 0.004853334277868271
576979, 2.559401512145996, -3.1485981941223145, -12.022782325744629, 0, 0, 0, 0.0, 0.0, 0.0, 0.0, 0.0, 0.0, 0.0, -0.03086620382964611, -0.4220924377441406, 0.014726581983268261, 0.056322112679481506, -0.08758997172117233, 0.0034304428845643997
576989, 2.569154977798462, -3.1356499195098877, -12.016517639160156, 0, 0, 0, 0.0, 0.0, 0.0, 0.0, 0.0, 0.0, 0.0, -0.02987036108970642, -0.4217509329319, 0.014700238592922688, 0.06322021782398224, -0.08332870155572891, 0.003542485414072871
577000, 2.4892213344573975, -3.1410555839538574, -12.036398887634277, 0, 0, 0, 0.0, 0.0, 0.0, 0.0, 0.0, 0.0, 0.0, -0.031493742018938065, -0.4215390086174011, 0.01496166456490755, 0.04994048550724983, -0.08375370502471924, 0.004941066727042198
577009, 2.5535106658935547, -3.10375714302063, -12.048317909240723, 0, 0, 0, 0.0, 0.0, 0.0, 0.0, 0.0, 0.0, 0.0, -0.032025448977947235, -0.4212459325790405, 0.015097642317414284, 0.04539121314883232, -0.08284088224172592, 0.005785735789686441
577020, 2.496668815612793, -3.1245462894439697, -12.068501472473145, 0, 0, 0, 0.0, 0.0, 0.0, 0.0, 0.0, 0.0, 0.0, -0.03203928470611572, -0.42158764600753784, 0.015157352201640606, 0.0454731322824955, -0.08446993678808212, 0.0063087306916713715
577029, 2.5036582946777344, -3.138749837875366, -12.053313255310059, 0, 0, 0, 0.0, 0.0, 0.0, 0.0, 0.0, 0.0, 0.0, -0.030003413558006287, -0.42043036222457886, 0.015235221944749355, 0.06048078462481499, -0.07094526290893555, 0.006791748106479645
577039, 2.545600175857544, -3.114471912384033, -12.050861358642578, 0, 0, 0, 0.0, 0.0, 0.0, 0.0, 0.0, 0.0, 0.0, -0.027685638517141342, -0.41867026686668396, 0.01531532034277916, 0.07532037049531937, -0.05467185378074646, 0.007424664217978716
577049, 2.625913381576538, -3.097960948944092, -12.052062034606934, 0, 0, 0, 0.0, 0.0, 0.0, 0.0, 0.0, 0.0, 0.0, -0.027584625408053398, -0.41880807280540466, 0.015304585918784142, 0.07552147656679153, -0.05778783932328224, 0.00749266566708684
577060, 2.6155920028686523, -3.1041224002838135, -12.04206657409668, 0, 0, 0, 0.0, 0.0, 0.0, 0.0, 0.0, 0.0, 0.0, -0.02764553762972355, -0.41859400272369385, 0.015380492433905602, 0.07380897551774979, -0.0575500950217247, 0.007909637875854969
577069, 2.513880491256714, -3.163325548171997, -12.038522720336914, 0, 0, 0, 0.0, 0.0, 0.0, 0.0, 0.0, 0.0, 0.0, -0.027507919818162918, -0.4186379313468933, 0.01493126805871725, 0.07479294389486313, -0.05832815542817116, 0.004880508873611689
577079, 2.55765438079834, -3.138949155807495, -12.03013801574707, 0, 0, 0, 0.0, 0.0, 0.0, 0.0, 0.0, 0.0, 0.0, -0.026944398880004883, -0.41831186413764954, 0.015003402717411518, 0.07615379244089127, -0.054995156824588776, 0.005424814764410257
577089, 2.5908420085906982, -3.117260694503784, -12.036954879760742, 0, 0, 0, 0.0, 0.0, 0.0, 0.0, 0.0, 0.0, 0.0, -0.02752591110765934, -0.4183729887008667, 0.015102720819413662, 0.07080300897359848, -0.05823024734854698, 0.0060280608013272285
577099, 2.528250217437744, -3.134228229522705, -12.052775382995605, 0, 0, 0, 0.0, 0.0, 0.0, 0.0, 0.0, 0.0, 0.0, -0.02775041200220585, -0.41829201579093933, 0.015173916704952717, 0.06872425973415375, -0.058095499873161316, 0.00634340662509203
577109, 2.5392262935638428, -3.1262502670288086, -12.044368743896484, 0, 0, 0, 0.0, 0.0, 0.0, 0.0, 0.0, 0.0, 0.0, -0.027729032561182976, -0.4184427559375763, 0.015154379419982433, 0.06895386427640915, -0.060529112815856934, 0.006398139987140894
577119, 2.5355424880981445, -3.1337265968322754, -12.050687789916992, 0, 0, 0, 0.0, 0.0, 0.0, 0.0, 0.0, 0.0, 0.0, -0.02826591767370701, -0.4192085564136505, 0.015067213214933872, 0.0657728761434555, -0.06854037940502167, 0.005967647302895784
577129, 2.606628179550171, -3.120251178741455, -12.04332160949707, 0, 0, 0, 0.0, 0.0, 0.0, 0.0, 0.0, 0.0, 0.0, -0.028052043169736862, -0.4184154272079468, 0.015326950699090958, 0.06448981910943985, -0.06177077069878578, 0.007573029026389122
577139, 2.575066328048706, -3.1182076930999756, -12.041693687438965, 0, 0, 0, 0.0, 0.0, 0.0, 0.0, 0.0, 0.0, 0.0, -0.028014348819851875, -0.4185558259487152, 0.015306307002902031, 0.06515751779079437, -0.06347963213920593, 0.007327715400606394
577149, 2.4930436611175537, -3.143383741378784, -12.042783737182617, 0, 0, 0, 0.0, 0.0, 0.0, 0.0, 0.0, 0.0, 0.0, -0.02816430665552616, -0.41803914308547974, 0.015486559830605984, 0.06348840147256851, -0.05971793085336685, 0.008332452736794949
577159, 2.4343886375427246, -3.172585964202881, -12.03972053527832, 0, 0, 0, 0.0, 0.0, 0.0, 0.0, 0.0, 0.0, 0.0, -0.028279021382331848, -0.41790902614593506, 0.015704434365034103, 0.06251665204763412, -0.05932524427771568, 0.009501994587481022
577170, 2.528916358947754, -3.110332489013672, -12.052460670471191, 0, 0, 0, 0.0, 0.0, 0.0, 0.0, 0.0, 0.0, 0.0, -0.027976954355835915, -0.41808339953422546, 0.01575983501970768, 0.06343559920787811, -0.06041393429040909, 0.009622693993151188
577179, 2.559391736984253, -3.1099750995635986, -12.044330596923828, 0, 0, 0, 0.0, 0.0, 0.0, 0.0, 0.0, 0.0, 0.0, -0.02886299043893814, -0.41752490401268005, 0.01588371768593788, 0.056949447840452194, -0.059818051755428314, 0.009929937310516834
577189, 2.4845077991485596, -3.1523475646972656, -12.04356861114502, 0, 0, 0, 0.0, 0.0, 0.0, 0.0, 0.0, 0.0, 0.0, -0.02863936498761177, -0.4179977774620056, 0.015904439613223076, 0.05849318578839302, -0.06325144320726395, 0.00991550087928772
577199, 2.5151708126068115, -3.1326823234558105, -12.037933349609375, 0, 0, 0, 0.0, 0.0, 0.0, 0.0, 0.0, 0.0, 0.0, -0.028752576559782028, -0.41776275634765625, 0.01598397269845009, 0.05788581073284149, -0.0622781440615654, 0.010024196468293667
577209, 2.464451313018799, -3.1410279273986816, -12.034808158874512, 0, 0, 0, 0.0, 0.0, 0.0, 0.0, 0.0, 0.0, 0.0, -0.02907239831984043, -0.4174935221672058, 0.015762392431497574, 0.05548127740621567, -0.061194490641355515, 0.008407901972532272
577219, 2.5220353603363037, -3.1388025283813477, -12.036086082458496, 0, 0, 0, 0.0, 0.0, 0.0, 0.0, 0.0, 0.0, 0.0, -0.029098303988575935, -0.41768312454223633, 0.01575455628335476, 0.05609264224767685, -0.06385445594787598, 0.008400540798902512
577229, 2.5396251678466797, -3.1065242290496826, -12.043281555175781, 0, 0, 0, 0.0, 0.0, 0.0, 0.0, 0.0, 0.0, 0.0, -0.028802014887332916, -0.417852520942688, 0.015804549679160118, 0.05760493502020836, -0.06445784121751785, 0.008691131137311459
577239, 2.5546369552612305, -3.1025779247283936, -12.033533096313477, 0, 0, 0, 0.0, 0.0, 0.0, 0.0, 0.0, 0.0, 0.0, -0.029244929552078247, -0.41760003566741943, 0.01592751033604145, 0.054337028414011, -0.06416021287441254, 0.009249058552086353
577249, 2.556915283203125, -3.1112804412841797, -12.026787757873535, 0, 0, 0, 0.0, 0.0, 0.0, 0.0, 0.0, 0.0, 0.0, -0.02930724248290062, -0.41772374510765076, 0.014959638006985188, 0.05500496178865433, -0.06614720821380615, 0.003136624814942479
577259, 2.6617379188537598, -3.102628231048584, -12.028465270996094, 0, 0, 0, 0.0, 0.0, 0.0, 0.0, 0.0, 0.0, 0.0, -0.029540332034230232, -0.41802170872688293, 0.014952550642192364, 0.05427490547299385, -0.07033377140760422, 0.003569214604794979
577269, 2.629002094268799, -3.1038625240325928, -12.021719932556152, 0, 0, 0, 0.0, 0.0, 0.0, 0.0, 0.0, 0.0, 0.0, -0.029376652091741562, -0.41786232590675354, 0.015073420479893684, 0.05459471419453621, -0.06871054321527481, 0.004703528247773647
577279, 2.6355226039886475, -3.1084706783294678, -12.016902923583984, 0, 0, 0, 0.0, 0.0, 0.0, 0.0, 0.0, 0.0, 0.0, -0.029740436002612114, -0.4175676703453064, 0.015199687331914902, 0.05221555009484291, -0.06638094037771225, 0.005479172803461552
577289, 2.6745128631591797, -3.09389066696167, -12.011924743652344, 0, 0, 0, 0.0, 0.0, 0.0, 0.0, 0.0, 0.0, 0.0, -0.029540959745645523, -0.41766369342803955, 0.015293926000595093, 0.05293489620089531, -0.06728363782167435, 0.006197805982083082
577299, 2.6016578674316406, -3.1253325939178467, -12.023473739624023, 0, 0, 0, 0.0, 0.0, 0.0, 0.0, 0.0, 0.0, 0.0, -0.030065003782510757, -0.4171184301376343, 0.014323785901069641, 0.05060480162501335, -0.06601377576589584, 0.0003892079694196582
577309, 2.474803924560547, -3.155686140060425, -12.041419982910156, 0, 0, 0, 0.0, 0.0, 0.0, 0.0, 0.0, 0.0, 0.0, -0.030583880841732025, -0.41674625873565674, 0.014455328695476055, 0.047234028577804565, -0.06357872486114502, 0.001377744134515524
577319, 2.613905668258667, -3.1194117069244385, -12.026585578918457, 0, 0, 0, 0.0, 0.0, 0.0, 0.0, 0.0, 0.0, 0.0, -0.030788596719503403, -0.4171888530254364, 0.014414748176932335, 0.04694142937660217, -0.0690283328294754, 0.0016146370908245444
577329, 2.598552942276001, -3.1124958992004395, -12.0267972946167, 0, 0, 0, 0.0, 0.0, 0.0, 0.0, 0.0, 0.0, 0.0, -0.03070312924683094, -0.41704487800598145, 0.01453961431980133, 0.04695604369044304, -0.06711934506893158, 0.0025836003478616476
577339, 2.5886030197143555, -3.1094372272491455, -12.019407272338867, 0, 0, 0, 0.0, 0.0, 0.0, 0.0, 0.0, 0.0, 0.0, -0.030223555862903595, -0.41656050086021423, 0.014771927148103714, 0.04989724978804588, -0.06331821531057358, 0.00428813649341464
577350, 2.5889017581939697, -3.101790428161621, -12.022892951965332, 0, 0, 0, 0.0, 0.0, 0.0, 0.0, 0.0, 0.0, 0.0, -0.030870597809553146, -0.416353702545166, 0.014911854639649391, 0.045628927648067474, -0.06369808316230774, 0.005245129112154245
577360, 2.56113862991333, -3.132554769515991, -12.041635513305664, 0, 0, 0, 0.0, 0.0, 0.0, 0.0, 0.0, 0.0, 0.0, -0.030699674040079117, -0.41670310497283936, 0.01489235833287239, 0.048466239124536514, -0.06663546711206436, 0.005404001567512751
577369, 2.5635440349578857, -3.1337292194366455, -12.031746864318848, 0, 0, 0, 0.0, 0.0, 0.0, 0.0, 0.0, 0.0, 0.0, -0.030669724568724632, -0.4173601269721985, 0.014888170175254345, 0.049532633274793625, -0.07086271792650223, 0.005597241688519716
577379, 2.6065797805786133, -3.1119871139526367, -12.014725685119629, 0, 0, 0, 0.0, 0.0, 0.0, 0.0, 0.0, 0.0, 0.0, -0.030759066343307495, -0.41701358556747437, 0.015048155561089516, 0.04852987825870514, -0.06921661645174026, 0.00641701789572835
577389, 2.6112477779388428, -3.107016086578369, -12.012545585632324, 0, 0, 0, 0.0, 0.0, 0.0, 0.0, 0.0, 0.0, 0.0, -0.0310649611055851, -0.4168255627155304, 0.015149996615946293, 0.04653835669159889, -0.06901311129331589, 0.0068938410840928555
577399, 2.642364740371704, -3.0932648181915283, -12.02177906036377, 0, 0, 0, 0.0, 0.0, 0.0, 0.0, 0.0, 0.0, 0.0, -0.03360162302851677, -0.41754284501075745, 0.015307437628507614, 0.029760869219899178, -0.07927168905735016, 0.007620556280016899
577410, 2.6351165771484375, -3.0859549045562744, -12.018536567687988, 0, 0, 0, 0.0, 0.0, 0.0, 0.0, 0.0, 0.0, 0.0, -0.03620230033993721, -0.41834041476249695, 0.015299277380108833, 0.013134149834513664, -0.08856156468391418, 0.007209903094917536
577419, 2.625950574874878, -3.084590435028076, -12.0264892578125, 0, 0, 0, 0.0, 0.0, 0.0, 0.0, 0.0, 0.0, 0.0, -0.03625918924808502, -0.41896918416023254, 0.01532004214823246, 0.015135304071009159, -0.09171579778194427, 0.0075097414664924145
577429, 2.5774190425872803, -3.1030874252319336, -12.03260612487793, 0, 0, 0, 0.0, 0.0, 0.0, 0.0, 0.0, 0.0, 0.0, -0.036284223198890686, -0.4189004898071289, 0.01532556489109993, 0.016913948580622673, -0.08985894918441772, 0.007428555283695459
577439, 2.624718189239502, -3.083564281463623, -12.031299591064453, 0, 0, 0, 0.0, 0.0, 0.0, 0.0, 0.0, 0.0, 0.0, -0.035524386912584305, -0.42012500762939453, 0.015148535370826721, 0.026109633967280388, -0.09807592630386353, 0.006727050058543682
577449, 2.6070570945739746, -3.082489490509033, -12.021272659301758, 0, 0, 0, 0.0, 0.0, 0.0, 0.0, 0.0, 0.0, 0.0, -0.0369463786482811, -0.4191909730434418, 0.015515072271227837, 0.015277016907930374, -0.0920695960521698, 0.008601739071309566
577459, 2.598513126373291, -3.0856618881225586, -12.01432991027832, 0, 0, 0, 0.0, 0.0, 0.0, 0.0, 0.0, 0.0, 0.0, -0.036915529519319534, -0.41897284984588623, 0.015675121918320656, 0.016929008066654205, -0.08972832560539246, 0.00958030391484499
577469, 2.554903745651245, -3.1061782836914062, -12.025837898254395, 0, 0, 0, 0.0, 0.0, 0.0, 0.0, 0.0, 0.0, 0.0, -0.03661607578396797, -0.41890862584114075, 0.015799660235643387, 0.020643867552280426, -0.08786141127347946, 0.01018914021551609
