timeTick, roll, pitch, yaw, stateX, stateY, stateZ, stateVX, stateVY, stateVZ, stateROLL, statePITCH, stateYAW, whisker1, whisker2, whisker3, motor1, motor2, motor3, motor4, laserHeight, flowX, flowY, ext_pos_X,ext_pos_Y,ext_pos_Z, kalX, kalY, kalZ, kalPX, kalPY, kalPZ
294618, 0.31984201073646545, -1.617691993713379, -0.27126508951187134, 0, 0, 0, 0, 0, 0, 0, 0, 0, 0, 0, 0, 0, 0, 0, 0, 0, 0, 0, 0, 0, 0, 0, 0, 0, 0, 0, 0
294627, 0.9496166110038757, -2.3064334392547607, -12.103368759155273, 0, 0, 0, 0, 0, 0, 0, 0, 0, 0, 0, 0, 0.0, 0.0, 0.0, 0.0, 17.0, 4.0, 1.0, 0.0, 0.0, 0.0, 0, 0, 0, 0, 0, 0
294637, 1.7611925601959229, -2.365330696105957, -12.130568504333496, 0, 0, 0, 0, 0, 0, 0, 0, 0, 0, 0, 0, 0.0, 0.0, 0.0, 0.0, 17.0, 1.0, -1.0, 0.0, 0.0, 0.0, -0.03256051987409592, -0.4026382267475128, 0.016537083312869072, 0.012960445135831833, -0.04208415001630783, 0.0017925668507814407
294648, 2.077162742614746, -2.475525140762329, -12.146151542663574, 0, 0, 0, 0, 0, 0, 0, 0, 0, 0, 0, 0, 0.0, 0.0, 0.0, 0.0, 17.0, 0.0, 1.0, 0.0, 0.0, 0.0, -0.03424118086695671, -0.4050031304359436, 0.01657492108643055, 0.01399980578571558, -0.05694634094834328, 0.002326936461031437
294657, 2.1951165199279785, -2.554781675338745, -12.183537483215332, 0, 0, 0, 0, 0, 0, 0, 0, 0, 0, 0, 0, 0.0, 0.0, 0.0, 0.0, 15.0, 0.0, -2.0, 0.0, 0.0, 0.0, -0.034882307052612305, -0.40624821186065674, 0.0160541795194149, 0.018547791987657547, -0.06274376064538956, 8.530027844244614e-05
294667, 2.2864456176757812, -2.622591257095337, -12.157698631286621, 0, 0, 0, 0, 0, 0, 0, 0, 0, 0, 0, 0, 0.0, 0.0, 0.0, 0.0, 15.0, -1.0, 0.0, 0.0, 0.0, 0.0, -0.035043321549892426, -0.40698155760765076, 0.01610255427658558, 0.02011210285127163, -0.06219171732664108, 0.0008761583594605327
294677, 2.485339879989624, -2.7049834728240967, -12.180179595947266, 0, 0, 0, 0, 0, 0, 0, 0, 0, 0, 0, 0, 0.0, 0.0, 0.0, 0.0, 15.0, 1.0, 3.0, 0.0, 0.0, 0.0, -0.035474635660648346, -0.4078066349029541, 0.016147688031196594, 0.02068428322672844, -0.06968953460454941, 0.0015425391029566526
294687, 2.4107987880706787, -2.728724241256714, -12.176520347595215, 0, 0, 0, 0, 0, 0, 0, 0, 0, 0, 0, 0, 0.0, 0.0, 0.0, 0.0, 15.0, -1.0, 1.0, 0.0, 0.0, 0.0, -0.035666704177856445, -0.40846773982048035, 0.01622224785387516, 0.021142635494470596, -0.070818230509758, 0.0022984470706433058
294698, 2.44759464263916, -2.765831708908081, -12.152939796447754, 0, 0, 0, 0, 0, 0, 0, 0, 0, 0, 0, 0, 0.0, 0.0, 0.0, 0.0, 17.0, 0.0, 0.0, 0.0, 0.0, 0.0, -0.03567612171173096, -0.40899908542633057, 0.016194986179471016, 0.0239833015948534, -0.07344624400138855, 0.002414260059595108
294709, 2.4210522174835205, -2.8471415042877197, -12.132814407348633, 0, 0, 0, 0, 0, 0, 0, 0, 0, 0, 0, 0, 0.0, 0.0, 0.0, 0.0, 17.0, 4.0, -4.0, 0.0, 0.0, 0.0, -0.03556501120328903, -0.4095592200756073, 0.01641516573727131, 0.030444303527474403, -0.07659927755594254, 0.003894955851137638
294717, 2.490201473236084, -2.8975119590759277, -12.121830940246582, 0, 0, 0, 0, 0, 0, 0, 0, 0, 0, 0, 0, 0.0, 0.0, 0.0, 0.0, 17.0, -3.0, 0.0, 0.0, 0.0, 0.0, -0.03556268662214279, -0.40987780690193176, 0.016520420089364052, 0.030992699787020683, -0.07531843334436417, 0.004767536651343107
294727, 2.498699903488159, -2.890838623046875, -12.132875442504883, 0, 0, 0, 0, 0, 0, 0, 0, 0, 0, 0, 0, 0.0, 0.0, 0.0, 0.0, 17.0, -1.0, 0.0, 0.0, 0.0, 0.0, -0.035468313843011856, -0.41030260920524597, 0.016630282625555992, 0.03197269141674042, -0.07348274439573288, 0.00566962081938982
294738, 2.54160737991333, -2.8928396701812744, -12.128177642822266, 0, 0, 0, 0, 0, 0, 0, 0, 0, 0, 0, 0, 0.0, 0.0, 0.0, 0.0, 17.0, 0.0, 0.0, 0.0, 0.0, 0.0, -0.035443540662527084, -0.41092169284820557, 0.01659553125500679, 0.03326031565666199, -0.07751341909170151, 0.005653057713061571
294749, 2.564460515975952, -2.908742666244507, -12.120821952819824, 0, 0, 0, 0, 0, 0, 0, 0, 0, 0, 0, 0, 0.0, 0.0, 0.0, 0.0, 16.0, -4.0, 2.0, 0.0, 0.0, 0.0, -0.035480283200740814, -0.4111384153366089, 0.016535354778170586, 0.03231936693191528, -0.07539848983287811, 0.005527875851839781
294757, 2.5638208389282227, -2.958374261856079, -12.144095420837402, 0, 0, 0, 0, 0, 0, 0, 0, 0, 0, 0, 0, 0.0, 0.0, 0.0, 0.0, 16.0, 3.0, 0.0, 0.0, 0.0, 0.0, -0.03550069034099579, -0.4116562306880951, 0.01652764342725277, 0.032933373004198074, -0.07798978686332703, 0.005871082190424204
294768, 2.5360631942749023, -3.0030133724212646, -12.12850284576416, 0, 0, 0, 0, 0, 0, 0, 0, 0, 0, 0, 0, 0.0, 0.0, 0.0, 0.0, 16.0, 4.0, -1.0, 0.0, 0.0, 0.0, -0.03538481146097183, -0.4122615158557892, 0.016508668661117554, 0.0358753576874733, -0.08158399909734726, 0.00612214021384716
294778, 2.5748417377471924, -2.9670631885528564, -12.112883567810059, 0, 0, 0, 0, 0, 0, 0, 0, 0, 0, 0, 0, 0.0, 0.0, 0.0, 0.0, 16.0, -1.0, 0.0, 0.0, 0.0, 0.0, -0.035470638424158096, -0.4117644727230072, 0.016603145748376846, 0.03385346382856369, -0.07685700058937073, 0.0066283997148275375
294787, 2.480466842651367, -3.0345382690429688, -12.126311302185059, 0, 0, 0, 0, 0, 0, 0, 0, 0, 0, 0, 0, 0.0, 0.0, 0.0, 0.0, 15.0, 0.0, 2.0, 0.0, 0.0, 0.0, -0.035564180463552475, -0.4120790958404541, 0.016713039949536324, 0.032783184200525284, -0.07674279808998108, 0.007325087208300829
294798, 2.5367417335510254, -2.9912033081054688, -12.108768463134766, 0, 0, 0, 0, 0, 0, 0, 0, 0, 0, 0, 0, 0.0, 0.0, 0.0, 0.0, 15.0, -5.0, 0.0, 0.0, 0.0, 0.0, -0.0354289785027504, -0.4119793474674225, 0.016305068507790565, 0.033297862857580185, -0.07118213921785355, 0.00495339697226882
294807, 2.560724973678589, -2.992722988128662, -12.094895362854004, 0, 0, 0, 0, 0, 0, 0, 0, 0, 0, 0, 0, 0.0, 0.0, 0.0, 0.0, 15.0, 4.0, -2.0, 0.0, 0.0, 0.0, -0.03535272553563118, -0.4124619662761688, 0.01625818945467472, 0.0354313887655735, -0.07520927488803864, 0.004946575500071049
294817, 2.6339151859283447, -3.0042290687561035, -12.080361366271973, 0, 0, 0, 0, 0, 0, 0, 0, 0, 0, 0, 0, 0.0, 0.0, 0.0, 0.0, 15.0, 0.0, 2.0, 0.0, 0.0, 0.0, -0.035474974662065506, -0.4126458168029785, 0.01634301245212555, 0.03358036279678345, -0.0754876360297203, 0.00589374965056777
294828, 2.4968318939208984, -3.056208848953247, -12.097030639648438, 0, 0, 0, 0, 0, 0, 0, 0, 0, 0, 0, 0, 0.0, 0.0, 0.0, 0.0, 15.0, 0.0, -3.0, 0.0, 0.0, 0.0, -0.035148441791534424, -0.41297319531440735, 0.016408320516347885, 0.03707299754023552, -0.07398957014083862, 0.006566566880792379
294838, 2.516129493713379, -3.0668532848358154, -12.092262268066406, 0, 0, 0, 0, 0, 0, 0, 0, 0, 0, 0, 0, 0.0, 0.0, 0.0, 0.0, 15.0, 0.0, 5.0, 0.0, 0.0, 0.0, -0.03545447066426277, -0.41298291087150574, 0.016041923314332962, 0.0331537202000618, -0.07224069535732269, 0.004003584384918213
294848, 2.482250452041626, -3.0682575702667236, -12.098676681518555, 0, 0, 0, 0, 0, 0, 0, 0, 0, 0, 0, 0, 0.0, 0.0, 0.0, 0.0, 15.0, -1.0, -4.0, 0.0, 0.0, 0.0, -0.03514234721660614, -0.4131687879562378, 0.01605410687625408, 0.03677736595273018, -0.07207582145929337, 0.0044688452035188675
294857, 2.5209667682647705, -3.0716445446014404, -12.12193775177002, 0, 0, 0, 0, 0, 0, 0, 0, 0, 0, 0, 0, 0.0, 0.0, 0.0, 0.0, 15.0, 0.0, 0.0, 0.0, 0.0, 0.0, -0.035025354474782944, -0.41355249285697937, 0.016031308099627495, 0.03870829939842224, -0.07426393032073975, 0.004550775047391653
294867, 2.6466197967529297, -3.067551612854004, -12.083009719848633, 0, 0, 0, 0, 0, 0, 0, 0, 0, 0, 0, 0, 0.0, 0.0, 0.0, 0.0, 15.0, 3.0, 0.0, 0.0, 0.0, 0.0, -0.03501944616436958, -0.41410115361213684, 0.016042914241552353, 0.038984332233667374, -0.07657716423273087, 0.004748783074319363
294877, 2.551199436187744, -3.096709728240967, -12.071743965148926, 0, 0, 0, 0, 0, 0, 0, 0, 0, 0, 0, 0, 0.0, 0.0, 0.0, 0.0, 14.0, -6.0, 0.0, 0.0, 0.0, 0.0, -0.0348840169608593, -0.4137521982192993, 0.016274163499474525, 0.03884698078036308, -0.0711449533700943, 0.006453392561525106
294888, 2.6190719604492188, -3.068828582763672, -12.05871295928955, 0, 0, 0, 0, 0, 0, 0, 0, 0, 0, 0, 0, 0.0, 0.0, 0.0, 0.0, 14.0, 2.0, 1.0, 0.0, 0.0, 0.0, -0.034950219094753265, -0.41387856006622314, 0.015576617792248726, 0.03788560628890991, -0.07106966525316238, 0.0018631468992680311
294899, 2.5903823375701904, -3.057664155960083, -12.082653999328613, 0, 0, 0, 0, 0, 0, 0, 0, 0, 0, 0, 0, 0.0, 0.0, 0.0, 0.0, 14.0, 2.0, 1.0, 0.0, 0.0, 0.0, -0.03506580740213394, -0.41423094272613525, 0.01557462103664875, 0.037400875240564346, -0.0734354630112648, 0.0020632422529160976
294907, 2.570812940597534, -3.0466384887695312, -12.083541870117188, 0, 0, 0, 0, 0, 0, 0, 0, 0, 0, 0, 0, 0.0, 0.0, 0.0, 0.0, 14.0, 0.0, -2.0, 0.0, 0.0, 0.0, -0.03483721613883972, -0.41439810395240784, 0.015612357296049595, 0.03923451527953148, -0.07284652441740036, 0.002489411737769842
294917, 2.5646512508392334, -3.0640788078308105, -12.076750755310059, 0, 0, 0, 0, 0, 0, 0, 0, 0, 0, 0, 0, 0.0, 0.0, 0.0, 0.0, 14.0, 2.0, 0.0, 0.0, 0.0, 0.0, -0.03480878472328186, -0.41480177640914917, 0.015641219913959503, 0.03905881941318512, -0.07405728846788406, 0.0030110590159893036
294928, 2.5258595943450928, -3.065267562866211, -12.075018882751465, 0, 0, 0, 0, 0, 0, 0, 0, 0, 0, 0, 0, 0.0, 0.0, 0.0, 0.0, 17.0, -1.0, 0.0, 0.0, 0.0, 0.0, -0.0347544364631176, -0.41476646065711975, 0.01616506092250347, 0.03913673013448715, -0.07217010110616684, 0.0067631034180521965
294938, 2.5373682975769043, -3.070537805557251, -12.075675010681152, 0, 0, 0, 0, 0, 0, 0, 0, 0, 0, 0, 0, 0.0, 0.0, 0.0, 0.0, 17.0, -2.0, 0.0, 0.0, 0.0, 0.0, -0.03466363996267319, -0.414583295583725, 0.016269750893115997, 0.039614975452423096, -0.06850963085889816, 0.0075450981967151165
294948, 2.579425811767578, -3.072431802749634, -12.075915336608887, 0, 0, 0, 0, 0, 0, 0, 0, 0, 0, 0, 0, 0.0, 0.0, 0.0, 0.0, 17.0, 0.0, 3.0, 0.0, 0.0, 0.0, -0.034944698214530945, -0.41458219289779663, 0.016356881707906723, 0.03612999990582466, -0.06864328682422638, 0.008017324842512608
294959, 2.623234987258911, -3.0746216773986816, -12.065071105957031, 0, 0, 0, 0, 0, 0, 0, 0, 0, 0, 0, 0, 0.0, 0.0, 0.0, 0.0, 17.0, 5.0, -3.0, 0.0, 0.0, 0.0, -0.03474971652030945, -0.41511550545692444, 0.01628684438765049, 0.03900014981627464, -0.07338937371969223, 0.007560672704130411
294967, 2.701059103012085, -3.0589208602905273, -12.065340042114258, 0, 0, 0, 0, 0, 0, 0, 0, 0, 0, 0, 0, 0.0, 0.0, 0.0, 0.0, 15.0, -2.0, 0.0, 0.0, 0.0, 0.0, -0.03473147749900818, -0.4149141311645508, 0.01595575362443924, 0.03856053575873375, -0.07048757374286652, 0.005285443272441626
294977, 2.564237594604492, -3.087176561355591, -12.087103843688965, 0, 0, 0, 0, 0, 0, 0, 0, 0, 0, 0, 0, 0.0, 0.0, 0.0, 0.0, 15.0, -2.0, 3.0, 0.0, 0.0, 0.0, -0.034902576357126236, -0.414910227060318, 0.016085833311080933, 0.03593038395047188, -0.0695943683385849, 0.006429718341678381
294988, 2.4844136238098145, -3.1212692260742188, -12.090993881225586, 0, 0, 0, 0, 0, 0, 0, 0, 0, 0, 0, 0, 0.0, 0.0, 0.0, 0.0, 15.0, -4.0, -3.0, 0.0, 0.0, 0.0, -0.03450283035635948, -0.4145564138889313, 0.01617766171693802, 0.039029210805892944, -0.06391392648220062, 0.007231467869132757
294999, 2.6804301738739014, -3.0794260501861572, -12.078009605407715, 0, 0, 0, 0, 0, 0, 0, 0, 0, 0, 0, 0, 0.0, 0.0, 0.0, 0.0, 15.0, 2.0, 1.0, 0.0, 0.0, 0.0, -0.03462124988436699, -0.41473791003227234, 0.016230059787631035, 0.03826005011796951, -0.06591984629631042, 0.007749559823423624
295007, 2.742224931716919, -3.0978620052337646, -12.132091522216797, 0, 0, 0, 0, 0, 0, 0, 0, 0, 0, 0, 0, 0.0, 0.0, 0.0, 0.0, 15.0, -2.0, -1.0, 0.0, 0.0, 0.0, -0.034537360072135925, -0.41465145349502563, 0.01632506400346756, 0.03901788964867592, -0.06511928141117096, 0.008548017591238022
295017, 2.506255865097046, -3.143634796142578, -12.08347225189209, 0, 0, 0, 0, 0, 0, 0, 0, 0, 0, 0, 0, 0.0, 0.0, 0.0, 0.0, 11.0, 4.0, 3.0, 0.0, 0.0, 0.0, -0.03488978371024132, -0.4148309826850891, 0.014591776765882969, 0.03712161257863045, -0.0677078366279602, -0.0032683624885976315
295028, 2.5765230655670166, -3.1057896614074707, -12.069253921508789, 0, 0, 0, 0, 0, 0, 0, 0, 0, 0, 0, 0, 0.0, 0.0, 0.0, 0.0, 11.0, -1.0, 0.0, 0.0, 0.0, 0.0, -0.03476780652999878, -0.4148741662502289, 0.014617356471717358, 0.03768407553434372, -0.0654263123869896, -0.002551453420892358
295037, 2.61074161529541, -3.077657461166382, -12.056132316589355, 0, 0, 0, 0, 0, 0, 0, 0, 0, 0, 0, 0, 0.0, 0.0, 0.0, 0.0, 11.0, 0.0, -3.0, 0.0, 0.0, 0.0, -0.03449653461575508, -0.41493552923202515, 0.0146235516294837, 0.03932863846421242, -0.06604941189289093, -0.0019584002438932657
295047, 2.6355135440826416, -3.0713489055633545, -12.070995330810547, 0, 0, 0, 0, 0, 0, 0, 0, 0, 0, 0, 0, 0.0, 0.0, 0.0, 0.0, 11.0, 1.0, 3.0, 0.0, 0.0, 0.0, -0.03478826954960823, -0.41498827934265137, 0.01468657236546278, 0.03695274516940117, -0.06746210902929306, -0.0009208903065882623
295057, 2.6174380779266357, -3.1062755584716797, -12.089128494262695, 0, 0, 0, 0, 0, 0, 0, 0, 0, 0, 0, 0, 0.0, 0.0, 0.0, 0.0, 14.0, -4.0, -3.0, 0.0, 0.0, 0.0, -0.03437093272805214, -0.414892315864563, 0.01478012278676033, 0.03959241136908531, -0.06466514617204666, 0.00020005853730253875
295067, 2.583097457885742, -3.092493772506714, -12.062670707702637, 0, 0, 0, 0, 0, 0, 0, 0, 0, 0, 0, 0, 0.0, 0.0, 0.0, 0.0, 14.0, 4.0, 3.0, 0.0, 0.0, 0.0, -0.0347716361284256, -0.41496148705482483, 0.014545812271535397, 0.037258390337228775, -0.06698021292686462, -0.000932105933316052
295077, 2.6039822101593018, -3.0657598972320557, -12.05998706817627, 0, 0, 0, 0, 0, 0, 0, 0, 0, 0, 0, 0, 0.0, 0.0, 0.0, 0.0, 14.0, 0.0, 0.0, 0.0, 0.0, 0.0, -0.03458673506975174, -0.41547679901123047, 0.014516070485115051, 0.039278801530599594, -0.0694693848490715, -0.00044132964103482664
295087, 2.657818078994751, -3.0890724658966064, -12.056534767150879, 0, 0, 0, 0, 0, 0, 0, 0, 0, 0, 0, 0, 0.0, 0.0, 0.0, 0.0, 14.0, 0.0, -3.0, 0.0, 0.0, 0.0, -0.03433145210146904, -0.41554954648017883, 0.014569835737347603, 0.04138578101992607, -0.0700579360127449, 0.0006557803135365248
295097, 2.624880075454712, -3.0824990272521973, -12.057770729064941, 0, 0, 0, 0, 0, 0, 0, 0, 0, 0, 0, 0, 0.0, 0.0, 0.0, 0.0, 14.0, 0.0, 0.0, 0.0, 0.0, 0.0, -0.0341779924929142, -0.4158763885498047, 0.014554794877767563, 0.04308547452092171, -0.07226768881082535, 0.0012358441017568111
295107, 2.6832568645477295, -3.105114221572876, -12.081937789916992, 0, 0, 0, 0, 0, 0, 0, 0, 0, 0, 0, 0, 0.0, 0.0, 0.0, 0.0, 19.0, -5.0, -8.0, 0.0, 0.0, 0.0, -0.03316162899136543, -0.41581180691719055, 0.016103068366646767, 0.04963027313351631, -0.06794239580631256, 0.011633384972810745
295117, 2.630688190460205, -3.0982329845428467, -12.069190979003906, 0, 0, 0, 0, 0, 0, 0, 0, 0, 0, 0, 0, 0.0, 0.0, 0.0, 0.0, 19.0, 5.0, 7.0, 0.0, 0.0, 0.0, -0.03399591147899628, -0.4161298871040344, 0.016217170283198357, 0.043462641537189484, -0.07261672616004944, 0.012134813703596592
295127, 2.569018840789795, -3.119115114212036, -12.062771797180176, 0, 0, 0, 0, 0, 0, 0, 0, 0, 0, 0, 0, 0.0, 0.0, 0.0, 0.0, 19.0, 0.0, 3.0, 0.0, 0.0, 0.0, -0.034275226294994354, -0.4159705936908722, 0.01638203300535679, 0.040893275290727615, -0.07145356386899948, 0.012869498692452908
295138, 2.653230905532837, -3.0944740772247314, -12.061461448669434, 0, 0, 0, 0, 0, 0, 0, 0, 0, 0, 0, 0, 0.0, 0.0, 0.0, 0.0, 19.0, 1.0, 1.0, 0.0, 0.0, 0.0, -0.03437945246696472, -0.416011780500412, 0.01650180108845234, 0.040262334048748016, -0.07220479846000671, 0.013315314427018166
295147, 2.6818923950195312, -3.0835464000701904, -12.062301635742188, 0, 0, 0, 0, 0, 0, 0, 0, 0, 0, 0, 0, 0.0, 0.0, 0.0, 0.0, 19.0, -5.0, -3.0, 0.0, 0.0, 0.0, -0.03400304168462753, -0.4155590832233429, 0.016678089275956154, 0.04224025830626488, -0.06759215146303177, 0.013944119215011597
295157, 2.564418077468872, -3.126124620437622, -12.059526443481445, 0, 0, 0, 0, 0, 0, 0, 0, 0, 0, 0, 0, 0.0, 0.0, 0.0, 0.0, 16.0, 6.0, 3.0, 0.0, 0.0, 0.0, -0.034429021179676056, -0.41602709889411926, 0.016509100794792175, 0.039694495499134064, -0.07250501215457916, 0.012468943372368813
295167, 2.5565826892852783, -3.0954647064208984, -12.057429313659668, 0, 0, 0, 0, 0, 0, 0, 0, 0, 0, 0, 0, 0.0, 0.0, 0.0, 0.0, 16.0, 2.0, -3.0, 0.0, 0.0, 0.0, -0.03407811000943184, -0.4164072573184967, 0.016571838408708572, 0.04286281764507294, -0.07318402826786041, 0.012250807136297226
295177, 2.5792500972747803, -3.088287591934204, -12.043832778930664, 0, 0, 0, 0, 0, 0, 0, 0, 0, 0, 0, 0, 0.0, 0.0, 0.0, 0.0, 16.0, -8.0, 0.0, 0.0, 0.0, 0.0, -0.033922526985406876, -0.4156095087528229, 0.016822559759020805, 0.04235558584332466, -0.06647543609142303, 0.013173394836485386
295188, 2.621443033218384, -3.0836141109466553, -12.049395561218262, 0, 0, 0, 0, 0, 0, 0, 0, 0, 0, 0, 0, 0.0, 0.0, 0.0, 0.0, 16.0, 4.0, 2.0, 0.0, 0.0, 0.0, -0.03418223559856415, -0.415906697511673, 0.01685607060790062, 0.0408484973013401, -0.06970109790563583, 0.01305689848959446
295197, 2.6036810874938965, -3.0907201766967773, -12.087279319763184, 0, 0, 0, 0, 0, 0, 0, 0, 0, 0, 0, 0, 0.0, 0.0, 0.0, 0.0, 16.0, -4.0, 1.0, 0.0, 0.0, 0.0, -0.03424514830112457, -0.41543757915496826, 0.015758687630295753, 0.04012489691376686, -0.06710008531808853, 0.0059622423723340034
295207, 2.6612653732299805, -3.0869009494781494, -12.046928405761719, 0, 0, 0, 0, 0, 0, 0, 0, 0, 0, 0, 0, 0.0, 0.0, 0.0, 0.0, 13.0, 4.0, 0.0, 0.0, 0.0, 0.0, -0.03427464887499809, -0.41602015495300293, 0.015769479796290398, 0.040832266211509705, -0.07054764032363892, 0.0064210002310574055
295217, 2.5859596729278564, -3.1197001934051514, -12.059989929199219, 0, 0, 0, 0, 0, 0, 0, 0, 0, 0, 0, 0, 0.0, 0.0, 0.0, 0.0, 13.0, 0.0, 0.0, 0.0, 0.0, 0.0, -0.03411272540688515, -0.4164608120918274, 0.015764981508255005, 0.042789287865161896, -0.07424487173557281, 0.006764710880815983
295227, 2.541421413421631, -3.1253867149353027, -12.080739974975586, 0, 0, 0, 0, 0, 0, 0, 0, 0, 0, 0, 0, 0.0, 0.0, 0.0, 0.0, 13.0, 0.0, 0.0, 0.0, 0.0, 0.0, -0.03396204113960266, -0.41675612330436707, 0.015768488869071007, 0.0447416827082634, -0.07562255859375, 0.007006915286183357
295238, 2.5691847801208496, -3.0961015224456787, -12.048287391662598, 0, 0, 0, 0, 0, 0, 0, 0, 0, 0, 0, 0, 0.0, 0.0, 0.0, 0.0, 19.0, 1.0, 0.0, 0.0, 0.0, 0.0, -0.03400808945298195, -0.4167778193950653, 0.01585550792515278, 0.04410821571946144, -0.07579037547111511, 0.0076125855557620525
295248, 2.5695314407348633, -3.1566576957702637, -12.052323341369629, 0, 0, 0, 0, 0, 0, 0, 0, 0, 0, 0, 0, 0.0, 0.0, 0.0, 0.0, 19.0, -2.0, -3.0, 0.0, 0.0, 0.0, -0.03363442420959473, -0.4166189730167389, 0.01695050299167633, 0.04667075723409653, -0.0731927901506424, 0.014092770405113697
295257, 2.5799813270568848, -3.120710611343384, -12.055404663085938, 0, 0, 0, 0, 0, 0, 0, 0, 0, 0, 0, 0, 0.0, 0.0, 0.0, 0.0, 19.0, 0.0, 3.0, 0.0, 0.0, 0.0, -0.03388550132513046, -0.41658517718315125, 0.017096875235438347, 0.04432091861963272, -0.07356444746255875, 0.01450334582477808
295267, 2.45566463470459, -3.144289016723633, -12.097853660583496, 0, 0, 0, 0, 0, 0, 0, 0, 0, 0, 0, 0, 0.0, 0.0, 0.0, 0.0, 19.0, 1.0, -3.0, 0.0, 0.0, 0.0, -0.03355135768651962, -0.4169260561466217, 0.017178930342197418, 0.046735730022192, -0.074375219643116, 0.014501869678497314
295277, 2.5343692302703857, -3.099672317504883, -12.063974380493164, 0, 0, 0, 0, 0, 0, 0, 0, 0, 0, 0, 0, 0.0, 0.0, 0.0, 0.0, 19.0, 3.0, 0.0, 0.0, 0.0, 0.0, -0.033577896654605865, -0.417174756526947, 0.017230942845344543, 0.04704396054148674, -0.07494889199733734, 0.014269494451582432
295288, 2.5752100944519043, -3.0800764560699463, -12.066869735717773, 0, 0, 0, 0, 0, 0, 0, 0, 0, 0, 0, 0, 0.0, 0.0, 0.0, 0.0, 15.0, -7.0, -1.0, 0.0, 0.0, 0.0, -0.03335173428058624, -0.4165584146976471, 0.016713444143533707, 0.04748304933309555, -0.07035332173109055, 0.010933492332696915
295297, 2.535867929458618, -3.104459047317505, -12.057270050048828, 0, 0, 0, 0, 0, 0, 0, 0, 0, 0, 0, 0, 0.0, 0.0, 0.0, 0.0, 15.0, 2.0, 4.0, 0.0, 0.0, 0.0, -0.03373269364237785, -0.41668516397476196, 0.016803046688437462, 0.04456671327352524, -0.07152616232633591, 0.011074294336140156
295307, 2.5809102058410645, -3.088453531265259, -12.06650447845459, 0, 0, 0, 0, 0, 0, 0, 0, 0, 0, 0, 0, 0.0, 0.0, 0.0, 0.0, 15.0, 0.0, -3.0, 0.0, 0.0, 0.0, -0.03344005346298218, -0.4168197214603424, 0.016833016648888588, 0.04684511572122574, -0.07258918136358261, 0.011175960302352905
295317, 2.5652964115142822, -3.0807738304138184, -12.060256004333496, 0, 0, 0, 0, 0, 0, 0, 0, 0, 0, 0, 0, 0.0, 0.0, 0.0, 0.0, 15.0, 3.0, 2.0, 0.0, 0.0, 0.0, -0.03391240909695625, -0.41645142436027527, 0.016865011304616928, 0.0431223101913929, -0.07159601897001266, 0.011257979087531567
295328, 2.4854648113250732, -3.1117682456970215, -12.05496883392334, 0, 0, 0, 0, 0, 0, 0, 0, 0, 0, 0, 0, 0.0, 0.0, 0.0, 0.0, 13.0, 0.0, 1.0, 0.0, 0.0, 0.0, -0.03399904444813728, -0.41635820269584656, 0.016945410519838333, 0.04193586856126785, -0.07095029950141907, 0.011612127535045147
295338, 2.570199728012085, -3.0872254371643066, -12.064504623413086, 0, 0, 0, 0, 0, 0, 0, 0, 0, 0, 0, 0, 0.0, 0.0, 0.0, 0.0, 13.0, 1.0, 1.0, 0.0, 0.0, 0.0, -0.03414664790034294, -0.41627636551856995, 0.01578935794532299, 0.04129716381430626, -0.07008901238441467, 0.0042953528463840485
295347, 2.4832937717437744, -3.1064822673797607, -12.085029602050781, 0, 0, 0, 0, 0, 0, 0, 0, 0, 0, 0, 0, 0.0, 0.0, 0.0, 0.0, 13.0, -3.0, -4.0, 0.0, 0.0, 0.0, -0.03376099839806557, -0.4160774052143097, 0.01584639400243759, 0.04410381242632866, -0.06831289082765579, 0.004913924261927605
295357, 2.5239319801330566, -3.0883066654205322, -12.068553924560547, 0, 0, 0, 0, 0, 0, 0, 0, 0, 0, 0, 0, 0.0, 0.0, 0.0, 0.0, 13.0, 0.0, 1.0, 0.0, 0.0, 0.0, -0.03352411463856697, -0.4167676866054535, 0.0159173421561718, 0.04585016891360283, -0.0709771066904068, 0.0054585933685302734
295367, 2.626497507095337, -3.0740063190460205, -12.069353103637695, 0, 0, 0, 0, 0, 0, 0, 0, 0, 0, 0, 0, 0.0, 0.0, 0.0, 0.0, 13.0, 0.0, 0.0, 0.0, 0.0, 0.0, -0.033607952296733856, -0.4165213704109192, 0.015896013006567955, 0.04532909765839577, -0.07034947723150253, 0.005275576841086149
295378, 2.6544899940490723, -3.0436854362487793, -12.043259620666504, 0, 0, 0, 0, 0, 0, 0, 0, 0, 0, 0, 0, 0.0, 0.0, 0.0, 0.0, 15.0, 1.0, 7.0, 0.0, 0.0, 0.0, -0.034287575632333755, -0.41652655601501465, 0.015725750476121902, 0.0395243801176548, -0.07191858440637589, 0.004052664153277874
295387, 2.5966248512268066, -3.066624879837036, -12.064383506774902, 0, 0, 0, 0, 0, 0, 0, 0, 0, 0, 0, 0, 0.0, 0.0, 0.0, 0.0, 15.0, 0.0, -4.0, 0.0, 0.0, 0.0, -0.03388525918126106, -0.4166161119937897, 0.01573268324136734, 0.04286857321858406, -0.07175111025571823, 0.004256763029843569
295398, 2.5690395832061768, -3.087904214859009, -12.047898292541504, 0, 0, 0, 0, 0, 0, 0, 0, 0, 0, 0, 0, 0.0, 0.0, 0.0, 0.0, 15.0, 4.0, -4.0, 0.0, 0.0, 0.0, -0.03358177840709686, -0.41707518696784973, 0.015662463381886482, 0.04612988978624344, -0.07454737275838852, 0.004210265818983316
295407, 2.6841700077056885, -3.083961248397827, -12.043621063232422, 0, 0, 0, 0, 0, 0, 0, 0, 0, 0, 0, 0, 0.0, 0.0, 0.0, 0.0, 15.0, -5.0, 0.0, 0.0, 0.0, 0.0, -0.03349446505308151, -0.41655099391937256, 0.01584981009364128, 0.04557538032531738, -0.07053780555725098, 0.005585394334048033
295417, 2.556687593460083, -3.101701021194458, -12.064502716064453, 0, 0, 0, 0, 0, 0, 0, 0, 0, 0, 0, 0, 0.0, 0.0, 0.0, 0.0, 16.0, -3.0, 0.0, 0.0, 0.0, 0.0, -0.0333634614944458, -0.41647177934646606, 0.016014721244573593, 0.04549367353320122, -0.06904178857803345, 0.006838613655418158
295427, 2.4696319103240967, -3.124755620956421, -12.063737869262695, 0, 0, 0, 0, 0, 0, 0, 0, 0, 0, 0, 0, 0.0, 0.0, 0.0, 0.0, 16.0, -1.0, 5.0, 0.0, 0.0, 0.0, -0.03381405770778656, -0.4161714017391205, 0.01614546589553356, 0.04126642271876335, -0.06657108664512634, 0.00759629113599658
295438, 2.5314512252807617, -3.0817344188690186, -12.084527015686035, 0, 0, 0, 0, 0, 0, 0, 0, 0, 0, 0, 0, 0.0, 0.0, 0.0, 0.0, 16.0, 5.0, -2.0, 0.0, 0.0, 0.0, -0.0337388701736927, -0.41659337282180786, 0.016093682497739792, 0.042932454496622086, -0.06971938908100128, 0.007238982245326042
295449, 2.609846353530884, -3.0612165927886963, -12.049947738647461, 0, 0, 0, 0, 0, 0, 0, 0, 0, 0, 0, 0, 0.0, 0.0, 0.0, 0.0, 16.0, -1.0, -3.0, 0.0, 0.0, 0.0, -0.03346354886889458, -0.4165220260620117, 0.016166096553206444, 0.04445767402648926, -0.06925894320011139, 0.0077089304104447365
295457, 2.6196537017822266, -3.0498781204223633, -12.064031600952148, 0, 0, 0, 0, 0, 0, 0, 0, 0, 0, 0, 0, 0.0, 0.0, 0.0, 0.0, 16.0, 0.0, 1.0, 0.0, 0.0, 0.0, -0.03357703983783722, -0.41642263531684875, 0.016231968998908997, 0.04317810386419296, -0.06864190101623535, 0.008108151145279408
295467, 2.587247848510742, -3.1079509258270264, -12.065218925476074, 0, 0, 0, 0, 0, 0, 0, 0, 0, 0, 0, 0, 0.0, 0.0, 0.0, 0.0, 16.0, 3.0, -1.0, 0.0, 0.0, 0.0, -0.033491916954517365, -0.41688379645347595, 0.016170034185051918, 0.04410816356539726, -0.07128927856683731, 0.007734882179647684
295477, 2.6094348430633545, -3.087099313735962, -12.05180549621582, 0, 0, 0, 0, 0, 0, 0, 0, 0, 0, 0, 0, 0.0, 0.0, 0.0, 0.0, 16.0, -3.0, 8.0, 0.0, 0.0, 0.0, -0.03414008021354675, -0.41637420654296875, 0.01639734022319317, 0.03801078349351883, -0.06784345209598541, 0.009108142927289009
295488, 2.6817102432250977, -3.0740294456481934, -12.078445434570312, 0, 0, 0, 0, 0, 0, 0, 0, 0, 0, 0, 0, 0.0, 0.0, 0.0, 0.0, 16.0, 0.0, -5.0, 0.0, 0.0, 0.0, -0.03374497964978218, -0.41646233201026917, 0.016405215486884117, 0.04190652072429657, -0.06856396794319153, 0.009306441061198711
295499, 2.7218945026397705, -3.0458362102508545, -12.064866065979004, 0, 0, 0, 0, 0, 0, 0, 0, 0, 0, 0, 0, 0.0, 0.0, 0.0, 0.0, 16.0, 3.0, 0.0, 0.0, 0.0, 0.0, -0.03377143666148186, -0.4167327582836151, 0.016418401151895523, 0.041742097586393356, -0.07080642133951187, 0.009209854528307915
295507, 2.5590667724609375, -3.1105778217315674, -12.100814819335938, 0, 0, 0, 0, 0, 0, 0, 0, 0, 0, 0, 0, 0.0, 0.0, 0.0, 0.0, 16.0, -3.0, 0.0, 0.0, 0.0, 0.0, -0.03373399004340172, -0.4164671003818512, 0.016388269141316414, 0.04148176312446594, -0.06811080873012543, 0.008682699874043465
295517, 2.5248587131500244, -3.1250483989715576, -12.077062606811523, 0, 0, 0, 0, 0, 0, 0, 0, 0, 0, 0, 0, 0.0, 0.0, 0.0, 0.0, 16.0, 3.0, 0.0, 0.0, 0.0, 0.0, -0.03369782492518425, -0.41690319776535034, 0.01642761379480362, 0.04233386367559433, -0.07012404501438141, 0.00882210023701191
295528, 2.64656925201416, -3.1036148071289062, -12.068490982055664, 0, 0, 0, 0, 0, 0, 0, 0, 0, 0, 0, 0, 0.0, 0.0, 0.0, 0.0, 16.0, -3.0, -3.0, 0.0, 0.0, 0.0, -0.03331800922751427, -0.4166749119758606, 0.016526300460100174, 0.04507966339588165, -0.06712504476308823, 0.009617484174668789
295538, 2.679870128631592, -3.1025123596191406, -12.058189392089844, 0, 0, 0, 0, 0, 0, 0, 0, 0, 0, 0, 0, 0.0, 0.0, 0.0, 0.0, 16.0, 5.0, 0.0, 0.0, 0.0, 0.0, -0.03344601392745972, -0.4171978831291199, 0.016513876616954803, 0.04468221589922905, -0.07352874428033829, 0.00984678789973259
295547, 2.6448097229003906, -3.090873956680298, -12.05982780456543, 0, 0, 0, 0, 0, 0, 0, 0, 0, 0, 0, 0, 0.0, 0.0, 0.0, 0.0, 16.0, -2.0, 0.0, 0.0, 0.0, 0.0, -0.0334155447781086, -0.41689348220825195, 0.016622891649603844, 0.04428593069314957, -0.07048796862363815, 0.010413174517452717
295557, 2.5715272426605225, -3.1037135124206543, -12.063882827758789, 0, 0, 0, 0, 0, 0, 0, 0, 0, 0, 0, 0, 0.0, 0.0, 0.0, 0.0, 15.0, 3.0, 0.0, 0.0, 0.0, 0.0, -0.03349187970161438, -0.4170215129852295, 0.01612338423728943, 0.0441906712949276, -0.07119698077440262, 0.007010888773947954
295567, 2.600386619567871, -3.0899455547332764, -12.068903923034668, 0, 0, 0, 0, 0, 0, 0, 0, 0, 0, 0, 0, 0.0, 0.0, 0.0, 0.0, 15.0, -7.0, 0.0, 0.0, 0.0, 0.0, -0.033284902572631836, -0.41654205322265625, 0.0163338091224432, 0.044372640550136566, -0.06567563861608505, 0.008327126502990723
295578, 2.588872194290161, -3.088289499282837, -12.072796821594238, 0, 0, 0, 0, 0, 0, 0, 0, 0, 0, 0, 0, 0.0, 0.0, 0.0, 0.0, 15.0, 0.0, 3.0, 0.0, 0.0, 0.0, -0.033585358411073685, -0.4165288209915161, 0.016419583931565285, 0.041586488485336304, -0.06647744029760361, 0.008676217868924141
295589, 2.5871787071228027, -3.0861988067626953, -12.060172080993652, 0, 0, 0, 0, 0, 0, 0, 0, 0, 0, 0, 0, 0.0, 0.0, 0.0, 0.0, 15.0, 0.0, 0.0, 0.0, 0.0, 0.0, -0.03347717225551605, -0.4167988896369934, 0.016389209777116776, 0.043321702629327774, -0.06840580701828003, 0.00831800140440464
295597, 2.657597780227661, -3.0762035846710205, -12.074612617492676, 0, 0, 0, 0, 0, 0, 0, 0, 0, 0, 0, 0, 0.0, 0.0, 0.0, 0.0, 15.0, 2.0, -4.0, 0.0, 0.0, 0.0, -0.03318062052130699, -0.41692933440208435, 0.01589041016995907, 0.04620056226849556, -0.06960564106702805, 0.004949124529957771
295607, 2.593358039855957, -3.087200880050659, -12.071318626403809, 0, 0, 0, 0, 0, 0, 0, 0, 0, 0, 0, 0, 0.0, 0.0, 0.0, 0.0, 15.0, -5.0, -3.0, 0.0, 0.0, 0.0, -0.03283344954252243, -0.4164315462112427, 0.016009220853447914, 0.04819174483418465, -0.06559782475233078, 0.0059667229652404785
295617, 2.5162384510040283, -3.1029205322265625, -12.081657409667969, 0, 0, 0, 0, 0, 0, 0, 0, 0, 0, 0, 0, 0.0, 0.0, 0.0, 0.0, 15.0, 3.0, 3.0, 0.0, 0.0, 0.0, -0.03310631588101387, -0.4167932868003845, 0.016076091676950455, 0.04584932699799538, -0.06791941076517105, 0.0064999135211110115
295628, 2.640383720397949, -3.049095630645752, -12.068918228149414, 0, 0, 0, 0, 0, 0, 0, 0, 0, 0, 0, 0, 0.0, 0.0, 0.0, 0.0, 15.0, 1.0, 0.0, 0.0, 0.0, 0.0, -0.0331452377140522, -0.41680359840393066, 0.01612151227891445, 0.04568642005324364, -0.06785944104194641, 0.006864187307655811
295637, 2.6609621047973633, -3.0879905223846436, -12.081101417541504, 0, 0, 0, 0, 0, 0, 0, 0, 0, 0, 0, 0, 0.0, 0.0, 0.0, 0.0, 15.0, 3.0, 2.0, 0.0, 0.0, 0.0, -0.03343132883310318, -0.4171293079853058, 0.016144659370183945, 0.04371403157711029, -0.07233420759439468, 0.007124647498130798
295647, 2.6120569705963135, -3.0430636405944824, -12.077528953552246, 0, 0, 0, 0, 0, 0, 0, 0, 0, 0, 0, 0, 0.0, 0.0, 0.0, 0.0, 14.0, -6.0, 1.0, 0.0, 0.0, 0.0, -0.033401843160390854, -0.4164849519729614, 0.015585710294544697, 0.04289066419005394, -0.06726010888814926, 0.0036703520454466343
295657, 2.5648961067199707, -3.1085774898529053, -12.112832069396973, 0, 0, 0, 0, 0, 0, 0, 0, 0, 0, 0, 0, 0.0, 0.0, 0.0, 0.0, 14.0, 1.0, 1.0, 0.0, 0.0, 0.0, -0.03354082629084587, -0.4165289103984833, 0.015623417682945728, 0.042117372155189514, -0.06851090490818024, 0.004225736949592829
295667, 2.5210390090942383, -3.1206538677215576, -12.086206436157227, 0, 0, 0, 0, 0, 0, 0, 0, 0, 0, 0, 0, 0.0, 0.0, 0.0, 0.0, 14.0, 3.0, 0.0, 0.0, 0.0, 0.0, -0.03357134759426117, -0.4167085886001587, 0.01563415490090847, 0.04270842298865318, -0.06897684186697006, 0.004504299256950617
295678, 2.510394811630249, -3.102490186691284, -12.091358184814453, 0, 0, 0, 0, 0, 0, 0, 0, 0, 0, 0, 0, 0.0, 0.0, 0.0, 0.0, 14.0, 0.0, -3.0, 0.0, 0.0, 0.0, -0.03352603316307068, -0.4162085950374603, 0.015662899240851402, 0.04262692853808403, -0.06625902652740479, 0.004640559665858746
295688, 2.60335373878479, -3.075975179672241, -12.070934295654297, 0, 0, 0, 0, 0, 0, 0, 0, 0, 0, 0, 0, 0.0, 0.0, 0.0, 0.0, 14.0, 1.0, 2.0, 0.0, 0.0, 0.0, -0.03372938185930252, -0.41617879271507263, 0.015734415501356125, 0.041203830391168594, -0.06644825637340546, 0.005053392145782709
295697, 2.586862087249756, -3.07605242729187, -12.071126937866211, 0, 0, 0, 0, 0, 0, 0, 0, 0, 0, 0, 0, 0.0, 0.0, 0.0, 0.0, 14.0, -2.0, -3.0, 0.0, 0.0, 0.0, -0.03348474204540253, -0.41599512100219727, 0.015226743184030056, 0.043237775564193726, -0.06557149440050125, 0.0019916645251214504
295707, 2.547534942626953, -3.0657265186309814, -12.072463989257812, 0, 0, 0, 0, 0, 0, 0, 0, 0, 0, 0, 0, 0.0, 0.0, 0.0, 0.0, 14.0, 1.0, 4.0, 0.0, 0.0, 0.0, -0.03378076106309891, -0.4161785840988159, 0.015297869220376015, 0.04053446277976036, -0.06672967970371246, 0.00272984616458416
295717, 2.6635043621063232, -3.064274787902832, -12.070231437683105, 0, 0, 0, 0, 0, 0, 0, 0, 0, 0, 0, 0, 0.0, 0.0, 0.0, 0.0, 14.0, -1.0, -1.0, 0.0, 0.0, 0.0, -0.03370596468448639, -0.41607773303985596, 0.015359210781753063, 0.04100370034575462, -0.06599438935518265, 0.0033642586786299944
295728, 2.515575408935547, -3.104438543319702, -12.074519157409668, 0, 0, 0, 0, 0, 0, 0, 0, 0, 0, 0, 0, 0.0, 0.0, 0.0, 0.0, 14.0, 2.0, 0.0, 0.0, 0.0, 0.0, -0.03374345973134041, -0.41620394587516785, 0.015394467860460281, 0.04131404682993889, -0.06787057965993881, 0.003912198822945356
295738, 2.6212120056152344, -3.0943799018859863, -12.053315162658691, 0, 0, 0, 0, 0, 0, 0, 0, 0, 0, 0, 0, 0.0, 0.0, 0.0, 0.0, 15.0, -3.0, -2.0, 0.0, 0.0, 0.0, -0.03351263701915741, -0.4159160852432251, 0.015360119752585888, 0.04310397803783417, -0.0653289332985878, 0.003809804329648614
295747, 2.6230785846710205, -3.0692105293273926, -12.072077751159668, 0, 0, 0, 0, 0, 0, 0, 0, 0, 0, 0, 0, 0.0, 0.0, 0.0, 0.0, 15.0, -3.0, 0.0, 0.0, 0.0, 0.0, -0.033494140952825546, -0.4156322181224823, 0.01544018555432558, 0.04282556101679802, -0.0633687749505043, 0.004336550831794739
295757, 2.6089282035827637, -3.069247245788574, -12.05637264251709, 0, 0, 0, 0, 0, 0, 0, 0, 0, 0, 0, 0, 0.0, 0.0, 0.0, 0.0, 15.0, 5.0, 0.0, 0.0, 0.0, 0.0, -0.033598892390728, -0.416029691696167, 0.015406450256705284, 0.04274456948041916, -0.06730634719133377, 0.004235162865370512
295767, 2.6534852981567383, -3.073059558868408, -12.0499849319458, 0, 0, 0, 0, 0, 0, 0, 0, 0, 0, 0, 0, 0.0, 0.0, 0.0, 0.0, 15.0, 1.0, 0.0, 0.0, 0.0, 0.0, -0.03354288265109062, -0.4163111448287964, 0.01545883622020483, 0.042867306619882584, -0.06851125508546829, 0.004744123201817274
295778, 2.611372232437134, -3.0905685424804688, -12.056863784790039, 0, 0, 0, 0, 0, 0, 0, 0, 0, 0, 0, 0, 0.0, 0.0, 0.0, 0.0, 13.0, 0.0, 1.0, 0.0, 0.0, 0.0, -0.03364624083042145, -0.41628748178482056, 0.015552351251244545, 0.04244814068078995, -0.0686621218919754, 0.005307898391038179
295787, 2.6171932220458984, -3.055586814880371, -12.057255744934082, 0, 0, 0, 0, 0, 0, 0, 0, 0, 0, 0, 0, 0.0, 0.0, 0.0, 0.0, 13.0, -4.0, 28.0, 0.0, 0.0, 0.0, -0.035997018218040466, -0.4153640568256378, 0.015155911445617676, 0.022514665499329567, -0.06631158292293549, 0.002455751411616802
295797, 2.573030710220337, -3.0768439769744873, -12.061477661132812, 0, 0, 0, 0, 0, 0, 0, 0, 0, 0, 0, 0, 0.0, 0.0, 0.0, 0.0, 13.0, 3.0, 4.0, 0.0, 0.0, 0.0, -0.036363836377859116, -0.4154846668243408, 0.01518313679844141, 0.02086341567337513, -0.06722067296504974, 0.0026802136562764645
295807, 2.599349021911621, -3.0728232860565186, -12.046599388122559, 0, 0, 0, 0, 0, 0, 0, 0, 0, 0, 0, 0, 0.0, 0.0, 0.0, 0.0, 13.0, -4.0, -2.0, 0.0, 0.0, 0.0, -0.036084480583667755, -0.4153744578361511, 0.01529131643474102, 0.02356472797691822, -0.06543579697608948, 0.003750997595489025
295818, 2.5822532176971436, -3.080704689025879, -12.037540435791016, 0, 0, 0, 0, 0, 0, 0, 0, 0, 0, 0, 0, 0.0, 0.0, 0.0, 0.0, 13.0, 15.0, 0.0, 0.0, 0.0, 0.0, -0.036349520087242126, -0.41664278507232666, 0.015086375176906586, 0.024536769837141037, -0.07626545429229736, 0.0030809163581579924
295828, 2.6017727851867676, -3.0586256980895996, -12.067639350891113, 0, 0, 0, 0, 0, 0, 0, 0, 0, 0, 0, 0, 0.0, 0.0, 0.0, 0.0, 16.0, -9.0, -11.0, 0.0, 0.0, 0.0, -0.03523009642958641, -0.4160706102848053, 0.015506478026509285, 0.03308458253741264, -0.06969143450260162, 0.005919971503317356
295837, 2.5991370677948, -3.084876775741577, -12.050074577331543, 0, 0, 0, 0, 0, 0, 0, 0, 0, 0, 0, 0, 0.0, 0.0, 0.0, 0.0, 16.0, -6.0, 11.0, 0.0, 0.0, 0.0, -0.036011308431625366, -0.4153461158275604, 0.01578792743384838, 0.026237260550260544, -0.06509223580360413, 0.007481925655156374
295847, 2.5501203536987305, -3.088627338409424, -12.055777549743652, 0, 0, 0, 0, 0, 0, 0, 0, 0, 0, 0, 0, 0.0, 0.0, 0.0, 0.0, 16.0, 2.0, 0.0, 0.0, 0.0, 0.0, -0.03583787381649017, -0.4161794185638428, 0.01584884151816368, 0.029656052589416504, -0.06937453895807266, 0.007697184104472399
295857, 2.5258078575134277, -3.090576648712158, -12.043992042541504, 0, 0, 0, 0, 0, 0, 0, 0, 0, 0, 0, 0, 0.0, 0.0, 0.0, 0.0, 16.0, -7.0, -2.0, 0.0, 0.0, 0.0, -0.03563157841563225, -0.41510409116744995, 0.016008285805583, 0.029578320682048798, -0.06180509924888611, 0.008630499243736267
295867, 2.5411624908447266, -3.0779261589050293, -12.047638893127441, 0, 0, 0, 0, 0, 0, 0, 0, 0, 0, 0, 0, 0.0, 0.0, 0.0, 0.0, 15.0, 1.0, 1.0, 0.0, 0.0, 0.0, -0.03566692769527435, -0.41521334648132324, 0.016099177300930023, 0.029832273721694946, -0.06301945447921753, 0.008954713121056557
295878, 2.5249125957489014, -3.0853075981140137, -12.045080184936523, 0, 0, 0, 0, 0, 0, 0, 0, 0, 0, 0, 0, 0.0, 0.0, 0.0, 0.0, 15.0, 24.0, -7.0, 0.0, 0.0, 0.0, -0.03551424294710159, -0.4173599183559418, 0.015438156202435493, 0.03560104966163635, -0.08078782260417938, 0.005099060479551554
295888, 2.55385422706604, -3.075754404067993, -12.047577857971191, 0, 0, 0, 0, 0, 0, 0, 0, 0, 0, 0, 0, 0.0, 0.0, 0.0, 0.0, 15.0, 0.0, 0.0, 0.0, 0.0, 0.0, -0.03540695458650589, -0.4176935851573944, 0.015422186814248562, 0.03707718476653099, -0.08270741999149323, 0.005096664652228355
295897, 2.5801589488983154, -3.081651210784912, -12.056844711303711, 0, 0, 0, 0, 0, 0, 0, 0, 0, 0, 0, 0, 0.0, 0.0, 0.0, 0.0, 15.0, 0.0, 3.0, 0.0, 0.0, 0.0, -0.03564955294132233, -0.4175984859466553, 0.015545018948614597, 0.035075511783361435, -0.08157797902822495, 0.005818036384880543
295907, 2.4859108924865723, -3.1230742931365967, -12.0560884475708, 0, 0, 0, 0, 0, 0, 0, 0, 0, 0, 0, 0, 0.0, 0.0, 0.0, 0.0, 15.0, 2.0, -2.0, 0.0, 0.0, 0.0, -0.03543434664607048, -0.4180217385292053, 0.015589859336614609, 0.036949265748262405, -0.08279048651456833, 0.006304304115474224
295918, 2.5145392417907715, -3.1059978008270264, -12.04466724395752, 0, 0, 0, 0, 0, 0, 0, 0, 0, 0, 0, 0, 0.0, 0.0, 0.0, 0.0, 15.0, 0.0, 2.0, 0.0, 0.0, 0.0, -0.0355130173265934, -0.4179675579071045, 0.015522203408181667, 0.03641854599118233, -0.08117751777172089, 0.005835635121911764
295928, 2.5752835273742676, -3.1022984981536865, -12.033616065979004, 0, 0, 0, 0, 0, 0, 0, 0, 0, 0, 0, 0, 0.0, 0.0, 0.0, 0.0, 15.0, -1.0, -3.0, 0.0, 0.0, 0.0, -0.035202234983444214, -0.4178975522518158, 0.01559253316372633, 0.03891001641750336, -0.07991921901702881, 0.006327440030872822
295937, 2.39333438873291, -3.150308847427368, -12.05644416809082, 0, 0, 0, 0, 0, 0, 0, 0, 0, 0, 0, 0, 0.0, 0.0, 0.0, 0.0, 15.0, 0.0, 4.0, 0.0, 0.0, 0.0, -0.035491786897182465, -0.41783222556114197, 0.01575065217912197, 0.03660808131098747, -0.07830092310905457, 0.007252462208271027
295947, 2.58294939994812, -3.106077194213867, -12.043329238891602, 0, 0, 0, 0, 0, 0, 0, 0, 0, 0, 0, 0, 0.0, 0.0, 0.0, 0.0, 15.0, 0.0, -3.0, 0.0, 0.0, 0.0, -0.03517467901110649, -0.4178255498409271, 0.015806665644049644, 0.03958742320537567, -0.07720775157213211, 0.007586119696497917
295957, 2.6355602741241455, -3.0552477836608887, -12.062175750732422, 0, 0, 0, 0, 0, 0, 0, 0, 0, 0, 0, 0, 0.0, 0.0, 0.0, 0.0, 15.0, 1.0, -1.0, 0.0, 0.0, 0.0, -0.03503894805908203, -0.4181516170501709, 0.015900462865829468, 0.04056176543235779, -0.07879864424467087, 0.008063159883022308
295968, 2.566457509994507, -3.1032536029815674, -12.056763648986816, 0, 0, 0, 0, 0, 0, 0, 0, 0, 0, 0, 0, 0.0, 0.0, 0.0, 0.0, 15.0, 0.0, 0.0, 0.0, 0.0, 0.0, -0.03494134172797203, -0.4184548854827881, 0.015594803728163242, 0.04157532379031181, -0.08141531050205231, 0.005881225690245628
295978, 2.5912163257598877, -3.0709283351898193, -12.061049461364746, 0, 0, 0, 0, 0, 0, 0, 0, 0, 0, 0, 0, 0.0, 0.0, 0.0, 0.0, 15.0, -1.0, 4.0, 0.0, 0.0, 0.0, -0.03523968160152435, -0.41816285252571106, 0.015765126794576645, 0.038562409579753876, -0.07877527177333832, 0.0067361630499362946
295988, 2.5724194049835205, -3.0902771949768066, -12.081595420837402, 0, 0, 0, 0, 0, 0, 0, 0, 0, 0, 0, 0, 0.0, 0.0, 0.0, 0.0, 15.0, 0.0, 0.0, 0.0, 0.0, 0.0, -0.035117972642183304, -0.4184627830982208, 0.01573803648352623, 0.04010586068034172, -0.08058411628007889, 0.00656087975949049
295997, 2.628383159637451, -3.091074228286743, -12.05792236328125, 0, 0, 0, 0, 0, 0, 0, 0, 0, 0, 0, 0, 0.0, 0.0, 0.0, 0.0, 15.0, 0.0, 0.0, 0.0, 0.0, 0.0, -0.0346238911151886, -0.4184087812900543, 0.01577186770737171, 0.043864212930202484, -0.07930206507444382, 0.006893269717693329
296007, 2.6684510707855225, -3.096719264984131, -12.054176330566406, 0, 0, 0, 0, 0, 0, 0, 0, 0, 0, 0, 0, 0.0, 0.0, 0.0, 0.0, 18.0, 0.0, 0.0, 0.0, 0.0, 0.0, -0.03375810757279396, -0.4189145565032959, 0.016419829800724983, 0.05155883729457855, -0.08201411366462708, 0.011402910575270653
296017, 2.5714454650878906, -3.125065565109253, -12.04942512512207, 0, 0, 0, 0, 0, 0, 0, 0, 0, 0, 0, 0, 0.0, 0.0, 0.0, 0.0, 18.0, -3.0, 13.0, 0.0, 0.0, 0.0, -0.034845560789108276, -0.41851767897605896, 0.016800640150904655, 0.040910203009843826, -0.0788271576166153, 0.013326642103493214
296028, 2.6197853088378906, -3.1178200244903564, -12.054786682128906, 0, 0, 0, 0, 0, 0, 0, 0, 0, 0, 0, 0, 0.0, 0.0, 0.0, 0.0, 18.0, 0.0, -2.0, 0.0, 0.0, 0.0, -0.03458249196410179, -0.41834142804145813, 0.01688968390226364, 0.04332144185900688, -0.07566240429878235, 0.01333615742623806
296039, 2.654662847518921, -3.0811374187469482, -12.056916236877441, 0, 0, 0, 0, 0, 0, 0, 0, 0, 0, 0, 0, 0.0, 0.0, 0.0, 0.0, 18.0, 1.0, 3.0, 0.0, 0.0, 0.0, -0.03490033000707626, -0.4182894825935364, 0.0170045904815197, 0.04029390588402748, -0.07668185979127884, 0.013507881201803684
296049, 2.6526286602020264, -3.072016477584839, -12.061298370361328, 0, 0, 0, 0, 0, 0, 0, 0, 0, 0, 0, 0, 0.0, 0.0, 0.0, 0.0, 14.0, 0.0, -8.0, 0.0, 0.0, 0.0, -0.03419071063399315, -0.4182871878147125, 0.016057850793004036, 0.0463666096329689, -0.07620025426149368, 0.006975910160690546
296057, 2.696272850036621, -3.085996389389038, -12.039328575134277, 0, 0, 0, 0, 0, 0, 0, 0, 0, 0, 0, 0, 0.0, 0.0, 0.0, 0.0, 14.0, -11.0, 9.0, 0.0, 0.0, 0.0, -0.03474484384059906, -0.4170410931110382, 0.01642213575541973, 0.03873443603515625, -0.06655939668416977, 0.009009902365505695
296067, 2.6128275394439697, -3.1375532150268555, -12.044567108154297, 0, 0, 0, 0, 0, 0, 0, 0, 0, 0, 0, 0, 0.0, 0.0, 0.0, 0.0, 14.0, -2.0, 0.0, 0.0, 0.0, 0.0, -0.03460637107491493, -0.41709432005882263, 0.01656215637922287, 0.039054080843925476, -0.06659281998872757, 0.009840482845902443
296078, 2.618492841720581, -3.1233415603637695, -12.047557830810547, 0, 0, 0, 0, 0, 0, 0, 0, 0, 0, 0, 0, 0.0, 0.0, 0.0, 0.0, 14.0, 7.0, 0.0, 0.0, 0.0, 0.0, -0.03469965606927872, -0.4175820052623749, 0.016510987654328346, 0.03962912783026695, -0.07107008248567581, 0.009368479251861572
296089, 2.691040515899658, -3.0890796184539795, -12.043172836303711, 0, 0, 0, 0, 0, 0, 0, 0, 0, 0, 0, 0, 0.0, 0.0, 0.0, 0.0, 14.0, 7.0, 0.0, 0.0, 0.0, 0.0, -0.03443286940455437, -0.417510449886322, 0.016512850299477577, 0.041792649775743484, -0.07030890136957169, 0.009236743673682213
296097, 2.5444114208221436, -3.1379177570343018, -12.043559074401855, 0, 0, 0, 0, 0, 0, 0, 0, 0, 0, 0, 0, 0.0, 0.0, 0.0, 0.0, 15.0, -5.0, -4.0, 0.0, 0.0, 0.0, -0.033957339823246, -0.4169813394546509, 0.01612703688442707, 0.045071013271808624, -0.06590742617845535, 0.0066516525112092495
296107, 2.517657995223999, -3.123135566711426, -12.052586555480957, 0, 0, 0, 0, 0, 0, 0, 0, 0, 0, 0, 0, 0.0, 0.0, 0.0, 0.0, 15.0, 3.0, 7.0, 0.0, 0.0, 0.0, -0.0346066989004612, -0.41695529222488403, 0.016239836812019348, 0.03976069763302803, -0.06611144542694092, 0.007053035777062178
296117, 2.537200689315796, -3.1111292839050293, -12.053174018859863, 0, 0, 0, 0, 0, 0, 0, 0, 0, 0, 0, 0, 0.0, 0.0, 0.0, 0.0, 15.0, 0.0, 0.0, 0.0, 0.0, 0.0, -0.03443825989961624, -0.4174719452857971, 0.016225658357143402, 0.04125649854540825, -0.06935030966997147, 0.0070863873697817326
296128, 2.606283664703369, -3.1072304248809814, -12.041451454162598, 0, 0, 0, 0, 0, 0, 0, 0, 0, 0, 0, 0, 0.0, 0.0, 0.0, 0.0, 15.0, 2.0, 0.0, 0.0, 0.0, 0.0, -0.03442160040140152, -0.4177408814430237, 0.01623387075960636, 0.04132465645670891, -0.07197807729244232, 0.0072805630043148994
296139, 2.5831871032714844, -3.108471155166626, -12.072569847106934, 0, 0, 0, 0, 0, 0, 0, 0, 0, 0, 0, 0, 0.0, 0.0, 0.0, 0.0, 18.0, 0.0, -4.0, 0.0, 0.0, 0.0, -0.033988017588853836, -0.4178052246570587, 0.016236048191785812, 0.04503030702471733, -0.07168087363243103, 0.007441625464707613
296147, 2.4889512062072754, -3.1403908729553223, -12.07024097442627, 0, 0, 0, 0, 0, 0, 0, 0, 0, 0, 0, 0, 0.0, 0.0, 0.0, 0.0, 18.0, -1.0, 6.0, 0.0, 0.0, 0.0, -0.03449102118611336, -0.41752952337265015, 0.016990793868899345, 0.0396350733935833, -0.06931749731302261, 0.011911021545529366
296157, 2.602895736694336, -3.1516776084899902, -12.059054374694824, 0, 0, 0, 0, 0, 0, 0, 0, 0, 0, 0, 0, 0.0, 0.0, 0.0, 0.0, 18.0, 0.0, -5.0, 0.0, 0.0, 0.0, -0.03398166224360466, -0.4175626337528229, 0.01700662262737751, 0.04399074241518974, -0.07002346217632294, 0.011911514215171337
296167, 2.5765960216522217, -3.1123850345611572, -12.0556640625, 0, 0, 0, 0, 0, 0, 0, 0, 0, 0, 0, 0, 0.0, 0.0, 0.0, 0.0, 18.0, 1.0, 0.0, 0.0, 0.0, 0.0, -0.03418818116188049, -0.41701626777648926, 0.01704869605600834, 0.04212154820561409, -0.06657906621694565, 0.012066738680005074
296177, 2.5464441776275635, -3.1717722415924072, -12.08336353302002, 0, 0, 0, 0, 0, 0, 0, 0, 0, 0, 0, 0, 0.0, 0.0, 0.0, 0.0, 18.0, 0.0, 0.0, 0.0, 0.0, 0.0, -0.03407033905386925, -0.4172196090221405, 0.016993850469589233, 0.04332025721669197, -0.06861674040555954, 0.01118449866771698
296189, 2.4822733402252197, -3.157604455947876, -12.064741134643555, 0, 0, 0, 0, 0, 0, 0, 0, 0, 0, 0, 0, 0.0, 0.0, 0.0, 0.0, 18.0, 4.0, -2.0, 0.0, 0.0, 0.0, -0.03397151455283165, -0.4175170660018921, 0.017283963039517403, 0.04486666992306709, -0.07101868093013763, 0.012710707262158394
296197, 2.531511068344116, -3.1099889278411865, -12.075263977050781, 0, 0, 0, 0, 0, 0, 0, 0, 0, 0, 0, 0, 0.0, 0.0, 0.0, 0.0, 18.0, -5.0, 1.0, 0.0, 0.0, 0.0, -0.03365001454949379, -0.41761574149131775, 0.017521878704428673, 0.04580441862344742, -0.06840301305055618, 0.013503155671060085
296207, 2.5692641735076904, -3.113363742828369, -12.07561206817627, 0, 0, 0, 0, 0, 0, 0, 0, 0, 0, 0, 0, 0.0, 0.0, 0.0, 0.0, 18.0, 1.0, 4.0, 0.0, 0.0, 0.0, -0.034109923988580704, -0.4175262749195099, 0.01760878786444664, 0.04168497025966644, -0.06934583932161331, 0.013447889126837254
296217, 2.634876251220703, -3.1024880409240723, -12.071768760681152, 0, 0, 0, 0, 0, 0, 0, 0, 0, 0, 0, 0, 0.0, 0.0, 0.0, 0.0, 18.0, 0.0, 0.0, 0.0, 0.0, 0.0, -0.0341646671295166, -0.41724562644958496, 0.017543429508805275, 0.04145117476582527, -0.0684700459241867, 0.012969134375452995
296227, 2.6342933177948, -3.110656499862671, -12.05555248260498, 0, 0, 0, 0, 0, 0, 0, 0, 0, 0, 0, 0, 0.0, 0.0, 0.0, 0.0, 17.0, 1.0, -3.0, 0.0, 0.0, 0.0, -0.03393623232841492, -0.4172857105731964, 0.01752961240708828, 0.043381012976169586, -0.06979255378246307, 0.012476968578994274
296237, 2.639622211456299, -3.11759090423584, -12.089646339416504, 0, 0, 0, 0, 0, 0, 0, 0, 0, 0, 0, 0, 0.0, 0.0, 0.0, 0.0, 17.0, -6.0, -3.0, 0.0, 0.0, 0.0, -0.033201687037944794, -0.41730931401252747, 0.01749795861542225, 0.04786182940006256, -0.06626394391059875, 0.011764011345803738
296247, 2.59710955619812, -3.1273012161254883, -12.086206436157227, 0, 0, 0, 0, 0, 0, 0, 0, 0, 0, 0, 0, 0.0, 0.0, 0.0, 0.0, 17.0, -6.0, -3.0, 0.0, 0.0, 0.0, -0.033941302448511124, -0.4175484776496887, 0.01753639243543148, 0.04323074594140053, -0.06921514123678207, 0.011578171513974667
296257, 2.58693265914917, -3.122847318649292, -12.081363677978516, 0, 0, 0, 0, 0, 0, 0, 0, 0, 0, 0, 0, 0.0, 0.0, 0.0, 0.0, 17.0, 0.0, 4.0, 0.0, 0.0, 0.0, -0.034383777529001236, -0.4173545241355896, 0.0176088809967041, 0.03949054330587387, -0.06938877701759338, 0.011878167279064655
296268, 2.5263290405273438, -3.140052556991577, -12.066102981567383, 0, 0, 0, 0, 0, 0, 0, 0, 0, 0, 0, 0, 0.0, 0.0, 0.0, 0.0, 17.0, 0.0, -3.0, 0.0, 0.0, 0.0, -0.034258827567100525, -0.41678741574287415, 0.01759921945631504, 0.03994414955377579, -0.06590935587882996, 0.011750901117920876
296278, 2.6452527046203613, -3.114449977874756, -12.069954872131348, 0, 0, 0, 0, 0, 0, 0, 0, 0, 0, 0, 0, 0.0, 0.0, 0.0, 0.0, 15.0, -8.0, -21.0, 0.0, 0.0, 0.0, -0.032155152410268784, -0.4162462651729584, 0.01670476235449314, 0.056027185171842575, -0.05853000655770302, 0.006042470224201679
296287, 2.503061294555664, -3.101088523864746, -12.083133697509766, 0, 0, 0, 0, 0, 0, 0, 0, 0, 0, 0, 0, 0.0, 0.0, 0.0, 0.0, 15.0, 14.0, 20.0, 0.0, 0.0, 0.0, -0.03434276580810547, -0.417041152715683, 0.01683947443962097, 0.039114534854888916, -0.06974798440933228, 0.006486870348453522
296297, 2.5583574771881104, -3.0948829650878906, -12.07309341430664, 0, 0, 0, 0, 0, 0, 0, 0, 0, 0, 0, 0, 0.0, 0.0, 0.0, 0.0, 15.0, 0.0, -3.0, 0.0, 0.0, 0.0, -0.03382540121674538, -0.4177500307559967, 0.01682029850780964, 0.043701980262994766, -0.07237912714481354, 0.006457853130996227
296307, 2.541761875152588, -3.0978946685791016, -12.076192855834961, 0, 0, 0, 0, 0, 0, 0, 0, 0, 0, 0, 0, 0.0, 0.0, 0.0, 0.0, 15.0, 1.0, 3.0, 0.0, 0.0, 0.0, -0.03432849794626236, -0.4171700179576874, 0.01688595861196518, 0.03924575820565224, -0.07028070837259293, 0.0067419977858662605
296317, 2.637770175933838, -3.0796563625335693, -12.075105667114258, 0, 0, 0, 0, 0, 0, 0, 0, 0, 0, 0, 0, 0.0, 0.0, 0.0, 0.0, 15.0, 0.0, 0.0, 0.0, 0.0, 0.0, -0.03421224653720856, -0.41742008924484253, 0.01681327074766159, 0.04076582193374634, -0.0722007006406784, 0.006365743465721607
296328, 2.4985032081604004, -3.1199944019317627, -12.066422462463379, 0, 0, 0, 0, 0, 0, 0, 0, 0, 0, 0, 0, 0.0, 0.0, 0.0, 0.0, 15.0, -6.0, -7.0, 0.0, 0.0, 0.0, -0.03348420560359955, -0.41685518622398376, 0.016284676268696785, 0.04576767608523369, -0.06766584515571594, 0.0032426377292722464
296338, 2.5591845512390137, -3.0870752334594727, -12.084959983825684, 0, 0, 0, 0, 0, 0, 0, 0, 0, 0, 0, 0, 0.0, 0.0, 0.0, 0.0, 15.0, 7.0, 3.0, 0.0, 0.0, 0.0, -0.03390519693493843, -0.4172908365726471, 0.01621941663324833, 0.043654266744852066, -0.07159720361232758, 0.002945289481431246
296347, 2.5315122604370117, -3.1213903427124023, -12.069533348083496, 0, 0, 0, 0, 0, 0, 0, 0, 0, 0, 0, 0, 0.0, 0.0, 0.0, 0.0, 15.0, -1.0, 4.0, 0.0, 0.0, 0.0, -0.034278783947229385, -0.41701456904411316, 0.016311418265104294, 0.03987274691462517, -0.07035744190216064, 0.0033742692321538925
296357, 2.581803560256958, -3.098320722579956, -12.067179679870605, 0, 0, 0, 0, 0, 0, 0, 0, 0, 0, 0, 0, 0.0, 0.0, 0.0, 0.0, 15.0, 0.0, 0.0, 0.0, 0.0, 0.0, -0.03407236188650131, -0.41751158237457275, 0.01628098636865616, 0.042079973965883255, -0.07281084358692169, 0.003177023958414793
296368, 2.6032326221466064, -3.081542730331421, -12.060620307922363, 0, 0, 0, 0, 0, 0, 0, 0, 0, 0, 0, 0, 0.0, 0.0, 0.0, 0.0, 17.0, -12.0, -5.0, 0.0, 0.0, 0.0, -0.0333617739379406, -0.41639041900634766, 0.016665881499648094, 0.04557909071445465, -0.06345846503973007, 0.005662903189659119
296377, 2.576667070388794, -3.1037421226501465, -12.05152702331543, 0, 0, 0, 0, 0, 0, 0, 0, 0, 0, 0, 0, 0.0, 0.0, 0.0, 0.0, 17.0, 11.0, 5.0, 0.0, 0.0, 0.0, -0.03410809114575386, -0.41723528504371643, 0.016578029841184616, 0.04117627441883087, -0.07295539975166321, 0.005328606814146042
296387, 2.5396461486816406, -3.135443925857544, -12.054404258728027, 0, 0, 0, 0, 0, 0, 0, 0, 0, 0, 0, 0, 0.0, 0.0, 0.0, 0.0, 17.0, 11.0, 5.0, 0.0, 0.0, 0.0, -0.03398214653134346, -0.41743117570877075, 0.016501782462000847, 0.04288732632994652, -0.07371747493743896, 0.004872963763773441
296397, 2.5650522708892822, -3.0985896587371826, -12.051828384399414, 0, 0, 0, 0, 0, 0, 0, 0, 0, 0, 0, 0, 0.0, 0.0, 0.0, 0.0, 17.0, 0.0, -3.0, 0.0, 0.0, 0.0, -0.03369670361280441, -0.41733235120773315, 0.01650429517030716, 0.04501896724104881, -0.07244253903627396, 0.005034674424678087
296408, 2.583899974822998, -3.0720362663269043, -12.061302185058594, 0, 0, 0, 0, 0, 0, 0, 0, 0, 0, 0, 0, 0.0, 0.0, 0.0, 0.0, 18.0, 2.0, 3.0, 0.0, 0.0, 0.0, -0.03396128863096237, -0.4176132082939148, 0.016580039635300636, 0.042758140712976456, -0.0740235224366188, 0.005607303231954575
296417, 2.589517593383789, -3.0505552291870117, -12.057597160339355, 0, 0, 0, 0, 0, 0, 0, 0, 0, 0, 0, 0, 0.0, 0.0, 0.0, 0.0, 18.0, -6.0, 0.0, 0.0, 0.0, 0.0, -0.03382007032632828, -0.41702622175216675, 0.0171709842979908, 0.04234389588236809, -0.06905129551887512, 0.009183975867927074
296428, 2.5329768657684326, -3.087981700897217, -12.067349433898926, 0, 0, 0, 0, 0, 0, 0, 0, 0, 0, 0, 0, 0.0, 0.0, 0.0, 0.0, 18.0, 4.0, -3.0, 0.0, 0.0, 0.0, -0.03366430476307869, -0.4173799455165863, 0.017087312415242195, 0.04440184682607651, -0.07234422117471695, 0.008871935307979584
296437, 2.4673149585723877, -3.1134603023529053, -12.072757720947266, 0, 0, 0, 0, 0, 0, 0, 0, 0, 0, 0, 0, 0.0, 0.0, 0.0, 0.0, 18.0, 0.0, 3.0, 0.0, 0.0, 0.0, -0.03392792120575905, -0.4171503484249115, 0.017172908410429955, 0.04195549711585045, -0.07087863981723785, 0.009042574092745781
296447, 2.541472911834717, -3.088759183883667, -12.094982147216797, 0, 0, 0, 0, 0, 0, 0, 0, 0, 0, 0, 0, 0.0, 0.0, 0.0, 0.0, 18.0, 0.0, 0.0, 0.0, 0.0, 0.0, -0.03385157510638237, -0.417411208152771, 0.017108255997300148, 0.043384991586208344, -0.07298652082681656, 0.008394896984100342
296457, 2.5738887786865234, -3.071977138519287, -12.069972038269043, 0, 0, 0, 0, 0, 0, 0, 0, 0, 0, 0, 0, 0.0, 0.0, 0.0, 0.0, 13.0, 0.0, 6.0, 0.0, 0.0, 0.0, -0.03440828621387482, -0.4173499047756195, 0.015933748334646225, 0.03857267647981644, -0.07285512238740921, 0.0007323289755731821
296468, 2.5884668827056885, -3.0649073123931885, -12.083601951599121, 0, 0, 0, 0, 0, 0, 0, 0, 0, 0, 0, 0, 0.0, 0.0, 0.0, 0.0, 13.0, 0.0, -9.0, 0.0, 0.0, 0.0, -0.03356238454580307, -0.4174092710018158, 0.015847347676753998, 0.04543104022741318, -0.07230378687381744, 0.0008346523391082883
296478, 2.5980350971221924, -3.0835442543029785, -12.059246063232422, 0, 0, 0, 0, 0, 0, 0, 0, 0, 0, 0, 0, 0.0, 0.0, 0.0, 0.0, 13.0, 1.0, 3.0, 0.0, 0.0, 0.0, -0.03387900069355965, -0.41742441058158875, 0.015887442976236343, 0.042729150503873825, -0.07287325710058212, 0.0016651650657877326
296487, 2.5802769660949707, -3.070139169692993, -12.058981895446777, 0, 0, 0, 0, 0, 0, 0, 0, 0, 0, 0, 0, 0.0, 0.0, 0.0, 0.0, 13.0, 1.0, 0.0, 0.0, 0.0, 0.0, -0.033896420150995255, -0.41735854744911194, 0.0158932413905859, 0.042668987065553665, -0.07236892729997635, 0.0021216445602476597
296497, 2.5913612842559814, -3.0710179805755615, -12.048775672912598, 0, 0, 0, 0, 0, 0, 0, 0, 0, 0, 0, 0, 0.0, 0.0, 0.0, 0.0, 16.0, -1.0, 0.0, 0.0, 0.0, 0.0, -0.033906418830156326, -0.4171432554721832, 0.0159686841070652, 0.042268868535757065, -0.07092461735010147, 0.0028894152492284775
296507, 2.484510660171509, -3.1032145023345947, -12.079602241516113, 0, 0, 0, 0, 0, 0, 0, 0, 0, 0, 0, 0, 0.0, 0.0, 0.0, 0.0, 16.0, -1.0, -4.0, 0.0, 0.0, 0.0, -0.03345361724495888, -0.4172772765159607, 0.01598120853304863, 0.04564940929412842, -0.07040470838546753, 0.0032915452029556036
296518, 2.525315046310425, -3.137378692626953, -12.063016891479492, 0, 0, 0, 0, 0, 0, 0, 0, 0, 0, 0, 0, 0.0, 0.0, 0.0, 0.0, 16.0, 0.0, 4.0, 0.0, 0.0, 0.0, -0.033820874989032745, -0.41706666350364685, 0.016075652092695236, 0.042496513575315475, -0.06863467395305634, 0.004044256638735533
296528, 2.497606039047241, -3.120027780532837, -12.055932998657227, 0, 0, 0, 0, 0, 0, 0, 0, 0, 0, 0, 0, 0.0, 0.0, 0.0, 0.0, 16.0, 0.0, 1.0, 0.0, 0.0, 0.0, -0.0339033305644989, -0.41693663597106934, 0.016143636777997017, 0.04203987121582031, -0.06787747889757156, 0.004825728479772806
296537, 2.4596242904663086, -3.1708016395568848, -12.084026336669922, 0, 0, 0, 0, 0, 0, 0, 0, 0, 0, 0, 0, 0.0, 0.0, 0.0, 0.0, 16.0, 0.0, -4.0, 0.0, 0.0, 0.0, -0.03355502709746361, -0.41691356897354126, 0.016140472143888474, 0.04497845470905304, -0.06786492466926575, 0.0051042549312114716
296547, 2.4991250038146973, -3.1518373489379883, -12.0618896484375, 0, 0, 0, 0, 0, 0, 0, 0, 0, 0, 0, 0, 0.0, 0.0, 0.0, 0.0, 17.0, 5.0, 8.0, 0.0, 0.0, 0.0, -0.03431257605552673, -0.4173632860183716, 0.016479140147566795, 0.03921722248196602, -0.07096950709819794, 0.007021159399300814
296557, 2.6178784370422363, -3.1060585975646973, -12.07483196258545, 0, 0, 0, 0, 0, 0, 0, 0, 0, 0, 0, 0, 0.0, 0.0, 0.0, 0.0, 17.0, -4.0, -4.0, 0.0, 0.0, 0.0, -0.033872634172439575, -0.4169730246067047, 0.01654851622879505, 0.04235893860459328, -0.06750594824552536, 0.0072974711656570435
296567, 2.556605815887451, -3.111729145050049, -12.060564994812012, 0, 0, 0, 0, 0, 0, 0, 0, 0, 0, 0, 0, 0.0, 0.0, 0.0, 0.0, 17.0, 0.0, -4.0, 0.0, 0.0, 0.0, -0.03356130048632622, -0.41700100898742676, 0.016543440520763397, 0.04489526152610779, -0.0682632178068161, 0.007398596499115229
296577, 2.5318403244018555, -3.115750312805176, -12.116456031799316, 0, 0, 0, 0, 0, 0, 0, 0, 0, 0, 0, 0, 0.0, 0.0, 0.0, 0.0, 17.0, 0.0, 3.0, 0.0, 0.0, 0.0, -0.033814843744039536, -0.4168277680873871, 0.016617758199572563, 0.04225520044565201, -0.06714329123497009, 0.007789886090904474
296588, 2.4617271423339844, -3.1408233642578125, -12.101252555847168, 0, 0, 0, 0, 0, 0, 0, 0, 0, 0, 0, 0, 0.0, 0.0, 0.0, 0.0, 14.0, 0.0, 0.0, 0.0, 0.0, 0.0, -0.0336838997900486, -0.41717037558555603, 0.016560213640332222, 0.044008996337652206, -0.06930134445428848, 0.00731336185708642
296597, 2.4762632846832275, -3.149364471435547, -12.063801765441895, 0, 0, 0, 0, 0, 0, 0, 0, 0, 0, 0, 0, 0.0, 0.0, 0.0, 0.0, 14.0, 4.0, 0.0, 0.0, 0.0, 0.0, -0.033779844641685486, -0.41738077998161316, 0.015741927549242973, 0.04392547160387039, -0.07205024361610413, 0.0022662233095616102
296607, 2.4202327728271484, -3.157198429107666, -12.070626258850098, 0, 0, 0, 0, 0, 0, 0, 0, 0, 0, 0, 0, 0.0, 0.0, 0.0, 0.0, 14.0, -4.0, -3.0, 0.0, 0.0, 0.0, -0.033324651420116425, -0.41717052459716797, 0.015826690942049026, 0.04682540148496628, -0.06792007386684418, 0.003098514396697283
296617, 2.477372646331787, -3.124752998352051, -12.086576461791992, 0, 0, 0, 0, 0, 0, 0, 0, 0, 0, 0, 0, 0.0, 0.0, 0.0, 0.0, 14.0, 0.0, 3.0, 0.0, 0.0, 0.0, -0.03365934267640114, -0.41702502965927124, 0.015925442799925804, 0.04375908896327019, -0.06818638741970062, 0.0038992136251181364
296628, 2.534053087234497, -3.096571683883667, -12.060338973999023, 0, 0, 0, 0, 0, 0, 0, 0, 0, 0, 0, 0, 0.0, 0.0, 0.0, 0.0, 14.0, 0.0, 0.0, 0.0, 0.0, 0.0, -0.03352978080511093, -0.4172407388687134, 0.01586191914975643, 0.04527544975280762, -0.06940426677465439, 0.0035996793303638697
296638, 2.5465378761291504, -3.120121479034424, -12.063237190246582, 0, 0, 0, 0, 0, 0, 0, 0, 0, 0, 0, 0, 0.0, 0.0, 0.0, 0.0, 16.0, 0.0, -3.0, 0.0, 0.0, 0.0, -0.03322794288396835, -0.41727563738822937, 0.01593218930065632, 0.04779845103621483, -0.06906161457300186, 0.004484647419303656
296647, 2.5037643909454346, -3.1360840797424316, -12.051583290100098, 0, 0, 0, 0, 0, 0, 0, 0, 0, 0, 0, 0, 0.0, 0.0, 0.0, 0.0, 16.0, -2.0, 0.0, 0.0, 0.0, 0.0, -0.033137232065200806, -0.417010098695755, 0.01601046696305275, 0.04799220338463783, -0.0662800669670105, 0.005039532668888569
296657, 2.5530426502227783, -3.0928444862365723, -12.081727981567383, 0, 0, 0, 0, 0, 0, 0, 0, 0, 0, 0, 0, 0.0, 0.0, 0.0, 0.0, 16.0, 1.0, 0.0, 0.0, 0.0, 0.0, -0.03309345617890358, -0.4172528386116028, 0.016052110120654106, 0.04778047278523445, -0.06741943210363388, 0.005460717249661684
296668, 2.5766403675079346, -3.0727901458740234, -12.096986770629883, 0, 0, 0, 0, 0, 0, 0, 0, 0, 0, 0, 0, 0.0, 0.0, 0.0, 0.0, 16.0, 1.0, 3.0, 0.0, 0.0, 0.0, -0.033437490463256836, -0.417281836271286, 0.016149209812283516, 0.0444001629948616, -0.06857196986675262, 0.006202826742082834
296678, 2.554551839828491, -3.085057497024536, -12.081912994384766, 0, 0, 0, 0, 0, 0, 0, 0, 0, 0, 0, 0, 0.0, 0.0, 0.0, 0.0, 16.0, 1.0, 3.0, 0.0, 0.0, 0.0, -0.03329392150044441, -0.4175914227962494, 0.016098683699965477, 0.046095237135887146, -0.07105008512735367, 0.005781035404652357
296687, 2.545213460922241, -3.0955400466918945, -12.146559715270996, 0, 0, 0, 0, 0, 0, 0, 0, 0, 0, 0, 0, 0.0, 0.0, 0.0, 0.0, 16.0, 0.0, 4.0, 0.0, 0.0, 0.0, -0.03366153687238693, -0.41752684116363525, 0.016148118302226067, 0.04296421259641647, -0.07060340791940689, 0.005857928656041622
296697, 2.6233458518981934, -3.087021589279175, -12.098138809204102, 0, 0, 0, 0, 0, 0, 0, 0, 0, 0, 0, 0, 0.0, 0.0, 0.0, 0.0, 16.0, 0.0, -7.0, 0.0, 0.0, 0.0, -0.03294894099235535, -0.4176487922668457, 0.016117481514811516, 0.048937372863292694, -0.07038145512342453, 0.005905562080442905
