timeTick, roll, pitch, yaw, stateX, stateY, stateZ, stateVX, stateVY, stateVZ, whisker1, whisker2, whisker3, motor1, motor2, motor3, motor4, kalX, kalY, kalZ, kalPX, kalPY, kalPZ
280727, -142.7777862548828, 1.1129745244979858, 4.684267044067383, 0, 0, 0, 0, 0, 0, 0, 0, 0, 0, 0, 0, 0, 0, 0, 0, 0, 0, 0
280737, -93.64339447021484, 1.6270644664764404, 2.0830938816070557, 2.042630910873413, -0.5133327841758728, -0.012193681672215462, 0.0, 0.0, 0.0, 0, 0, 0, 0.0, 0.0, 0.0, 0.0, 2.042376756668091, -0.5127154588699341, -0.0049596368335187435, -0.001511325128376484, 0.1189919039607048, 0.13168111443519592
280748, -97.32038879394531, 1.395973563194275, 2.348836898803711, 2.04236102104187, -0.5127089619636536, -0.004875579848885536, -0.001689664088189602, 0.11719099432229996, -0.1348254233598709, 0, 0, 0, 0.0, 0.0, 0.0, 0.0, 2.0423436164855957, -0.5110489726066589, -0.0067520407028496265, -0.0008313310099765658, 0.22640925645828247, 0.2295791357755661
280758, -94.56866455078125, 0.993790864944458, 2.3564045429229736, 2.042375087738037, -0.5115801095962524, -0.007879323326051235, -0.002295148093253374, 0.20961430668830872, -0.24978293478488922, 0, 0, 0, 0.0, 0.0, 0.0, 0.0, 2.0423052310943604, -0.5093858242034912, -0.00844659749418497, 0.0017541467677801847, 0.32901620864868164, 0.32505378127098083
280767, -92.99165344238281, 0.7212989330291748, 2.51188063621521, 2.042288303375244, -0.5069941878318787, -0.010871326550841331, -0.004659613594412804, 0.41723936796188354, -0.4325144290924072, 0, 0, 0, 0.0, 0.0, 0.0, 0.0, 2.042288303375244, -0.5069941878318787, -0.010871326550841331, 0.005158836022019386, 0.4300275146961212, 0.4197978377342224
280778, -91.96984100341797, 0.5390676856040955, 2.6995205879211426, 2.0423121452331543, -0.5077821612358093, -0.011160996742546558, -0.006209889892488718, 0.4117802679538727, -0.4477959871292114, 0, 0, 0, 0.0, 0.0, 0.0, 0.0, 2.0422446727752686, -0.5031745433807373, -0.016161777079105377, 0.00812824722379446, 0.5251560807228088, 0.5377199053764343
280787, -89.14971923828125, 0.47627466917037964, 2.6505603790283203, 2.0422451496124268, -0.5049067139625549, -0.013934534043073654, -0.00936899334192276, 0.5116268396377563, -0.5440821647644043, 0, 0, 0, 0.0, 0.0, 0.0, 0.0, 2.042133092880249, -0.4996468126773834, -0.018186025321483612, 0.012591301463544369, 0.6393834948539734, 0.6173846125602722
280798, -90.7607650756836, 0.3661264479160309, 3.140026569366455, 2.042133092880249, -0.4996468126773834, -0.018186025321483612, -0.01117634680122137, 0.6269574761390686, -0.6300236582756042, 0, 0, 0, 0.0, 0.0, 0.0, 0.0, 2.042006015777588, -0.4946949779987335, -0.024445317685604095, 0.015660669654607773, 0.7350032329559326, 0.7336474061012268
280807, -88.50362396240234, 0.35379859805107117, 3.102327585220337, 2.0420024394989014, -0.49711182713508606, -0.021680548787117004, -0.01807410642504692, 0.7165928483009338, -0.7438806891441345, 0, 0, 0, 0.0, 0.0, 0.0, 0.0, 2.041810989379883, -0.48945584893226624, -0.02962309494614601, 0.019002484157681465, 0.8338692784309387, 0.8256446719169617
280817, -88.28126525878906, 0.3674152195453644, 3.3162450790405273, 2.0418288707733154, -0.4907381534576416, -0.02697920985519886, -0.020364845171570778, 0.8229658603668213, -0.8141235709190369, 0, 0, 0, 0.0, 0.0, 0.0, 0.0, 2.0415947437286377, -0.4842081069946289, -0.03479188680648804, 0.021749896928668022, 0.931261420249939, 0.9155482053756714
280827, -88.0645751953125, 0.3973841071128845, 3.5087926387786865, 2.0416219234466553, -0.48565036058425903, -0.0319715179502964, -0.025647522881627083, 0.9185461401939392, -0.9045509099960327, 0, 0, 0, 0.0, 0.0, 0.0, 0.0, 2.0413358211517334, -0.4783780574798584, -0.0406038872897625, 0.024242252111434937, 1.027490496635437, 1.0043361186981201
280837, -89.70853424072266, 0.42780977487564087, 3.72835111618042, 2.041381597518921, -0.4799595773220062, -0.03758351504802704, -0.031046610325574875, 1.01313054561615, -0.9932758212089539, 0, 0, 0, 0.0, 0.0, 0.0, 0.0, 2.041055917739868, -0.4720003604888916, -0.04700041562318802, 0.026329854503273964, 1.1223551034927368, 1.0908520221710205
280847, -89.47682189941406, 0.49652212858200073, 3.9136927127838135, 2.041055917739868, -0.4720003604888916, -0.04700041562318802, -0.036709681153297424, 1.0964784622192383, -1.1165615320205688, 0, 0, 0, 0.0, 0.0, 0.0, 0.0, 2.040724039077759, -0.4621843099594116, -0.0550864040851593, 0.028393197804689407, 1.2206233739852905, 1.1590532064437866
280858, -89.05809783935547, 0.643896222114563, 4.016304969787598, 2.040727138519287, -0.4651215970516205, -0.0539458729326725, -0.04274354130029678, 1.185376524925232, -1.2046281099319458, 0, 0, 0, 0.0, 0.0, 0.0, 0.0, 2.0403854846954346, -0.4584285020828247, -0.060701820999383926, 0.028718827292323112, 1.3053981065750122, 1.2506192922592163
280867, -88.9779281616211, 0.7115569114685059, 4.226466178894043, 2.039929151535034, -0.44584038853645325, -0.07126852869987488, -0.051807183772325516, 1.3901172876358032, -1.3465723991394043, 0, 0, 0, 0.0, 0.0, 0.0, 0.0, 2.039929151535034, -0.44584038853645325, -0.07126852869987488, 0.03054889105260372, 1.411241888999939, 1.3250832557678223
280877, -88.86917877197266, 0.8531900644302368, 4.354995250701904, 2.0399677753448486, -0.4494768977165222, -0.06989458948373795, -0.053795743733644485, 1.3620558977127075, -1.379810094833374, 0, 0, 0, 0.0, 0.0, 0.0, 0.0, 2.039409637451172, -0.43536537885665894, -0.0841817855834961, 0.03161688894033432, 1.5039868354797363, 1.433911919593811
280887, -88.75868225097656, 1.0016167163848877, 4.47338342666626, 2.039637804031372, -0.4423624575138092, -0.07751631736755371, -0.057812970131635666, 1.4354774951934814, -1.4600359201431274, 0, 0, 0, 0.0, 0.0, 0.0, 0.0, 2.0392184257507324, -0.4308042824268341, -0.08712772279977798, 0.030402861535549164, 1.5794575214385986, 1.4627678394317627
280898, -87.0226821899414, 1.0688328742980957, 4.38397741317749, 2.0393035411834717, -0.4350849986076355, -0.08549348264932632, -0.0615408830344677, 1.5043666362762451, -1.5371657609939575, 0, 0, 0, 0.0, 0.0, 0.0, 0.0, 2.038665533065796, -0.4195515811443329, -0.10135221481323242, 0.030538860708475113, 1.6697276830673218, 1.5667566061019897
280907, -86.94926452636719, 1.2359203100204468, 4.468892574310303, 2.038889169692993, -0.4231092035770416, -0.09555507451295853, -0.06415627896785736, 1.6083314418792725, -1.5772560834884644, 0, 0, 0, 0.0, 0.0, 0.0, 0.0, 2.03834867477417, -0.41161778569221497, -0.11038276553153992, 0.029389599338173866, 1.7483330965042114, 1.6259856224060059
280917, -86.97357177734375, 1.4077001810073853, 4.53469181060791, 2.0385897159576416, -0.4154406189918518, -0.1042494997382164, -0.06652960926294327, 1.670900583267212, -1.6489660739898682, 0, 0, 0, 0.0, 0.0, 0.0, 0.0, 2.0381078720092773, -0.4047435224056244, -0.11878533661365509, 0.02758919820189476, 1.8202388286590576, 1.6728698015213013
280927, -88.46647644042969, 1.5173674821853638, 4.681118965148926, 2.0383782386779785, -0.4088514447212219, -0.11235494166612625, -0.06744054704904556, 1.7186585664749146, -1.7173210382461548, 0, 0, 0, 0.0, 0.0, 0.0, 0.0, 2.037938117980957, -0.39805591106414795, -0.12733453512191772, 0.025355812162160873, 1.8885679244995117, 1.7150167226791382
280937, -88.363037109375, 1.6982393264770508, 4.703493595123291, 2.037938117980957, -0.39805591106414795, -0.12733453512191772, -0.07016134262084961, 1.7651021480560303, -1.8406734466552734, 0, 0, 0, 0.0, 0.0, 0.0, 0.0, 2.03721284866333, -0.37991464138031006, -0.14622540771961212, 0.02608703263103962, 1.9880359172821045, 1.810501217842102
280947, -88.30249786376953, 1.865971326828003, 4.704404354095459, 2.037869453430176, -0.39266493916511536, -0.13510845601558685, -0.06895697116851807, 1.8002574443817139, -1.8966389894485474, 0, 0, 0, 0.0, 0.0, 0.0, 0.0, 2.037551164627075, -0.3800579905509949, -0.14604118466377258, 0.02155807428061962, 2.027277946472168, 1.777881145477295
280957, -88.2154312133789, 2.035134792327881, 4.686979293823242, 2.037867307662964, -0.38753369450569153, -0.14292940497398376, -0.06727078557014465, 1.8302698135375977, -1.9506272077560425, 0, 0, 0, 0.0, 0.0, 0.0, 0.0, 2.0375869274139404, -0.3749019205570221, -0.15414565801620483, 0.017951421439647675, 2.0827906131744385, 1.8018428087234497
280967, -88.19866180419922, 2.1960556507110596, 4.651488304138184, 2.0379390716552734, -0.382624089717865, -0.15077850222587585, -0.06500791758298874, 1.8572322130203247, -2.0007219314575195, 0, 0, 0, 0.0, 0.0, 0.0, 0.0, 2.037689685821533, -0.37001484632492065, -0.16215692460536957, 0.013881593011319637, 2.134827136993408, 1.8216482400894165
280977, -88.1484375, 2.350262403488159, 4.607932090759277, 2.0380666255950928, -0.37803876399993896, -0.1585056334733963, -0.06215907633304596, 1.8780308961868286, -2.0494649410247803, 0, 0, 0, 0.0, 0.0, 0.0, 0.0, 2.037849187850952, -0.3654642403125763, -0.17008447647094727, 0.009776841849088669, 2.1835007667541504, 1.83846116065979
280987, -86.72688293457031, 2.3941845893859863, 4.463226795196533, 2.038242816925049, -0.3737140893936157, -0.16615627706050873, -0.05906689167022705, 1.8967593908309937, -2.0942037105560303, 0, 0, 0, 0.0, 0.0, 0.0, 0.0, 2.0380613803863525, -0.36124858260154724, -0.17786842584609985, 0.005203531123697758, 2.228895425796509, 1.852123498916626
280997, -86.73687744140625, 2.538658857345581, 4.394132137298584, 2.0380613803863525, -0.36124858260154724, -0.17786842584609985, -0.06034298986196518, 1.9776597023010254, -2.1174397468566895, 0, 0, 0, 0.0, 0.0, 0.0, 0.0, 2.0378215312957764, -0.3502916991710663, -0.1918545812368393, 0.003930075094103813, 2.2969250679016113, 1.8954983949661255
281007, -86.7348861694336, 2.668915271759033, 4.3128342628479, 2.038395404815674, -0.3586834967136383, -0.18442413210868835, -0.0560469888150692, 1.9821974039077759, -2.1540238857269287, 0, 0, 0, 0.0, 0.0, 0.0, 0.0, 2.0383472442626953, -0.3490808606147766, -0.20099355280399323, -0.0027380993124097586, 2.328408718109131, 1.9270553588867188
281017, -86.69393920898438, 2.7878167629241943, 4.2163801193237305, 2.0387582778930664, -0.35630303621292114, -0.19087761640548706, -0.05185446888208389, 1.9866766929626465, -2.1877541542053223, 0, 0, 0, 0.0, 0.0, 0.0, 0.0, 2.0387558937072754, -0.34676042199134827, -0.20749107003211975, -0.008005711250007153, 2.360973358154297, 1.9293025732040405
281027, -86.64839172363281, 2.893308639526367, 4.107808589935303, 2.039153575897217, -0.35406994819641113, -0.19714023172855377, -0.04807497560977936, 1.9919155836105347, -2.2178826332092285, 0, 0, 0, 0.0, 0.0, 0.0, 0.0, 2.0391879081726074, -0.3445497453212738, -0.21378783881664276, -0.01339804008603096, 2.391211748123169, 1.9309450387954712
281037, -86.64921569824219, 2.988086462020874, 3.9924674034118652, 2.0395493507385254, -0.3519488275051117, -0.2032194435596466, -0.04443756863474846, 1.9969969987869263, -2.2455461025238037, 0, 0, 0, 0.0, 0.0, 0.0, 0.0, 2.039085626602173, -0.33149003982543945, -0.22614268958568573, -0.016289258375763893, 2.4595999717712402, 1.9524089097976685
281047, -87.93341064453125, 3.0683155059814453, 4.027413368225098, 2.0399580001831055, -0.3499402403831482, -0.20912496745586395, -0.04051293805241585, 2.0002715587615967, -2.272653579711914, 0, 0, 0, 0.0, 0.0, 0.0, 0.0, 2.0400404930114746, -0.34047335386276245, -0.2258014976978302, -0.023580210283398628, 2.4453396797180176, 1.934554100036621
281057, -87.79039001464844, 3.150364398956299, 3.8868448734283447, 2.0400404930114746, -0.34047335386276245, -0.2258014976978302, -0.038706131279468536, 2.023751974105835, -2.3718416690826416, 0, 0, 0, 0.0, 0.0, 0.0, 0.0, 2.0396344661712646, -0.31974565982818604, -0.2499992847442627, -0.02559453435242176, 2.5447239875793457, 2.0290801525115967
281067, -86.35379028320312, 3.14349627494812, 3.71051287651062, 2.040525436401367, -0.3400193750858307, -0.2301737666130066, -0.03483711928129196, 2.0224075317382812, -2.3851637840270996, 0, 0, 0, 0.0, 0.0, 0.0, 0.0, 2.0405306816101074, -0.3285916745662689, -0.24137571454048157, -0.03217531368136406, 2.5229899883270264, 1.9395384788513184
281078, -87.8497314453125, 3.2166779041290283, 3.7419066429138184, 2.0405306816101074, -0.3285916745662689, -0.24137571454048157, -0.03667318448424339, 2.09808349609375, -2.3926937580108643, 0, 0, 0, 0.0, 0.0, 0.0, 0.0, 2.040146827697754, -0.3071214556694031, -0.26576876640319824, -0.034390997141599655, 2.6223063468933105, 2.0312554836273193
281087, -86.29373168945312, 3.2459371089935303, 3.392584800720215, 2.0407333374023438, -0.3205670118331909, -0.2576131224632263, -0.033490050584077835, 2.1031622886657715, -2.493330717086792, 0, 0, 0, 0.0, 0.0, 0.0, 0.0, 2.0415079593658447, -0.3287351429462433, -0.24877740442752838, -0.0422188974916935, 2.550173044204712, 1.9227831363677979
281098, -86.35980987548828, 3.263547420501709, 3.2329585552215576, 2.0415079593658447, -0.3287351429462433, -0.24877740442752838, -0.028563011437654495, 2.085569381713867, -2.419050455093384, 0, 0, 0, 0.0, 0.0, 0.0, 0.0, 2.0412089824676514, -0.30738842487335205, -0.2734333574771881, -0.04435646906495094, 2.649489164352417, 2.014695882797241
281107, -86.38325500488281, 3.263584613800049, 3.0762622356414795, 2.041964530944824, -0.3293624818325043, -0.2517651915550232, -0.02480187453329563, 2.073935031890869, -2.4317522048950195, 0, 0, 0, 0.0, 0.0, 0.0, 0.0, 2.0421230792999268, -0.3194498121738434, -0.26943761110305786, -0.050174061208963394, 2.6155710220336914, 1.9926540851593018
281117, -87.79792022705078, 3.3005340099334717, 3.094356060028076, 2.042325019836426, -0.3282806873321533, -0.25614243745803833, -0.022498784586787224, 2.0761325359344482, -2.448890447616577, 0, 0, 0, 0.0, 0.0, 0.0, 0.0, 2.0420875549316406, -0.3070297837257385, -0.2810974419116974, -0.05313805118203163, 2.675179958343506, 2.0075020790100098
281127, -86.47632598876953, 3.21427059173584, 2.778629779815674, 2.042525053024292, -0.31992828845977783, -0.2723560929298401, -0.02009817212820053, 2.086658477783203, -2.5450010299682617, 0, 0, 0, 0.0, 0.0, 0.0, 0.0, 2.042879343032837, -0.32017505168914795, -0.27531588077545166, -0.057215433567762375, 2.633375406265259, 1.98040771484375
281137, -86.47821044921875, 3.167365312576294, 2.639414072036743, 2.043008327484131, -0.3287546932697296, -0.2620152533054352, -0.01852630078792572, 2.063048839569092, -2.4714207649230957, 0, 0, 0, 0.0, 0.0, 0.0, 0.0, 2.0431723594665527, -0.320183128118515, -0.2782815396785736, -0.05969971790909767, 2.642862319946289, 1.9772037267684937
281147, -87.76630401611328, 3.176337957382202, 2.6566317081451416, 2.043260335922241, -0.3286609649658203, -0.26497581601142883, -0.017263028770685196, 2.0610620975494385, -2.481513261795044, 0, 0, 0, 0.0, 0.0, 0.0, 0.0, 2.0430803298950195, -0.3075602054595947, -0.2902580201625824, -0.061597179621458054, 2.7031607627868652, 1.9953547716140747
281157, -87.62415313720703, 3.1072847843170166, 2.50563383102417, 2.0434069633483887, -0.31997862458229065, -0.28125545382499695, -0.015456441789865494, 2.079129934310913, -2.573159694671631, 0, 0, 0, 0.0, 0.0, 0.0, 0.0, 2.0432448387145996, -0.2986975312232971, -0.30746492743492126, -0.06397134065628052, 2.752054214477539, 2.069850206375122
281167, -86.17607879638672, 3.0215628147125244, 2.353220224380493, 2.043627977371216, -0.32104405760765076, -0.2826920747756958, -0.014809479005634785, 2.0746209621429443, -2.572144031524658, 0, 0, 0, 0.0, 0.0, 0.0, 0.0, 2.043489694595337, -0.308158814907074, -0.2948395907878876, -0.06493573635816574, 2.7172350883483887, 1.984500765800476
281177, -86.26676940917969, 2.9283883571624756, 2.2314441204071045, 2.043489694595337, -0.308158814907074, -0.2948395907878876, -0.01771250180900097, 2.1623880863189697, -2.578671455383301, 0, 0, 0, 0.0, 0.0, 0.0, 0.0, 2.0433080196380615, -0.2860461175441742, -0.32108932733535767, -0.06668087840080261, 2.816187620162964, 2.0758183002471924
281187, -87.74392700195312, 2.7937703132629395, 2.1592016220092773, 2.0438570976257324, -0.32241106033325195, -0.2861976623535156, -0.01472680363804102, 2.057447910308838, -2.5858662128448486, 0, 0, 0, 0.0, 0.0, 0.0, 0.0, 2.043705701828003, -0.3013468086719513, -0.3125337064266205, -0.06657325476408005, 2.7644307613372803, 2.046738862991333
281198, -86.29935455322266, 2.697157621383667, 2.0207607746124268, 2.0438857078552246, -0.3226569592952728, -0.2882044315338135, -0.015580768696963787, 2.054288148880005, -2.592721939086914, 0, 0, 0, 0.0, 0.0, 0.0, 0.0, 2.043727159500122, -0.3016238510608673, -0.31460970640182495, -0.06624790281057358, 2.7709264755249023, 2.04390811920166
281207, -86.30641174316406, 2.56479811668396, 1.9377230405807495, 2.043684720993042, -0.30167990922927856, -0.3168257176876068, -0.017063958570361137, 2.153514862060547, -2.693627119064331, 0, 0, 0, 0.0, 0.0, 0.0, 0.0, 2.043684720993042, -0.30167990922927856, -0.3168257176876068, -0.06503403186798096, 2.7783353328704834, 2.0421104431152344
281217, -86.32964324951172, 2.4233813285827637, 1.8676297664642334, 2.043649435043335, -0.31108537316322327, -0.30159586668014526, -0.019263532012701035, 2.1351027488708496, -2.603041172027588, 0, 0, 0, 0.0, 0.0, 0.0, 0.0, 2.0434563159942627, -0.28924429416656494, -0.3280922472476959, -0.06456328183412552, 2.834272861480713, 2.0541791915893555
281238, -87.73592376708984, 2.2241451740264893, 1.875060796737671, 2.0435726642608643, -0.3123485743999481, -0.30252519249916077, -0.020611632615327835, 2.124671459197998, -2.6063919067382812, 0, 0, 0, 0.0, 0.0, 0.0, 0.0, 2.0434885025024414, -0.3043109178543091, -0.31867268681526184, -0.06066036596894264, 2.7819290161132812, 2.0234055519104004
281247, -86.34031677246094, 1.9546284675598145, 1.7574963569641113, 2.0430145263671875, -0.2938746511936188, -0.33023801445961, -0.02499742992222309, 2.20595383644104, -2.6975746154785156, 0, 0, 0, 0.0, 0.0, 0.0, 0.0, 2.0434885025024414, -0.3043109178543091, -0.31867268681526184, -0.06066036596894264, 2.7819290161132812, 2.0234055519104004
281257, -87.78186798095703, 1.8998737335205078, 1.8345872163772583, 2.0430190563201904, -0.31570231914520264, -0.3054015636444092, -0.02767716906964779, 2.100520372390747, -2.614475965499878, 0, 0, 0, 0.0, 0.0, 0.0, 0.0, 2.0434885025024414, -0.3043109178543091, -0.31867268681526184, -0.06066036596894264, 2.7819290161132812, 2.0234055519104004
281277, -87.79743194580078, 1.5733944177627563, 1.877556562423706, 2.0427873134613037, -0.3072549104690552, -0.321837842464447, -0.027993034571409225, 2.108103036880493, -2.7105212211608887, 0, 0, 0, 0.0, 0.0, 0.0, 0.0, 2.04237961769104, -0.2921062111854553, -0.33663833141326904, -0.04831884801387787, 2.8584251403808594, 2.0279541015625
281288, -86.27388000488281, 1.4702199697494507, 1.809038519859314, 2.042069911956787, -0.3070177137851715, -0.3266732692718506, -0.035402894020080566, 2.101452589035034, -2.7262744903564453, 0, 0, 0, 0.0, 0.0, 0.0, 0.0, 2.04237961769104, -0.2921062111854553, -0.33663833141326904, -0.04831884801387787, 2.8584251403808594, 2.0279541015625
281337, -86.40679931640625, 0.8278408646583557, 2.2540199756622314, 2.042069911956787, -0.3070177137851715, -0.3266732692718506, -0.035402894020080566, 2.101452589035034, -2.7262744903564453, 0, 0, 0, 0.0, 0.0, 0.0, 0.0, 2.0398471355438232, -0.2894454002380371, -0.3596489131450653, -0.01825672760605812, 2.9154112339019775, 2.0542385578155518
281347, -87.89788818359375, 0.7905580997467041, 2.408327341079712, 2.042069911956787, -0.3070177137851715, -0.3266732692718506, -0.035402894020080566, 2.101452589035034, -2.7262744903564453, 0, 0, 0, 0.0, 0.0, 0.0, 0.0, 2.0398471355438232, -0.2894454002380371, -0.3596489131450653, -0.01825672760605812, 2.9154112339019775, 2.0542385578155518
281357, -87.8757095336914, 0.7046980857849121, 2.5479753017425537, 2.042069911956787, -0.3070177137851715, -0.3266732692718506, -0.035402894020080566, 2.101452589035034, -2.7262744903564453, 0, 0, 0, 0.0, 0.0, 0.0, 0.0, 2.0398471355438232, -0.2894454002380371, -0.3596489131450653, -0.01825672760605812, 2.9154112339019775, 2.0542385578155518
281377, -87.8682861328125, 0.5903105735778809, 2.847785711288452, 2.042069911956787, -0.3070177137851715, -0.3266732692718506, -0.035402894020080566, 2.101452589035034, -2.7262744903564453, 0, 0, 0, 0.0, 0.0, 0.0, 0.0, 2.0398471355438232, -0.2894454002380371, -0.3596489131450653, -0.01825672760605812, 2.9154112339019775, 2.0542385578155518
281397, -86.35274505615234, 0.5397230982780457, 2.993724822998047, 2.037822961807251, -0.30159351229667664, -0.35800841450691223, -0.06372108310461044, 2.0760691165924072, -2.8178443908691406, 0, 0, 0, 0.0, 0.0, 0.0, 0.0, 2.0372540950775146, -0.28682008385658264, -0.3729158043861389, 0.01424938254058361, 2.9599149227142334, 1.9933902025222778
281419, -86.41814422607422, 0.5473857522010803, 3.3195979595184326, 2.037822961807251, -0.30159351229667664, -0.35800841450691223, -0.06372108310461044, 2.0760691165924072, -2.8178443908691406, 0, 0, 0, 0.0, 0.0, 0.0, 0.0, 2.0372540950775146, -0.28682008385658264, -0.3729158043861389, 0.01424938254058361, 2.9599149227142334, 1.9933902025222778
281427, -86.37310791015625, 0.5816421508789062, 3.475661516189575, 2.037822961807251, -0.30159351229667664, -0.35800841450691223, -0.06372108310461044, 2.0760691165924072, -2.8178443908691406, 0, 0, 0, 0.0, 0.0, 0.0, 0.0, 2.0372540950775146, -0.28682008385658264, -0.3729158043861389, 0.01424938254058361, 2.9599149227142334, 1.9933902025222778
281437, -87.85013580322266, 0.621105432510376, 3.6615207195281982, 2.037822961807251, -0.30159351229667664, -0.35800841450691223, -0.06372108310461044, 2.0760691165924072, -2.8178443908691406, 0, 0, 0, 0.0, 0.0, 0.0, 0.0, 2.0372540950775146, -0.28682008385658264, -0.3729158043861389, 0.01424938254058361, 2.9599149227142334, 1.9933902025222778
281447, -86.31875610351562, 0.713716983795166, 3.764925479888916, 2.0358726978302, -0.2872428297996521, -0.3912135362625122, -0.06886649131774902, 2.1203341484069824, -2.912292718887329, 0, 0, 0, 0.0, 0.0, 0.0, 0.0, 2.0372540950775146, -0.28682008385658264, -0.3729158043861389, 0.01424938254058361, 2.9599149227142334, 1.9933902025222778
281457, -87.85621643066406, 0.7704145312309265, 3.9524919986724854, 2.0358726978302, -0.2872428297996521, -0.3912135362625122, -0.06886649131774902, 2.1203341484069824, -2.912292718887329, 0, 0, 0, 0.0, 0.0, 0.0, 0.0, 2.0372540950775146, -0.28682008385658264, -0.3729158043861389, 0.01424938254058361, 2.9599149227142334, 1.9933902025222778
281467, -87.92042541503906, 0.8761138319969177, 4.087322235107422, 2.0359268188476562, -0.29224902391433716, -0.3898583650588989, -0.065061055123806, 2.08693790435791, -2.8999290466308594, 0, 0, 0, 0.0, 0.0, 0.0, 0.0, 2.0363070964813232, -0.3016131520271301, -0.372586190700531, 0.03978341072797775, 2.9278504848480225, 1.8916274309158325
281477, -87.83927154541016, 0.9915257096290588, 4.195878982543945, 2.0360841751098633, -0.2950597107410431, -0.3887506127357483, -0.06202862411737442, 2.0655202865600586, -2.893432855606079, 0, 0, 0, 0.0, 0.0, 0.0, 0.0, 2.0363070964813232, -0.3016131520271301, -0.372586190700531, 0.03978341072797775, 2.9278504848480225, 1.8916274309158325
281488, -87.7991714477539, 1.122754454612732, 4.296672344207764, 2.036341428756714, -0.2991003394126892, -0.38629552721977234, -0.05824682489037514, 2.0432071685791016, -2.875462770462036, 0, 0, 0, 0.0, 0.0, 0.0, 0.0, 2.0363070964813232, -0.3016131520271301, -0.372586190700531, 0.03978341072797775, 2.9278504848480225, 1.8916274309158325
281498, -87.74498748779297, 1.2601410150527954, 4.371219158172607, 2.036341428756714, -0.2991003394126892, -0.38629552721977234, -0.05824682489037514, 2.0432071685791016, -2.875462770462036, 0, 0, 0, 0.0, 0.0, 0.0, 0.0, 2.0363070964813232, -0.3016131520271301, -0.372586190700531, 0.03978341072797775, 2.9278504848480225, 1.8916274309158325
281507, -86.21527099609375, 1.3105297088623047, 4.283651828765869, 2.036341428756714, -0.2991003394126892, -0.38629552721977234, -0.05824682489037514, 2.0432071685791016, -2.875462770462036, 0, 0, 0, 0.0, 0.0, 0.0, 0.0, 2.0363070964813232, -0.3016131520271301, -0.372586190700531, 0.03978341072797775, 2.9278504848480225, 1.8916274309158325
281517, -86.28306579589844, 1.4559460878372192, 4.338742256164551, 2.0369930267333984, -0.2953157424926758, -0.39253294467926025, -0.04968161880970001, 2.0867812633514404, -2.837451457977295, 0, 0, 0, 0.0, 0.0, 0.0, 0.0, 2.0363070964813232, -0.3016131520271301, -0.372586190700531, 0.03978341072797775, 2.9278504848480225, 1.8916274309158325
281527, -86.26537322998047, 1.6053311824798584, 4.375449180603027, 2.037470817565918, -0.2979743778705597, -0.39112427830696106, -0.044972293078899384, 2.0675413608551025, -2.8304412364959717, 0, 0, 0, 0.0, 0.0, 0.0, 0.0, 2.037951707839966, -0.3108068108558655, -0.37947508692741394, 0.03805046156048775, 2.90409517288208, 1.8582361936569214
281538, -86.29732513427734, 1.7503721714019775, 4.395854473114014, 2.0379791259765625, -0.3003040850162506, -0.38988885283470154, -0.04038567468523979, 2.0544354915618896, -2.8215346336364746, 0, 0, 0, 0.0, 0.0, 0.0, 0.0, 2.038459062576294, -0.3129182457923889, -0.37835949659347534, 0.035787638276815414, 2.895550489425659, 1.8458021879196167
281547, -87.67723846435547, 1.8512110710144043, 4.5098724365234375, 2.0385146141052246, -0.30241724848747253, -0.3889506161212921, -0.035931240767240524, 2.0423502922058105, -2.8151419162750244, 0, 0, 0, 0.0, 0.0, 0.0, 0.0, 2.038459062576294, -0.3129182457923889, -0.37835949659347534, 0.035787638276815414, 2.895550489425659, 1.8458021879196167
281557, -87.65235137939453, 1.9920151233673096, 4.502732753753662, 2.0387251377105713, -0.29635801911354065, -0.4044140875339508, -0.03424281254410744, 2.0428314208984375, -2.8970935344696045, 0, 0, 0, 0.0, 0.0, 0.0, 0.0, 2.038459062576294, -0.3129182457923889, -0.37835949659347534, 0.035787638276815414, 2.895550489425659, 1.8458021879196167
281567, -87.64378356933594, 2.127877712249756, 4.478264808654785, 2.0393729209899902, -0.29939529299736023, -0.40213775634765625, -0.029655491933226585, 2.02785587310791, -2.883561372756958, 0, 0, 0, 0.0, 0.0, 0.0, 0.0, 2.038459062576294, -0.3129182457923889, -0.37835949659347534, 0.035787638276815414, 2.895550489425659, 1.8458021879196167
281577, -87.6250228881836, 2.2584683895111084, 4.439768314361572, 2.0393729209899902, -0.29939529299736023, -0.40213775634765625, -0.029655491933226585, 2.02785587310791, -2.883561372756958, 0, 0, 0, 0.0, 0.0, 0.0, 0.0, 2.038459062576294, -0.3129182457923889, -0.37835949659347534, 0.035787638276815414, 2.895550489425659, 1.8458021879196167
281588, -86.24688720703125, 2.2939453125, 4.306526184082031, 2.0406546592712402, -0.3041459918022156, -0.39850154519081116, -0.021291015669703484, 2.0078248977661133, -2.8618366718292236, 0, 0, 0, 0.0, 0.0, 0.0, 0.0, 2.038459062576294, -0.3129182457923889, -0.37835949659347534, 0.035787638276815414, 2.895550489425659, 1.8458021879196167
281597, -86.252685546875, 2.418912172317505, 4.254522800445557, 2.0412800312042236, -0.30594897270202637, -0.3970949649810791, -0.017695102840662003, 2.000774383544922, -2.8538262844085693, 0, 0, 0, 0.0, 0.0, 0.0, 0.0, 2.038459062576294, -0.3129182457923889, -0.37835949659347534, 0.035787638276815414, 2.895550489425659, 1.8458021879196167
281607, -86.29190826416016, 2.547896385192871, 4.184943675994873, 2.0413978099823, -0.29425153136253357, -0.40839409828186035, -0.020234594121575356, 2.0858592987060547, -2.8550894260406494, 0, 0, 0, 0.0, 0.0, 0.0, 0.0, 2.038459062576294, -0.3129182457923889, -0.37835949659347534, 0.035787638276815414, 2.895550489425659, 1.8458021879196167
281617, -86.32843780517578, 2.6570663452148438, 4.104672908782959, 2.0420868396759033, -0.2972230613231659, -0.40575504302978516, -0.01583917625248432, 2.0719168186187744, -2.842947483062744, 0, 0, 0, 0.0, 0.0, 0.0, 0.0, 2.038459062576294, -0.3129182457923889, -0.37835949659347534, 0.035787638276815414, 2.895550489425659, 1.8458021879196167
281627, -87.637939453125, 2.7385456562042236, 4.1563496589660645, 2.0427675247192383, -0.3012314438819885, -0.4018976390361786, -0.011830750852823257, 2.0519254207611084, -2.826260805130005, 0, 0, 0, 0.0, 0.0, 0.0, 0.0, 2.038459062576294, -0.3129182457923889, -0.37835949659347534, 0.035787638276815414, 2.895550489425659, 1.8458021879196167
281637, -86.37799835205078, 2.8372020721435547, 3.901665449142456, 2.043107032775879, -0.2933726906776428, -0.4184715747833252, -0.010361878201365471, 2.0689311027526855, -2.911846160888672, 0, 0, 0, 0.0, 0.0, 0.0, 0.0, 2.038459062576294, -0.3129182457923889, -0.37835949659347534, 0.035787638276815414, 2.895550489425659, 1.8458021879196167
281647, -87.697021484375, 2.9166224002838135, 3.9464805126190186, 2.0439298152923584, -0.304578572511673, -0.3985099196434021, -0.005740199238061905, 2.0428354740142822, -2.811285972595215, 0, 0, 0, 0.0, 0.0, 0.0, 0.0, 2.0439298152923584, -0.304578572511673, -0.3985099196434021, -0.0060410769656300545, 2.9375998973846436, 1.856624722480774
281657, -87.70598602294922, 2.984598398208618, 3.8323957920074463, 2.0442819595336914, -0.29632389545440674, -0.4151783883571625, -0.003971399273723364, 2.0605247020721436, -2.89845871925354, 0, 0, 0, 0.0, 0.0, 0.0, 0.0, 2.0444750785827637, -0.30571356415748596, -0.39720967411994934, -0.010912510566413403, 2.9312222003936768, 1.856187343597412
281667, -86.30253601074219, 2.9749138355255127, 3.6709277629852295, 2.044857978820801, -0.29886069893836975, -0.4123450517654419, -0.0011731947306543589, 2.0508878231048584, -2.8862497806549072, 0, 0, 0, 0.0, 0.0, 0.0, 0.0, 2.0450007915496826, -0.3079633414745331, -0.39463961124420166, -0.015531468205153942, 2.919370174407959, 1.8489511013031006
281677, -87.68623352050781, 3.083625555038452, 3.5882515907287598, 2.0449769496917725, -0.2871350049972534, -0.42304447293281555, -0.004249542951583862, 2.135937452316284, -2.884187698364258, 0, 0, 0, 0.0, 0.0, 0.0, 0.0, 2.0454814434051514, -0.3097934126853943, -0.39244210720062256, -0.02001873403787613, 2.909487724304199, 1.844826102256775
281687, -86.30650329589844, 3.062342882156372, 3.422621250152588, 2.045840263366699, -0.3024559020996094, -0.4077639579772949, 0.002947479486465454, 2.041766405105591, -2.866374969482422, 0, 0, 0, 0.0, 0.0, 0.0, 0.0, 2.045912027359009, -0.31122061610221863, -0.39059993624687195, -0.024414384737610817, 2.901089668273926, 1.8435330390930176
281697, -86.28085327148438, 3.0847082138061523, 3.284409523010254, 2.0462563037872314, -0.30365705490112305, -0.40599629282951355, 0.004549152683466673, 2.040205717086792, -2.859102249145508, 0, 0, 0, 0.0, 0.0, 0.0, 0.0, 2.0462563037872314, -0.30365705490112305, -0.40599629282951355, -0.028009722009301186, 2.941718816757202, 1.9189789295196533
281707, -86.30302429199219, 3.0975170135498047, 3.152071952819824, 2.0462563037872314, -0.30365705490112305, -0.40599629282951355, 0.004549152683466673, 2.040205717086792, -2.859102249145508, 0, 0, 0, 0.0, 0.0, 0.0, 0.0, 2.046635389328003, -0.30448779463768005, -0.4045283794403076, -0.032049719244241714, 2.935899496078491, 1.919615626335144
281717, -86.28800964355469, 3.096189498901367, 3.0132620334625244, 2.0467278957366943, -0.2938333749771118, -0.41429540514945984, 0.0030207775998860598, 2.11944580078125, -2.8483543395996094, 0, 0, 0, 0.0, 0.0, 0.0, 0.0, 2.046994924545288, -0.3065042793750763, -0.4018130600452423, -0.035642948001623154, 2.924377679824829, 1.9127967357635498
281727, -87.59426879882812, 3.1297171115875244, 3.0380642414093018, 2.047076940536499, -0.29567575454711914, -0.4117673337459564, 0.004147624131292105, 2.1137709617614746, -2.837958335876465, 0, 0, 0, 0.0, 0.0, 0.0, 0.0, 2.047311305999756, -0.30811747908592224, -0.39947229623794556, -0.03909124806523323, 2.914801597595215, 1.9079351425170898
281737, -87.64313507080078, 3.0981645584106445, 2.9051053524017334, 2.047076940536499, -0.29567575454711914, -0.4117673337459564, 0.004147624131292105, 2.1137709617614746, -2.837958335876465, 0, 0, 0, 0.0, 0.0, 0.0, 0.0, 2.047311305999756, -0.30811747908592224, -0.39947229623794556, -0.03909124806523323, 2.914801597595215, 1.9079351425170898
281747, -87.63877868652344, 3.0532963275909424, 2.7751269340515137, 2.047076940536499, -0.29567575454711914, -0.4117673337459564, 0.004147624131292105, 2.1137709617614746, -2.837958335876465, 0, 0, 0, 0.0, 0.0, 0.0, 0.0, 2.047311305999756, -0.30811747908592224, -0.39947229623794556, -0.03909124806523323, 2.914801597595215, 1.9079351425170898
281757, -87.60179138183594, 2.9975383281707764, 2.639220952987671, 2.047076940536499, -0.29567575454711914, -0.4117673337459564, 0.004147624131292105, 2.1137709617614746, -2.837958335876465, 0, 0, 0, 0.0, 0.0, 0.0, 0.0, 2.047311305999756, -0.30811747908592224, -0.39947229623794556, -0.03909124806523323, 2.914801597595215, 1.9079351425170898
281767, -86.21265411376953, 2.9228737354278564, 2.4936232566833496, 2.047076940536499, -0.29567575454711914, -0.4117673337459564, 0.004147624131292105, 2.1137709617614746, -2.837958335876465, 0, 0, 0, 0.0, 0.0, 0.0, 0.0, 2.0478599071502686, -0.2963807284832001, -0.40986645221710205, -0.047423314303159714, 2.9606432914733887, 1.930411696434021
281788, -86.12675476074219, 2.756023406982422, 2.2640726566314697, 2.0478599071502686, -0.2963807284832001, -0.40986645221710205, 0.0043696132488548756, 2.1239538192749023, -2.8254024982452393, 0, 0, 0, 0.0, 0.0, 0.0, 0.0, 2.0479507446289062, -0.3006901443004608, -0.4042326807975769, -0.04906497150659561, 2.937347888946533, 1.9119255542755127
281797, -86.14878845214844, 2.6486868858337402, 2.171699047088623, 2.047971725463867, -0.2791609466075897, -0.4327327609062195, 0.0014700362225994468, 2.2059338092803955, -2.8935070037841797, 0, 0, 0, 0.0, 0.0, 0.0, 0.0, 2.0479507446289062, -0.3006901443004608, -0.4042326807975769, -0.04906497150659561, 2.937347888946533, 1.9119255542755127
281807, -86.16130828857422, 2.537536382675171, 2.0910918712615967, 2.047971725463867, -0.2791609466075897, -0.4327327609062195, 0.0014700362225994468, 2.2059338092803955, -2.8935070037841797, 0, 0, 0, 0.0, 0.0, 0.0, 0.0, 2.0479631423950195, -0.29467499256134033, -0.4175076186656952, -0.049569159746170044, 2.9683337211608887, 1.9790349006652832
281817, -86.25354766845703, 2.4110915660858154, 2.0244176387786865, 2.047971725463867, -0.2791609466075897, -0.4327327609062195, 0.0014700362225994468, 2.2059338092803955, -2.8935070037841797, 0, 0, 0, 0.0, 0.0, 0.0, 0.0, 2.0479631423950195, -0.29467499256134033, -0.4175076186656952, -0.049569159746170044, 2.9683337211608887, 1.9790349006652832
281827, -87.68118286132812, 2.3726189136505127, 2.0804848670959473, 2.0476009845733643, -0.30273178219795227, -0.40101805329322815, -0.00371573306620121, 2.0940005779266357, -2.790241003036499, 0, 0, 0, 0.0, 0.0, 0.0, 0.0, 2.047558069229126, -0.29302969574928284, -0.41924574971199036, -0.04684559255838394, 2.971353530883789, 1.9860577583312988
281838, -87.6734390258789, 2.230658769607544, 2.0345120429992676, 2.0476009845733643, -0.30273178219795227, -0.40101805329322815, -0.00371573306620121, 2.0940005779266357, -2.790241003036499, 0, 0, 0, 0.0, 0.0, 0.0, 0.0, 2.047301769256592, -0.28212788701057434, -0.4285601079463959, -0.04605237394571304, 3.014320135116577, 1.9896074533462524
281848, -87.6746826171875, 2.0901026725769043, 2.0068774223327637, 2.0472984313964844, -0.2957662343978882, -0.41589221358299255, -0.007000873330980539, 2.0903844833374023, -2.8730826377868652, 0, 0, 0, 0.0, 0.0, 0.0, 0.0, 2.047301769256592, -0.28212788701057434, -0.4285601079463959, -0.04605237394571304, 3.014320135116577, 1.9896074533462524
281867, -86.1836929321289, 1.8454511165618896, 1.9083703756332397, 2.0472984313964844, -0.2957662343978882, -0.41589221358299255, -0.007000873330980539, 2.0903844833374023, -2.8730826377868652, 0, 0, 0, 0.0, 0.0, 0.0, 0.0, 2.046267509460449, -0.28902527689933777, -0.4200737476348877, -0.03747729957103729, 2.9758474826812744, 1.953123927116394
281877, -87.74050903320312, 1.6599540710449219, 2.0210437774658203, 2.046267509460449, -0.28902527689933777, -0.4200737476348877, -0.017546283081173897, 2.147461414337158, -2.8389816284179688, 0, 0, 0, 0.0, 0.0, 0.0, 0.0, 2.046267509460449, -0.28902527689933777, -0.4200737476348877, -0.03747729957103729, 2.9758474826812744, 1.953123927116394
281887, -87.76046752929688, 1.524116039276123, 2.057955741882324, 2.0457632541656494, -0.3034675419330597, -0.405857652425766, -0.022019483149051666, 2.040046215057373, -2.8316144943237305, 0, 0, 0, 0.0, 0.0, 0.0, 0.0, 2.046267509460449, -0.28902527689933777, -0.4200737476348877, -0.03747729957103729, 2.9758474826812744, 1.953123927116394
281898, -86.20612335205078, 1.4368783235549927, 1.9916083812713623, 2.0453011989593506, -0.3048333525657654, -0.4040586054325104, -0.02611314319074154, 2.030566930770874, -2.8242974281311035, 0, 0, 0, 0.0, 0.0, 0.0, 0.0, 2.046267509460449, -0.28902527689933777, -0.4200737476348877, -0.03747729957103729, 2.9758474826812744, 1.953123927116394
281907, -86.2026138305664, 1.3136253356933594, 2.0524051189422607, 2.044854164123535, -0.29170146584510803, -0.41694992780685425, -0.029220396652817726, 2.127469778060913, -2.823496103286743, 0, 0, 0, 0.0, 0.0, 0.0, 0.0, 2.046267509460449, -0.28902527689933777, -0.4200737476348877, -0.03747729957103729, 2.9758474826812744, 1.953123927116394
281917, -87.6852798461914, 1.2716463804244995, 2.1773507595062256, 2.044854164123535, -0.29170146584510803, -0.41694992780685425, -0.029220396652817726, 2.127469778060913, -2.823496103286743, 0, 0, 0, 0.0, 0.0, 0.0, 0.0, 2.0439233779907227, -0.284756064414978, -0.4329480230808258, -0.018878644332289696, 2.995081901550293, 2.0000007152557373
281927, -87.71381378173828, 1.1511096954345703, 2.2626702785491943, 2.0439233779907227, -0.284756064414978, -0.4329480230808258, -0.0348045639693737, 2.119539260864258, -2.911557197570801, 0, 0, 0, 0.0, 0.0, 0.0, 0.0, 2.0439233779907227, -0.284756064414978, -0.4329480230808258, -0.018878644332289696, 2.995081901550293, 2.0000007152557373
281957, -87.71578216552734, 0.8674125671386719, 2.573547124862671, 2.0433835983276367, -0.2877556085586548, -0.4296360909938812, -0.03853517025709152, 2.0994009971618652, -2.897810935974121, 0, 0, 0, 0.0, 0.0, 0.0, 0.0, 2.042309284210205, -0.2762044668197632, -0.4399585425853729, -0.00590966921299696, 3.023531198501587, 1.985485553741455
281977, -87.73099517822266, 0.7522075176239014, 2.8212459087371826, 2.0433835983276367, -0.2877556085586548, -0.4296360909938812, -0.03853517025709152, 2.0994009971618652, -2.897810935974121, 0, 0, 0, 0.0, 0.0, 0.0, 0.0, 2.0412216186523438, -0.27920252084732056, -0.4369005262851715, 0.004303176421672106, 3.0054824352264404, 1.9663598537445068
281987, -87.74005126953125, 0.7191396355628967, 2.9625556468963623, 2.0408172607421875, -0.2970525026321411, -0.4197466969490051, -0.05249940976500511, 2.0375125408172607, -2.8453752994537354, 0, 0, 0, 0.0, 0.0, 0.0, 0.0, 2.0412216186523438, -0.27920252084732056, -0.4369005262851715, 0.004303176421672106, 3.0054824352264404, 1.9663598537445068
281997, -86.17418670654297, 0.6984392404556274, 2.924900531768799, 2.040410280227661, -0.3001611530780792, -0.4160360097885132, -0.054207928478717804, 2.0180795192718506, -2.828794240951538, 0, 0, 0, 0.0, 0.0, 0.0, 0.0, 2.0412216186523438, -0.27920252084732056, -0.4369005262851715, 0.004303176421672106, 3.0054824352264404, 1.9663598537445068
282007, -86.21001434326172, 0.691891074180603, 3.0679478645324707, 2.0399742126464844, -0.2897486388683319, -0.42514070868492126, -0.055475737899541855, 2.100799560546875, -2.815181255340576, 0, 0, 0, 0.0, 0.0, 0.0, 0.0, 2.0400586128234863, -0.30296581983566284, -0.4126359522342682, 0.01854255609214306, 2.890519618988037, 1.8891311883926392
282017, -87.75563049316406, 0.7073145508766174, 3.252713918685913, 2.0396339893341064, -0.29252341389656067, -0.4218894839286804, -0.05659966543316841, 2.0837490558624268, -2.8020758628845215, 0, 0, 0, 0.0, 0.0, 0.0, 0.0, 2.0400586128234863, -0.30296581983566284, -0.4126359522342682, 0.01854255609214306, 2.890519618988037, 1.8891311883926392
282027, -86.26725006103516, 0.7269234657287598, 3.360454559326172, 2.039109706878662, -0.2830754220485687, -0.4409499764442444, -0.05887173116207123, 2.0949182510375977, -2.904939889907837, 0, 0, 0, 0.0, 0.0, 0.0, 0.0, 2.039414405822754, -0.3060612678527832, -0.40923258662223816, 0.025488730520009995, 2.8709399700164795, 1.871174693107605
282038, -86.2420654296875, 0.7682048678398132, 3.484143018722534, 2.039039373397827, -0.2956230044364929, -0.4186006486415863, -0.057867273688316345, 2.0630996227264404, -2.786357879638672, 0, 0, 0, 0.0, 0.0, 0.0, 0.0, 2.039414405822754, -0.3060612678527832, -0.40923258662223816, 0.025488730520009995, 2.8709399700164795, 1.871174693107605
282047, -87.75199890136719, 0.8131104111671448, 3.6596903800964355, 2.0389187335968018, -0.2993464767932892, -0.4143119156360626, -0.0568230114877224, 2.0420825481414795, -2.766592264175415, 0, 0, 0, 0.0, 0.0, 0.0, 0.0, 2.039414405822754, -0.3060612678527832, -0.40923258662223816, 0.025488730520009995, 2.8709399700164795, 1.871174693107605
282057, -86.08830261230469, 0.8312188982963562, 3.6081466674804688, 2.038489580154419, -0.28967347741127014, -0.43328219652175903, -0.058332499116659164, 2.057382822036743, -2.8683855533599854, 0, 0, 0, 0.0, 0.0, 0.0, 0.0, 2.039414405822754, -0.3060612678527832, -0.40923258662223816, 0.025488730520009995, 2.8709399700164795, 1.871174693107605
282067, -86.09062194824219, 0.901331901550293, 3.7313740253448486, 2.0381524562835693, -0.27833324670791626, -0.4426022469997406, -0.059700630605220795, 2.147771120071411, -2.8518269062042236, 0, 0, 0, 0.0, 0.0, 0.0, 0.0, 2.039414405822754, -0.3060612678527832, -0.40923258662223816, 0.025488730520009995, 2.8709399700164795, 1.871174693107605
282077, -86.12638854980469, 0.9848558306694031, 3.8499131202697754, 2.038078546524048, -0.27975526452064514, -0.44123345613479614, -0.05865825340151787, 2.1381382942199707, -2.8433609008789062, 0, 0, 0, 0.0, 0.0, 0.0, 0.0, 2.0386734008789062, -0.30388590693473816, -0.4092453122138977, 0.03529781475663185, 2.8649473190307617, 1.830213189125061
282088, -86.13639831542969, 1.0921931266784668, 3.9486196041107178, 2.038123369216919, -0.28322893381118774, -0.43707555532455444, -0.05674269422888756, 2.118478298187256, -2.826631784439087, 0, 0, 0, 0.0, 0.0, 0.0, 0.0, 2.0386734008789062, -0.30388590693473816, -0.4092453122138977, 0.03529781475663185, 2.8649473190307617, 1.830213189125061
282097, -86.1880111694336, 1.204409122467041, 4.032583236694336, 2.0382630825042725, -0.28621944785118103, -0.43323981761932373, -0.05390576273202896, 2.102593183517456, -2.810316324234009, 0, 0, 0, 0.0, 0.0, 0.0, 0.0, 2.0386734008789062, -0.30388590693473816, -0.4092453122138977, 0.03529781475663185, 2.8649473190307617, 1.830213189125061
282107, -86.25402069091797, 1.3225263357162476, 4.1019792556762695, 2.038456439971924, -0.2888777554035187, -0.42972397804260254, -0.050958190113306046, 2.0870063304901123, -2.7966315746307373, 0, 0, 0, 0.0, 0.0, 0.0, 0.0, 2.0386734008789062, -0.30388590693473816, -0.4092453122138977, 0.03529781475663185, 2.8649473190307617, 1.830213189125061
282117, -86.27701568603516, 1.4491298198699951, 4.150764465332031, 2.0386977195739746, -0.2912023961544037, -0.42648983001708984, -0.047888558357954025, 2.0731213092803955, -2.7846875190734863, 0, 0, 0, 0.0, 0.0, 0.0, 0.0, 2.0386734008789062, -0.30388590693473816, -0.4092453122138977, 0.03529781475663185, 2.8649473190307617, 1.830213189125061
282138, -86.29129028320312, 1.693103551864624, 4.212006568908691, 2.039036512374878, -0.2879209816455841, -0.43719324469566345, -0.04411010444164276, 2.061708688735962, -2.849797010421753, 0, 0, 0, 0.0, 0.0, 0.0, 0.0, 2.03981351852417, -0.31087544560432434, -0.40512755513191223, 0.03109624981880188, 2.8156933784484863, 1.8338508605957031
282148, -87.69276428222656, 1.77913498878479, 4.327517509460449, 2.0397894382476807, -0.3008519411087036, -0.4138258695602417, -0.037677597254514694, 2.0236093997955322, -2.7315196990966797, 0, 0, 0, 0.0, 0.0, 0.0, 0.0, 2.03981351852417, -0.31087544560432434, -0.40512755513191223, 0.03109624981880188, 2.8156933784484863, 1.8338508605957031
282157, -87.70370483398438, 1.9032472372055054, 4.329576015472412, 2.039829730987549, -0.2935381233692169, -0.4291572868824005, -0.03712275251746178, 2.035029411315918, -2.8174264430999756, 0, 0, 0, 0.0, 0.0, 0.0, 0.0, 2.03981351852417, -0.31087544560432434, -0.40512755513191223, 0.03109624981880188, 2.8156933784484863, 1.8338508605957031
282167, -86.27860260009766, 1.9393343925476074, 4.210528373718262, 2.040313482284546, -0.2974119782447815, -0.4240269660949707, -0.03335707262158394, 2.015465259552002, -2.796764612197876, 0, 0, 0, 0.0, 0.0, 0.0, 0.0, 2.03981351852417, -0.31087544560432434, -0.40512755513191223, 0.03109624981880188, 2.8156933784484863, 1.8338508605957031
282177, -87.64736938476562, 2.1540496349334717, 4.2821946144104, 2.040322780609131, -0.28649336099624634, -0.4330388605594635, -0.03492783382534981, 2.095287799835205, -2.79045033454895, 0, 0, 0, 0.0, 0.0, 0.0, 0.0, 2.03981351852417, -0.31087544560432434, -0.40512755513191223, 0.03109624981880188, 2.8156933784484863, 1.8338508605957031
282187, -86.22782135009766, 2.181079626083374, 4.15615177154541, 2.04130220413208, -0.3034299314022064, -0.4150678813457489, -0.02618958055973053, 1.992547869682312, -2.7602601051330566, 0, 0, 0, 0.0, 0.0, 0.0, 0.0, 2.04130220413208, -0.3034299314022064, -0.4150678813457489, 0.01882966049015522, 2.8422422409057617, 1.8738521337509155
282197, -86.1869125366211, 2.2897493839263916, 4.108580589294434, 2.0413241386413574, -0.2922108769416809, -0.42443594336509705, -0.02841145731508732, 2.074737071990967, -2.756798505783081, 0, 0, 0, 0.0, 0.0, 0.0, 0.0, 2.04130220413208, -0.3034299314022064, -0.4150678813457489, 0.01882966049015522, 2.8422422409057617, 1.8738521337509155
282207, -86.21979522705078, 2.39267635345459, 4.0537309646606445, 2.0418519973754883, -0.29600265622138977, -0.41917845606803894, -0.025150561705231667, 2.0601344108581543, -2.735604763031006, 0, 0, 0, 0.0, 0.0, 0.0, 0.0, 2.0422680377960205, -0.30907142162323, -0.4062255322933197, 0.011253009550273418, 2.8084616661071777, 1.8530011177062988
282217, -86.23489379882812, 2.4885759353637695, 3.99037766456604, 2.042304039001465, -0.2976279854774475, -0.41596975922584534, -0.022556915879249573, 2.0561461448669434, -2.726369857788086, 0, 0, 0, 0.0, 0.0, 0.0, 0.0, 2.0422680377960205, -0.30907142162323, -0.4062255322933197, 0.011253009550273418, 2.8084616661071777, 1.8530011177062988
282227, -87.57106018066406, 2.569957733154297, 4.0582499504089355, 2.042790651321411, -0.30045318603515625, -0.41156700253486633, -0.019705742597579956, 2.0451996326446533, -2.711658000946045, 0, 0, 0, 0.0, 0.0, 0.0, 0.0, 2.042790651321411, -0.30045318603515625, -0.41156700253486633, 0.004808690398931503, 2.8426384925842285, 1.8589643239974976
282237, -87.62645721435547, 2.6581761837005615, 3.9742960929870605, 2.043006420135498, -0.29282158613204956, -0.42654120922088623, -0.01893528923392296, 2.0619730949401855, -2.7962160110473633, 0, 0, 0, 0.0, 0.0, 0.0, 0.0, 2.042790651321411, -0.30045318603515625, -0.41156700253486633, 0.004808690398931503, 2.8426384925842285, 1.8589643239974976
282247, -87.59510803222656, 2.7394938468933105, 3.8845393657684326, 2.04349422454834, -0.29497334361076355, -0.4227205514907837, -0.01590666174888611, 2.0535736083984375, -2.7858166694641113, 0, 0, 0, 0.0, 0.0, 0.0, 0.0, 2.0437097549438477, -0.30470800399780273, -0.40411683917045593, -0.003991568926721811, 2.81790828704834, 1.8488672971725464
282257, -87.54219055175781, 2.805760145187378, 3.7862753868103027, 2.04349422454834, -0.29497334361076355, -0.4227205514907837, -0.01590666174888611, 2.0535736083984375, -2.7858166694641113, 0, 0, 0, 0.0, 0.0, 0.0, 0.0, 2.0437097549438477, -0.30470800399780273, -0.40411683917045593, -0.003991568926721811, 2.81790828704834, 1.8488672971725464
282267, -87.55516815185547, 2.8601186275482178, 3.682027578353882, 2.044386863708496, -0.2995150685310364, -0.4146420359611511, -0.011632146313786507, 2.0421063899993896, -2.7578840255737305, 0, 0, 0, 0.0, 0.0, 0.0, 0.0, 2.044541358947754, -0.30884820222854614, -0.39674365520477295, -0.012841503135859966, 2.7945556640625, 1.8383512496948242
282277, -87.53765106201172, 2.902031183242798, 3.5688064098358154, 2.0447967052459717, -0.30188968777656555, -0.4105624854564667, -0.009499129839241505, 2.0343072414398193, -2.7458817958831787, 0, 0, 0, 0.0, 0.0, 0.0, 0.0, 2.044541358947754, -0.30884820222854614, -0.39674365520477295, -0.012841503135859966, 2.7945556640625, 1.8383512496948242
282288, -86.12232971191406, 2.880659341812134, 3.4121053218841553, 2.045159101486206, -0.30370673537254333, -0.40694180130958557, -0.00777292950078845, 2.0305488109588623, -2.7350335121154785, 0, 0, 0, 0.0, 0.0, 0.0, 0.0, 2.044541358947754, -0.30884820222854614, -0.39674365520477295, -0.012841503135859966, 2.7945556640625, 1.8383512496948242
282307, -86.1940689086914, 2.916367292404175, 3.1904664039611816, 2.0454795360565186, -0.2932806611061096, -0.4136282503604889, -0.009201782755553722, 2.11287260055542, -2.7278318405151367, 0, 0, 0, 0.0, 0.0, 0.0, 0.0, 2.0457773208618164, -0.306179940700531, -0.40101709961891174, -0.026976052671670914, 2.8069229125976562, 1.9069054126739502
282317, -86.16062927246094, 2.9107115268707275, 3.081376552581787, 2.0454795360565186, -0.2932806611061096, -0.4136282503604889, -0.009201782755553722, 2.11287260055542, -2.7278318405151367, 0, 0, 0, 0.0, 0.0, 0.0, 0.0, 2.0460047721862793, -0.3069027364253998, -0.3985968232154846, -0.030087735503911972, 2.8018856048583984, 1.9085898399353027
282327, -86.16181945800781, 2.895454168319702, 2.9682564735412598, 2.0454795360565186, -0.2932806611061096, -0.4136282503604889, -0.009201782755553722, 2.11287260055542, -2.7278318405151367, 0, 0, 0, 0.0, 0.0, 0.0, 0.0, 2.0462212562561035, -0.30876320600509644, -0.39508146047592163, -0.03259371221065521, 2.791811466217041, 1.90300452709198
282337, -87.54215240478516, 2.9271318912506104, 3.003377676010132, 2.046212911605835, -0.29805266857147217, -0.4040300250053406, -0.006679242011159658, 2.1023764610290527, -2.7026102542877197, 0, 0, 0, 0.0, 0.0, 0.0, 0.0, 2.0462212562561035, -0.30876320600509644, -0.39508146047592163, -0.03259371221065521, 2.791811466217041, 1.90300452709198
282357, -86.1203842163086, 2.827113389968872, 2.7329514026641846, 2.0463850498199463, -0.2896122336387634, -0.4195186495780945, -0.005296184215694666, 2.1186153888702393, -2.793055534362793, 0, 0, 0, 0.0, 0.0, 0.0, 0.0, 2.0462212562561035, -0.30876320600509644, -0.39508146047592163, -0.03259371221065521, 2.791811466217041, 1.90300452709198
282378, -86.07801055908203, 2.7124714851379395, 2.5218935012817383, 2.04667592048645, -0.28955233097076416, -0.4180596172809601, -0.005093890242278576, 2.120864152908325, -2.793936252593994, 0, 0, 0, 0.0, 0.0, 0.0, 0.0, 2.0462212562561035, -0.30876320600509644, -0.39508146047592163, -0.03259371221065521, 2.791811466217041, 1.90300452709198
282387, -86.20048522949219, 2.6408159732818604, 2.4302196502685547, 2.0466039180755615, -0.2786187529563904, -0.42511025071144104, -0.008124735206365585, 2.2048492431640625, -2.7819581031799316, 0, 0, 0, 0.0, 0.0, 0.0, 0.0, 2.0462212562561035, -0.30876320600509644, -0.39508146047592163, -0.03259371221065521, 2.791811466217041, 1.90300452709198
282397, -86.12246704101562, 2.556429624557495, 2.345752239227295, 2.0466039180755615, -0.2786187529563904, -0.42511025071144104, -0.008124735206365585, 2.2048492431640625, -2.7819581031799316, 0, 0, 0, 0.0, 0.0, 0.0, 0.0, 2.0462212562561035, -0.30876320600509644, -0.39508146047592163, -0.03259371221065521, 2.791811466217041, 1.90300452709198
282417, -86.19409942626953, 2.355330467224121, 2.206826686859131, 2.0466039180755615, -0.2786187529563904, -0.42511025071144104, -0.008124735206365585, 2.2048492431640625, -2.7819581031799316, 0, 0, 0, 0.0, 0.0, 0.0, 0.0, 2.0467050075531006, -0.2962808310985565, -0.4063315689563751, -0.04277608171105385, 2.8517863750457764, 1.974051833152771
282427, -87.70101928710938, 2.3331668376922607, 2.2710325717926025, 2.0466039180755615, -0.2786187529563904, -0.42511025071144104, -0.008124735206365585, 2.2048492431640625, -2.7819581031799316, 0, 0, 0, 0.0, 0.0, 0.0, 0.0, 2.0464024543762207, -0.29839736223220825, -0.402048259973526, -0.04098743945360184, 2.8415582180023193, 1.9661203622817993
282438, -87.66755676269531, 2.2207705974578857, 2.223355531692505, 2.0466039180755615, -0.2786187529563904, -0.42511025071144104, -0.008124735206365585, 2.2048492431640625, -2.7819581031799316, 0, 0, 0, 0.0, 0.0, 0.0, 0.0, 2.0464024543762207, -0.29839736223220825, -0.402048259973526, -0.04098743945360184, 2.8415582180023193, 1.9661203622817993
282448, -87.76072692871094, 2.1023919582366943, 2.188626766204834, 2.046086311340332, -0.2795082628726959, -0.42693081498146057, -0.013958308845758438, 2.1674318313598633, -2.844151496887207, 0, 0, 0, 0.0, 0.0, 0.0, 0.0, 2.0464024543762207, -0.29839736223220825, -0.402048259973526, -0.04098743945360184, 2.8415582180023193, 1.9661203622817993
282457, -87.70087432861328, 1.9814302921295166, 2.172110080718994, 2.046086311340332, -0.2795082628726959, -0.42693081498146057, -0.013958308845758438, 2.1674318313598633, -2.844151496887207, 0, 0, 0, 0.0, 0.0, 0.0, 0.0, 2.0464024543762207, -0.29839736223220825, -0.402048259973526, -0.04098743945360184, 2.8415582180023193, 1.9661203622817993
282467, -86.24052429199219, 1.8941888809204102, 2.0798957347869873, 2.046086311340332, -0.2795082628726959, -0.42693081498146057, -0.013958308845758438, 2.1674318313598633, -2.844151496887207, 0, 0, 0, 0.0, 0.0, 0.0, 0.0, 2.045403480529785, -0.29312095046043396, -0.4032886326313019, -0.03372623771429062, 2.8632113933563232, 1.9434828758239746
282477, -87.81453704833984, 1.7328228950500488, 2.184378147125244, 2.045403480529785, -0.29312095046043396, -0.4032886326313019, -0.020717129111289978, 2.1276814937591553, -2.7292375564575195, 0, 0, 0, 0.0, 0.0, 0.0, 0.0, 2.04504656791687, -0.29253050684928894, -0.40395432710647583, -0.030422670766711235, 2.8669517040252686, 1.9438786506652832
282488, -86.2701187133789, 1.6457628011703491, 2.10556697845459, 2.0450351238250732, -0.30512261390686035, -0.39238443970680237, -0.02357369475066662, 2.0326156616210938, -2.736678123474121, 0, 0, 0, 0.0, 0.0, 0.0, 0.0, 2.04504656791687, -0.29253050684928894, -0.40395432710647583, -0.030422670766711235, 2.8669517040252686, 1.9438786506652832
282507, -86.24303436279297, 1.4194575548171997, 2.183455228805542, 2.0440211296081543, -0.2900223135948181, -0.413754403591156, -0.030367309227585793, 2.0987000465393066, -2.8065786361694336, 0, 0, 0, 0.0, 0.0, 0.0, 0.0, 2.04504656791687, -0.29253050684928894, -0.40395432710647583, -0.030422670766711235, 2.8669517040252686, 1.9438786506652832
282517, -86.25908660888672, 1.310378074645996, 2.2434098720550537, 2.0440211296081543, -0.2900223135948181, -0.413754403591156, -0.030367309227585793, 2.0987000465393066, -2.8065786361694336, 0, 0, 0, 0.0, 0.0, 0.0, 0.0, 2.0436103343963623, -0.2923433780670166, -0.411079466342926, -0.017022768035531044, 2.8781824111938477, 1.9721609354019165
282539, -86.17646789550781, 1.1207022666931152, 2.3968732357025146, 2.0435335636138916, -0.3014712631702423, -0.3936980366706848, -0.03492133319377899, 2.071918487548828, -2.699552536010742, 0, 0, 0, 0.0, 0.0, 0.0, 0.0, 2.043180465698242, -0.29433155059814453, -0.408698707818985, -0.012927771545946598, 2.8695333003997803, 1.9606564044952393
282547, -87.6624984741211, 1.0983811616897583, 2.5410192012786865, 2.042340040206909, -0.2871289849281311, -0.4139890968799591, -0.041355110704898834, 2.133063793182373, -2.762650966644287, 0, 0, 0, 0.0, 0.0, 0.0, 0.0, 2.043180465698242, -0.29433155059814453, -0.408698707818985, -0.012927771545946598, 2.8695333003997803, 1.9606564044952393
282557, -87.7492904663086, 1.0318714380264282, 2.646557331085205, 2.0419232845306396, -0.27965185046195984, -0.4300077557563782, -0.04325807839632034, 2.1362922191619873, -2.856055974960327, 0, 0, 0, 0.0, 0.0, 0.0, 0.0, 2.0419299602508545, -0.28994256258010864, -0.41096237301826477, -0.001981781329959631, 2.887144088745117, 1.9280582666397095
282567, -87.76615905761719, 0.9697170257568359, 2.759483814239502, 2.0419530868530273, -0.30304136872291565, -0.39902615547180176, -0.044248148798942566, 2.0186991691589355, -2.752747058868408, 0, 0, 0, 0.0, 0.0, 0.0, 0.0, 2.0415215492248535, -0.2924192249774933, -0.4082115888595581, 0.001955525716766715, 2.8763294219970703, 1.914244532585144
282578, -86.20092010498047, 0.9276167750358582, 2.7139151096343994, 2.041557788848877, -0.30527448654174805, -0.3964254856109619, -0.04671037197113037, 2.0041539669036865, -2.743659496307373, 0, 0, 0, 0.0, 0.0, 0.0, 0.0, 2.0411250591278076, -0.29465892910957336, -0.40580376982688904, 0.006002773996442556, 2.866763114929199, 1.9021753072738647
282587, -86.18387603759766, 0.8795925974845886, 2.818448543548584, 2.041557788848877, -0.30527448654174805, -0.3964254856109619, -0.04671037197113037, 2.0041539669036865, -2.743659496307373, 0, 0, 0, 0.0, 0.0, 0.0, 0.0, 2.0411250591278076, -0.29465892910957336, -0.40580376982688904, 0.006002773996442556, 2.866763114929199, 1.9021753072738647
282599, -87.87865447998047, 0.8563215732574463, 3.127203941345215, 2.0406601428985596, -0.29283225536346436, -0.4088191092014313, -0.05068373307585716, 2.0946967601776123, -2.742892026901245, 0, 0, 0, 0.0, 0.0, 0.0, 0.0, 2.0411250591278076, -0.29465892910957336, -0.40580376982688904, 0.006002773996442556, 2.866763114929199, 1.9021753072738647
282607, -86.27996826171875, 0.8411449790000916, 3.084427833557129, 2.040365695953369, -0.306191086769104, -0.39694729447364807, -0.05210711807012558, 1.9854406118392944, -2.746692419052124, 0, 0, 0, 0.0, 0.0, 0.0, 0.0, 2.0398330688476562, -0.2858465313911438, -0.4248928725719452, 0.016774997115135193, 2.9181835651397705, 1.9766545295715332
282617, -86.47319030761719, 0.8447492122650146, 3.226287603378296, 2.03997540473938, -0.29574039578437805, -0.40627357363700867, -0.05380433425307274, 2.0702624320983887, -2.735619068145752, 0, 0, 0, 0.0, 0.0, 0.0, 0.0, 2.0398330688476562, -0.2858465313911438, -0.4248928725719452, 0.016774997115135193, 2.9181835651397705, 1.9766545295715332
282628, -88.04342651367188, 0.872014582157135, 3.402864933013916, 2.0397441387176514, -0.299568772315979, -0.40262293815612793, -0.05408526211977005, 2.0401241779327393, -2.7267062664031982, 0, 0, 0, 0.0, 0.0, 0.0, 0.0, 2.0398330688476562, -0.2858465313911438, -0.4248928725719452, 0.016774997115135193, 2.9181835651397705, 1.9766545295715332
282638, -87.95352935791016, 0.9129652976989746, 3.520245313644409, 2.0393929481506348, -0.29356682300567627, -0.4171907305717468, -0.055009838193655014, 2.0321266651153564, -2.815631151199341, 0, 0, 0, 0.0, 0.0, 0.0, 0.0, 2.0398330688476562, -0.2858465313911438, -0.4248928725719452, 0.016774997115135193, 2.9181835651397705, 1.9766545295715332
282647, -87.90201568603516, 0.9558676481246948, 3.640643835067749, 2.039458990097046, -0.3057405650615692, -0.39603391289711, -0.05326375365257263, 2.0098624229431152, -2.6949541568756104, 0, 0, 0, 0.0, 0.0, 0.0, 0.0, 2.0398330688476562, -0.2858465313911438, -0.4248928725719452, 0.016774997115135193, 2.9181835651397705, 1.9766545295715332
282657, -87.90853118896484, 1.0186705589294434, 3.7526590824127197, 2.039151668548584, -0.2993658483028412, -0.41064921021461487, -0.05413120612502098, 2.0057265758514404, -2.783541202545166, 0, 0, 0, 0.0, 0.0, 0.0, 0.0, 2.0398330688476562, -0.2858465313911438, -0.4248928725719452, 0.016774997115135193, 2.9181835651397705, 1.9766545295715332
282667, -87.84654235839844, 1.0916314125061035, 3.842113971710205, 2.039090633392334, -0.3017425537109375, -0.4077898859977722, -0.052889660000801086, 1.9921045303344727, -2.7718961238861084, 0, 0, 0, 0.0, 0.0, 0.0, 0.0, 2.0388495922088623, -0.29181474447250366, -0.4161510467529297, 0.029605865478515625, 2.8850057125091553, 1.8891783952713013
