timeTick, roll, pitch, yaw, stateX, stateY, stateZ, stateVX, stateVY, stateVZ, stateROLL, statePITCH, stateYAW, whisker1, whisker2, whisker3, motor1, motor2, motor3, motor4, kalX, kalY, kalZ, kalPX, kalPY, kalPZ
787625, 0.1973722130060196, 2.144587516784668, -0.5143702030181885, 0, 0, 0, 0, 0, 0, 0, 0, 0, 0, 0, 0, 0, 0, 0, 0, 0, 0, 0, 0, 0, 0
787635, 0.24692757427692413, 2.1096138954162598, -0.5246585607528687, 0, 0, 0, 0, 0, 0, 0, 0, 0, 0, 0, 0, 50346.0, 43186.0, 49094.0, 55863.0, 0.5800139904022217, -1.379974126815796, 0.5046594142913818, -0.03308146074414253, 0.0318153090775013, 0.031208239495754242
787645, 0.24021181464195251, 2.110100746154785, -0.5065117478370667, 0, 0, 0, 0, 0, 0, 0, 0, 0, 0, 0, 0, 49459.0, 45226.0, 49216.0, 55182.0, 0.5796838402748108, -1.3795877695083618, 0.5050321817398071, -0.03568898141384125, 0.030516453087329865, 0.028955085203051567
787655, 0.2444431185722351, 2.106123208999634, -0.49672478437423706, 0, 0, 0, 0, 0, 0, 0, 0, 0, 0, 0, 0, 46313.0, 51019.0, 52379.0, 50515.0, 0.579261064529419, -1.3794152736663818, 0.505382776260376, -0.038473065942525864, 0.029641980305314064, 0.027912339195609093
787667, 0.42518430948257446, 2.157184600830078, -0.45612919330596924, 0, 0, 0, 0, 0, 0, 0, 0, 0, 0, 0, 0, 49420.0, 46568.0, 50296.0, 53523.0, 0.5790440440177917, -1.378967523574829, 0.5037935376167297, -0.04005980119109154, 0.030247125774621964, 0.015149977058172226
787675, 0.5330031514167786, 2.223350763320923, -0.42014428973197937, 0, 0, 0, 0, 0, 0, 0, 0, 0, 0, 0, 0, 52917.0, 44312.0, 47486.0, 55475.0, 0.5787026286125183, -1.3786876201629639, 0.5039976239204407, -0.04395432025194168, 0.029399333521723747, 0.016695505008101463
787685, 0.6745655536651611, 2.3173937797546387, -0.40996256470680237, 0, 0, 0, 0, 0, 0, 0, 0, 0, 0, 0, 0, 49495.0, 53006.0, 50689.0, 48207.0, 0.5783181190490723, -1.3783878087997437, 0.5041735768318176, -0.046184759587049484, 0.029302479699254036, 0.017898645251989365
787695, 0.8758820295333862, 2.5093352794647217, -0.3708036541938782, 0, 0, 0, 0, 0, 0, 0, 0, 0, 0, 0, 0, 49359.0, 52094.0, 50805.0, 49518.0, 0.5777876973152161, -1.3782647848129272, 0.5043472051620483, -0.05178968608379364, 0.025163589045405388, 0.01961931213736534
787705, 1.061655879020691, 2.6223554611206055, -0.35547205805778503, 0, 0, 0, 0, 0, 0, 0, 0, 0, 0, 0, 0, 52418.0, 51631.0, 47623.0, 49815.0, 0.5773996114730835, -1.377964973449707, 0.5045539140701294, -0.05363576486706734, 0.023991990834474564, 0.02412056177854538
787715, 1.2270641326904297, 2.7684245109558105, -0.36327803134918213, 0, 0, 0, 0, 0, 0, 0, 0, 0, 0, 0, 0, 50351.0, 50317.0, 51246.0, 50529.0, 0.5769328474998474, -1.377711534500122, 0.5029646158218384, -0.058403946459293365, 0.022809313610196114, 0.016022704541683197
787725, 1.3894227743148804, 2.941819906234741, -0.34866663813591003, 0, 0, 0, 0, 0, 0, 0, 0, 0, 0, 0, 0, 50626.0, 47838.0, 50064.0, 53400.0, 0.57651686668396, -1.3776307106018066, 0.5031202435493469, -0.06030621379613876, 0.018744388595223427, 0.01581314019858837
787735, 1.5209578275680542, 3.052764654159546, -0.33833637833595276, 0, 0, 0, 0, 0, 0, 0, 0, 0, 0, 0, 0, 51111.0, 50843.0, 49914.0, 50383.0, 0.576225221157074, -1.3772943019866943, 0.5032802820205688, -0.06121595948934555, 0.018305061385035515, 0.019159406423568726
787745, 1.5872722864151, 3.2036919593811035, -0.41429272294044495, 0, 0, 0, 0, 0, 0, 0, 0, 0, 0, 0, 0, 46526.0, 50592.0, 52827.0, 51671.0, 0.5755122900009155, -1.3772590160369873, 0.5033610463142395, -0.06684808433055878, 0.014584333635866642, 0.022188138216733932
787755, 1.5854274034500122, 3.194542169570923, -0.42083629965782166, 0, 0, 0, 0, 0, 0, 0, 0, 0, 0, 0, 0, 47489.0, 49309.0, 52090.0, 52596.0, 0.5749866962432861, -1.3770889043807983, 0.5020619034767151, -0.07024557888507843, 0.01233744341880083, 0.012509346008300781
787765, 1.648437261581421, 3.3969767093658447, -0.4441474974155426, 0, 0, 0, 0, 0, 0, 0, 0, 0, 0, 0, 0, 47416.0, 51857.0, 52675.0, 50478.0, 0.5742715001106262, -1.3771334886550903, 0.5021167397499084, -0.07539555430412292, 0.007541497237980366, 0.01722140982747078
787775, 1.6426825523376465, 3.5052406787872314, -0.4374847412109375, 0, 0, 0, 0, 0, 0, 0, 0, 0, 0, 0, 0, 50963.0, 49436.0, 49326.0, 52573.0, 0.5736081004142761, -1.3771083354949951, 0.5022342801094055, -0.07970218360424042, 0.004211572930216789, 0.020361848175525665
787785, 1.63640296459198, 3.549801826477051, -0.45231515169143677, 0, 0, 0, 0, 0, 0, 0, 0, 0, 0, 0, 0, 50803.0, 52050.0, 49716.0, 49603.0, 0.572783350944519, -1.3769620656967163, 0.50233393907547, -0.08595211058855057, 0.002464691875502467, 0.019562549889087677
787795, 1.6247100830078125, 3.5745081901550293, -0.45849281549453735, 0, 0, 0, 0, 0, 0, 0, 0, 0, 0, 0, 0, 46103.0, 47797.0, 53845.0, 53650.0, 0.5720451474189758, -1.3768751621246338, 0.5023795962333679, -0.09034856408834457, 0.00041795699507929385, 0.02283981256186962
787805, 1.6226037740707397, 3.480748176574707, -0.43692710995674133, 0, 0, 0, 0, 0, 0, 0, 0, 0, 0, 0, 0, 51760.0, 45038.0, 49642.0, 55487.0, 0.5712425112724304, -1.376869559288025, 0.5007908940315247, -0.09584833681583405, -0.0027337411884218454, 0.010987108573317528
787815, 1.610041856765747, 3.349246025085449, -0.4235345423221588, 0, 0, 0, 0, 0, 0, 0, 0, 0, 0, 0, 0, 52190.0, 48199.0, 48822.0, 53596.0, 0.5704174041748047, -1.3769419193267822, 0.5008369088172913, -0.10074379295110703, -0.006207254249602556, 0.016105635091662407
787825, 1.6062428951263428, 3.2333383560180664, -0.44760650396347046, 0, 0, 0, 0, 0, 0, 0, 0, 0, 0, 0, 0, 46333.0, 50093.0, 53582.0, 52308.0, 0.5695725679397583, -1.3769257068634033, 0.5008996725082397, -0.10513847321271896, -0.0085669606924057, 0.020162543281912804
787835, 1.579356074333191, 3.0096676349639893, -0.4383205771446228, 0, 0, 0, 0, 0, 0, 0, 0, 0, 0, 0, 0, 53316.0, 47776.0, 46623.0, 54305.0, 0.5686566829681396, -1.3769711256027222, 0.5010113716125488, -0.10900790989398956, -0.010939468629658222, 0.025835737586021423
787845, 1.5658670663833618, 2.8903415203094482, -0.4357617497444153, 0, 0, 0, 0, 0, 0, 0, 0, 0, 0, 0, 0, 50410.0, 48599.0, 50556.0, 52814.0, 0.5674926042556763, -1.3769969940185547, 0.4994621276855469, -0.11571402102708817, -0.013487974181771278, 0.017524095252156258
787855, 1.5673730373382568, 2.883908987045288, -0.43655985593795776, 0, 0, 0, 0, 0, 0, 0, 0, 0, 0, 0, 0, 51882.0, 48701.0, 49001.0, 53435.0, 0.5665688514709473, -1.377075433731079, 0.499571830034256, -0.11870408803224564, -0.015863722190260887, 0.015789546072483063
787865, 1.5617084503173828, 2.571812152862549, -0.46249744296073914, 0, 0, 0, 0, 0, 0, 0, 0, 0, 0, 0, 0, 54041.0, 47527.0, 46033.0, 54360.0, 0.5654587149620056, -1.3771699666976929, 0.4996289610862732, -0.12301218509674072, -0.018225960433483124, 0.019562117755413055
787875, 1.5481820106506348, 2.492323398590088, -0.4806981682777405, 0, 0, 0, 0, 0, 0, 0, 0, 0, 0, 0, 0, 47702.0, 50619.0, 52894.0, 51363.0, 0.5643411874771118, -1.377254605293274, 0.4997836947441101, -0.1267278492450714, -0.02017749845981598, 0.02291708067059517
787885, 1.5563743114471436, 2.4180853366851807, -0.4990536570549011, 0, 0, 0, 0, 0, 0, 0, 0, 0, 0, 0, 0, 52314.0, 51436.0, 47972.0, 50673.0, 0.5631759166717529, -1.3773471117019653, 0.49992528557777405, -0.13026081025600433, -0.022277042269706726, 0.024122662842273712
787895, 1.5591546297073364, 2.393490791320801, -0.5164642930030823, 0, 0, 0, 0, 0, 0, 0, 0, 0, 0, 0, 0, 50260.0, 51178.0, 50598.0, 51862.0, 0.5618568658828735, -1.3776146173477173, 0.49754807353019714, -0.13491609692573547, -0.025755971670150757, 0.013870813883841038
787905, 1.5591546297073364, 2.393490791320801, -0.5164642930030823, 0, 0, 0, 0, 0, 0, 0, 0, 0, 0, 0, 0, 48473.0, 50002.0, 52302.0, 52585.0, 0.5606038570404053, -1.377805471420288, 0.4976890981197357, -0.13824982941150665, -0.028216751292347908, 0.01963585801422596
787915, 1.5609147548675537, 2.289750337600708, -0.5527530908584595, 0, 0, 0, 0, 0, 0, 0, 0, 0, 0, 0, 0, 51937.0, 51176.0, 49004.0, 51309.0, 0.5592948794364929, -1.378046989440918, 0.49783241748809814, -0.14168189465999603, -0.03073439933359623, 0.027644993737339973
787925, 1.5484834909439087, 2.280282974243164, -0.5743175148963928, 0, 0, 0, 0, 0, 0, 0, 0, 0, 0, 0, 0, 51094.0, 48032.0, 49016.0, 54300.0, 0.5577777624130249, -1.3783471584320068, 0.49805039167404175, -0.14619509875774384, -0.03321339562535286, 0.032876282930374146
787935, 1.466858983039856, 2.206836223602295, -0.5992580056190491, 0, 0, 0, 0, 0, 0, 0, 0, 0, 0, 0, 0, 45841.0, 49344.0, 53703.0, 52910.0, 0.556488037109375, -1.3784987926483154, 0.4947448670864105, -0.14966659247875214, -0.03530513495206833, 0.017658943310379982
787945, 1.466858983039856, 2.206836223602295, -0.5992580056190491, 0, 0, 0, 0, 0, 0, 0, 0, 0, 0, 0, 0, 50460.0, 51937.0, 50562.0, 51114.0, 0.5552393794059753, -1.378821611404419, 0.49497005343437195, -0.15185944736003876, -0.038105614483356476, 0.022441551089286804
787955, 1.4310020208358765, 2.147780418395996, -0.6255591511726379, 0, 0, 0, 0, 0, 0, 0, 0, 0, 0, 0, 0, 48318.0, 47890.0, 51928.0, 54626.0, 0.5537386536598206, -1.3792643547058105, 0.4952372908592224, -0.15523761510849, -0.04122335836291313, 0.027379056438803673
787965, 1.3993116617202759, 2.1046788692474365, -0.6270546913146973, 0, 0, 0, 0, 0, 0, 0, 0, 0, 0, 0, 0, 51029.0, 48557.0, 48643.0, 54338.0, 0.5524690747261047, -1.3794281482696533, 0.49557387828826904, -0.15699227154254913, -0.042244765907526016, 0.02835356630384922
787975, 1.2988924980163574, 1.9284653663635254, -0.7373961210250854, 0, 0, 0, 0, 0, 0, 0, 0, 0, 0, 0, 0, 47725.0, 50090.0, 52372.0, 52772.0, 0.5509792566299438, -1.3798441886901855, 0.494374543428421, -0.16025838255882263, -0.044938214123249054, 0.02114739641547203
787985, 1.2672061920166016, 1.8526813983917236, -0.7849817276000977, 0, 0, 0, 0, 0, 0, 0, 0, 0, 0, 0, 0, 52697.0, 50218.0, 46940.0, 52741.0, 0.5494234561920166, -1.3801981210708618, 0.49466022849082947, -0.16350699961185455, -0.0472358763217926, 0.029180990532040596
787995, 1.219306230545044, 1.7129650115966797, -0.81051105260849, 0, 0, 0, 0, 0, 0, 0, 0, 0, 0, 0, 0, 48068.0, 48120.0, 51241.0, 54405.0, 0.5480206608772278, -1.380649209022522, 0.49499595165252686, -0.16512338817119598, -0.0498090498149395, 0.036981791257858276
788005, 1.2227565050125122, 1.7087944746017456, -0.8027656674385071, 0, 0, 0, 0, 0, 0, 0, 0, 0, 0, 0, 0, 52034.0, 48609.0, 47162.0, 53999.0, 0.5462517738342285, -1.3811253309249878, 0.49544718861579895, -0.16818659007549286, -0.05189460888504982, 0.04124762490391731
788015, 1.1307584047317505, 1.5264196395874023, -0.8425301313400269, 0, 0, 0, 0, 0, 0, 0, 0, 0, 0, 0, 0, 49259.0, 48893.0, 50741.0, 52925.0, 0.5444528460502625, -1.3816264867782593, 0.49593061208724976, -0.17080684006214142, -0.05389785394072533, 0.04777832329273224
788025, 1.0714030265808105, 1.3348721265792847, -0.8799180388450623, 0, 0, 0, 0, 0, 0, 0, 0, 0, 0, 0, 0, 51656.0, 46715.0, 46387.0, 55188.0, 0.5428924560546875, -1.3819936513900757, 0.49458467960357666, -0.17293357849121094, -0.05533277243375778, 0.04327826574444771
788035, 0.9652942419052124, 1.11459219455719, -0.8961722254753113, 0, 0, 0, 0, 0, 0, 0, 0, 0, 0, 0, 0, 51806.0, 46569.0, 46623.0, 55366.0, 0.5415067672729492, -1.3824114799499512, 0.495092511177063, -0.17332087457180023, -0.05694180727005005, 0.04672718793153763
788045, 0.8821942210197449, 0.9023151397705078, -0.9081107378005981, 0, 0, 0, 0, 0, 0, 0, 0, 0, 0, 0, 0, 47008.0, 47885.0, 50889.0, 54669.0, 0.5400325059890747, -1.3827570676803589, 0.4956231415271759, -0.17403848469257355, -0.05770719423890114, 0.046074070036411285
788055, 0.7629741430282593, 0.5347297191619873, -0.9751594066619873, 0, 0, 0, 0, 0, 0, 0, 0, 0, 0, 0, 0, 52175.0, 48699.0, 44877.0, 54101.0, 0.5385690331459045, -1.3830897808074951, 0.4961074888706207, -0.17396244406700134, -0.05809991434216499, 0.04366730526089668
788065, 0.7680574655532837, 0.5458533763885498, -0.9755728244781494, 0, 0, 0, 0, 0, 0, 0, 0, 0, 0, 0, 0, 49615.0, 48144.0, 49732.0, 53111.0, 0.536726713180542, -1.3837611675262451, 0.4945314824581146, -0.1759113371372223, -0.06051461398601532, 0.0313747338950634
788075, 0.7246943116188049, 0.3487825095653534, -1.0027590990066528, 0, 0, 0, 0, 0, 0, 0, 0, 0, 0, 0, 0, 51203.0, 51391.0, 48230.0, 51012.0, 0.535088062286377, -1.3843334913253784, 0.49489825963974, -0.17621605098247528, -0.061917681246995926, 0.03570624068379402
788085, 0.6989670991897583, 0.23283788561820984, -1.0252097845077515, 0, 0, 0, 0, 0, 0, 0, 0, 0, 0, 0, 0, 50604.0, 49510.0, 48379.0, 53106.0, 0.5335886478424072, -1.3847510814666748, 0.4953880310058594, -0.1758221983909607, -0.06265752762556076, 0.040122922509908676
788095, 0.6379404664039612, 0.1432885080575943, -1.0583112239837646, 0, 0, 0, 0, 0, 0, 0, 0, 0, 0, 0, 0, 50239.0, 47750.0, 47226.0, 55554.0, 0.5320050120353699, -1.385225534439087, 0.49589627981185913, -0.17550472915172577, -0.06353901326656342, 0.041866715997457504
788105, 0.5407590866088867, 0.02189718373119831, -1.098342776298523, 0, 0, 0, 0, 0, 0, 0, 0, 0, 0, 0, 0, 48934.0, 49979.0, 48530.0, 53767.0, 0.5305694341659546, -1.3856641054153442, 0.4964389503002167, -0.17403289675712585, -0.06387147307395935, 0.045576684176921844
788116, 0.42587682604789734, -0.07481375336647034, -1.1330803632736206, 0, 0, 0, 0, 0, 0, 0, 0, 0, 0, 0, 0, 50312.0, 52429.0, 49218.0, 50521.0, 0.5289719700813293, -1.3861303329467773, 0.49460384249687195, -0.17356044054031372, -0.0643070861697197, 0.03062981739640236
788125, 0.35270559787750244, -0.14689254760742188, -1.1707571744918823, 0, 0, 0, 0, 0, 0, 0, 0, 0, 0, 0, 0, 48400.0, 47345.0, 49410.0, 55944.0, 0.527118444442749, -1.3867541551589966, 0.4949931204319, -0.17309822142124176, -0.06512220948934555, 0.03128141164779663
788135, 0.2701099216938019, -0.22753122448921204, -1.2180027961730957, 0, 0, 0, 0, 0, 0, 0, 0, 0, 0, 0, 0, 51259.0, 50565.0, 47769.0, 52239.0, 0.5253674387931824, -1.3872723579406738, 0.495462566614151, -0.17235194146633148, -0.06549199670553207, 0.032576438039541245
788145, 0.19053982198238373, -0.32229119539260864, -1.2570139169692993, 0, 0, 0, 0, 0, 0, 0, 0, 0, 0, 0, 0, 47406.0, 50532.0, 51387.0, 52287.0, 0.5241079926490784, -1.3876382112503052, 0.4959155321121216, -0.16945679485797882, -0.0648769661784172, 0.03622899577021599
788155, 0.14930200576782227, -0.4248117208480835, -1.2747036218643188, 0, 0, 0, 0, 0, 0, 0, 0, 0, 0, 0, 0, 51624.0, 51841.0, 47180.0, 50646.0, 0.522737443447113, -1.388095498085022, 0.49388769268989563, -0.16739292442798615, -0.06481897085905075, 0.023613253608345985
788167, 0.16157963871955872, -0.4911375939846039, -1.3006998300552368, 0, 0, 0, 0, 0, 0, 0, 0, 0, 0, 0, 0, 49948.0, 49639.0, 48764.0, 54004.0, 0.5213229656219482, -1.3885787725448608, 0.4943459630012512, -0.16529779136180878, -0.06450733542442322, 0.02387206256389618
788175, 0.15534627437591553, -0.633603572845459, -1.3382501602172852, 0, 0, 0, 0, 0, 0, 0, 0, 0, 0, 0, 0, 45965.0, 51430.0, 51697.0, 53001.0, 0.5197589993476868, -1.3890613317489624, 0.4946992099285126, -0.16401396691799164, -0.06425843387842178, 0.026340581476688385
788185, 0.11890397220849991, -0.7558666467666626, -1.3713157176971436, 0, 0, 0, 0, 0, 0, 0, 0, 0, 0, 0, 0, 50712.0, 51814.0, 48644.0, 51398.0, 0.5182968378067017, -1.389525294303894, 0.49517711997032166, -0.16108155250549316, -0.06388090550899506, 0.028972018510103226
788195, 0.0803162232041359, -0.8554368019104004, -1.4073258638381958, 0, 0, 0, 0, 0, 0, 0, 0, 0, 0, 0, 0, 54545.0, 48071.0, 43179.0, 54760.0, 0.5168384909629822, -1.3899286985397339, 0.493020623922348, -0.15813757479190826, -0.06312556564807892, 0.013687316328287125
788207, 0.04107231646776199, -0.9567437171936035, -1.4343863725662231, 0, 0, 0, 0, 0, 0, 0, 0, 0, 0, 0, 0, 49233.0, 51648.0, 50321.0, 52503.0, 0.5154125094413757, -1.3904004096984863, 0.4934975206851959, -0.15511707961559296, -0.06268006563186646, 0.018623847514390945
788215, -0.005561867728829384, -1.024561882019043, -1.5068093538284302, 0, 0, 0, 0, 0, 0, 0, 0, 0, 0, 0, 0, 51486.0, 50919.0, 46893.0, 53342.0, 0.5139152407646179, -1.3908747434616089, 0.4940052926540375, -0.1520465463399887, -0.061952900141477585, 0.0242378581315279
788225, -0.021363412961363792, -1.0634639263153076, -1.5294837951660156, 0, 0, 0, 0, 0, 0, 0, 0, 0, 0, 0, 0, 49506.0, 50281.0, 49485.0, 53140.0, 0.5141135454177856, -1.390728235244751, 0.49417632818222046, -0.15124952793121338, -0.06133655831217766, 0.025393933057785034
788235, -0.05403551086783409, -1.1072494983673096, -1.5626078844070435, 0, 0, 0, 0, 0, 0, 0, 0, 0, 0, 0, 0, 48801.0, 46535.0, 49961.0, 56049.0, 0.5129078030586243, -1.3911432027816772, 0.49470436573028564, -0.14817461371421814, -0.06096649542450905, 0.02977677807211876
788245, -0.10767806321382523, -1.1754591464996338, -1.5842828750610352, 0, 0, 0, 0, 0, 0, 0, 0, 0, 0, 0, 0, 52225.0, 50584.0, 47315.0, 53154.0, 0.5117039680480957, -1.3914308547973633, 0.49292051792144775, -0.14523494243621826, -0.05986101180315018, 0.017478635534644127
788255, -0.1705286055803299, -1.2291308641433716, -1.5823026895523071, 0, 0, 0, 0, 0, 0, 0, 0, 0, 0, 0, 0, 47763.0, 51730.0, 52026.0, 51367.0, 0.5106186270713806, -1.3916107416152954, 0.4934006929397583, -0.1415836066007614, -0.057792626321315765, 0.024214433506131172
788267, -0.2351149469614029, -1.296054482460022, -1.6036571264266968, 0, 0, 0, 0, 0, 0, 0, 0, 0, 0, 0, 0, 49954.0, 47649.0, 49310.0, 55395.0, 0.508150577545166, -1.392417073249817, 0.4943404197692871, -0.13603022694587708, -0.05621429905295372, 0.030833130702376366
788275, -0.3285547196865082, -1.3748146295547485, -1.6284483671188354, 0, 0, 0, 0, 0, 0, 0, 0, 0, 0, 0, 0, 50870.0, 50242.0, 48151.0, 53223.0, 0.5082839131355286, -1.3922969102859497, 0.4944784343242645, -0.1354832947254181, -0.055680956691503525, 0.03176514059305191
788285, -0.3549802303314209, -1.4180306196212769, -1.6388081312179565, 0, 0, 0, 0, 0, 0, 0, 0, 0, 0, 0, 0, 49025.0, 50667.0, 49331.0, 53128.0, 0.5072636604309082, -1.3926479816436768, 0.4935181438922882, -0.1315230429172516, -0.05472297966480255, 0.02486179769039154
788295, -0.3893073499202728, -1.4555506706237793, -1.6432831287384033, 0, 0, 0, 0, 0, 0, 0, 0, 0, 0, 0, 0, 48718.0, 48622.0, 50335.0, 54488.0, 0.5061859488487244, -1.393034815788269, 0.4939653277397156, -0.12800270318984985, -0.0537097305059433, 0.027985237538814545
788305, -0.40806591510772705, -1.5027899742126465, -1.6587529182434082, 0, 0, 0, 0, 0, 0, 0, 0, 0, 0, 0, 0, 49512.0, 49085.0, 49512.0, 54027.0, 0.5049468278884888, -1.3934987783432007, 0.4942900240421295, -0.12532591819763184, -0.05287769064307213, 0.029788486659526825
788315, -0.4267585575580597, -1.519585371017456, -1.6719814538955688, 0, 0, 0, 0, 0, 0, 0, 0, 0, 0, 0, 0, 47278.0, 50332.0, 51964.0, 52147.0, 0.5031052827835083, -1.39409601688385, 0.4953223764896393, -0.11754771322011948, -0.0499296598136425, 0.03135458379983902
788325, -0.3879528343677521, -1.510507345199585, -1.6855885982513428, 0, 0, 0, 0, 0, 0, 0, 0, 0, 0, 0, 0, 53563.0, 47574.0, 44405.0, 54896.0, 0.5030351877212524, -1.3941384553909302, 0.495321124792099, -0.11804738640785217, -0.050252169370651245, 0.03134742006659508
788335, -0.3592590093612671, -1.5016371011734009, -1.6917778253555298, 0, 0, 0, 0, 0, 0, 0, 0, 0, 0, 0, 0, 45533.0, 51676.0, 53215.0, 51894.0, 0.5022098422050476, -1.3943973779678345, 0.49411001801490784, -0.11372587829828262, -0.04861045628786087, 0.020639577880501747
788345, -0.3319532871246338, -1.4646532535552979, -1.6946550607681274, 0, 0, 0, 0, 0, 0, 0, 0, 0, 0, 0, 0, 51775.0, 49415.0, 47631.0, 53793.0, 0.5014598369598389, -1.394640326499939, 0.4944881498813629, -0.1095098927617073, -0.04702210798859596, 0.017583267763257027
788355, -0.2965262830257416, -1.4341140985488892, -1.6983399391174316, 0, 0, 0, 0, 0, 0, 0, 0, 0, 0, 0, 0, 50106.0, 50742.0, 49289.0, 52751.0, 0.5003694295883179, -1.3950743675231934, 0.4946976900100708, -0.10692524164915085, -0.04640473425388336, 0.018174339085817337
788365, -0.2927865982055664, -1.406446099281311, -1.7017143964767456, 0, 0, 0, 0, 0, 0, 0, 0, 0, 0, 0, 0, 44607.0, 50462.0, 53801.0, 53093.0, 0.4992162585258484, -1.3955368995666504, 0.49491167068481445, -0.10497557371854782, -0.04606904089450836, 0.019018782302737236
788375, -0.3491990566253662, -1.4050695896148682, -1.7045363187789917, 0, 0, 0, 0, 0, 0, 0, 0, 0, 0, 0, 0, 52215.0, 47430.0, 47513.0, 55358.0, 0.4981673061847687, -1.3959598541259766, 0.4932299554347992, -0.10230600833892822, -0.04550741985440254, 0.0039315191097557545
788385, -0.39585238695144653, -1.4284849166870117, -1.7120734453201294, 0, 0, 0, 0, 0, 0, 0, 0, 0, 0, 0, 0, 51715.0, 47519.0, 48481.0, 55891.0, 0.4971446096897125, -1.3963819742202759, 0.4932960569858551, -0.09989583492279053, -0.04501518979668617, 0.0038266326300799847
788395, -0.38570642471313477, -1.3774399757385254, -1.7050414085388184, 0, 0, 0, 0, 0, 0, 0, 0, 0, 0, 0, 0, 46069.0, 53089.0, 53426.0, 51069.0, 0.49599698185920715, -1.3967660665512085, 0.49338191747665405, -0.09837759286165237, -0.04426126554608345, 0.008085276000201702
788405, -0.4050895869731903, -1.346614956855774, -1.7101562023162842, 0, 0, 0, 0, 0, 0, 0, 0, 0, 0, 0, 0, 50189.0, 50529.0, 49336.0, 53713.0, 0.4950884282588959, -1.397213101387024, 0.49351274967193604, -0.0955187976360321, -0.04377393051981926, 0.01265350915491581
788415, -0.43048810958862305, -1.3563802242279053, -1.697434902191162, 0, 0, 0, 0, 0, 0, 0, 0, 0, 0, 0, 0, 48430.0, 50046.0, 51608.0, 53601.0, 0.49416399002075195, -1.397554874420166, 0.4934309720993042, -0.09297874569892883, -0.042759716510772705, 0.016065672039985657
788425, -0.440971314907074, -1.3288633823394775, -1.6974929571151733, 0, 0, 0, 0, 0, 0, 0, 0, 0, 0, 0, 0, 51356.0, 50394.0, 48420.0, 53535.0, 0.4945816695690155, -1.39718759059906, 0.4938538074493408, -0.08569774776697159, -0.03886197507381439, 0.019379189237952232
788435, -0.48071470856666565, -1.3910716772079468, -1.7060211896896362, 0, 0, 0, 0, 0, 0, 0, 0, 0, 0, 0, 0, 51755.0, 46774.0, 47129.0, 56169.0, 0.49487486481666565, -1.3969544172286987, 0.4942815899848938, -0.07894058525562286, -0.0357246994972229, 0.025288984179496765
788445, -0.46969303488731384, -1.3804575204849243, -1.6923177242279053, 0, 0, 0, 0, 0, 0, 0, 0, 0, 0, 0, 0, 43833.0, 51516.0, 54683.0, 51662.0, 0.49444761872291565, -1.3968607187271118, 0.4948854148387909, -0.0754232332110405, -0.033227209001779556, 0.03155428171157837
788455, -0.4730130434036255, -1.3732829093933105, -1.6771693229675293, 0, 0, 0, 0, 0, 0, 0, 0, 0, 0, 0, 0, 50303.0, 47340.0, 49082.0, 54987.0, 0.49368536472320557, -1.3971322774887085, 0.4952271580696106, -0.07315126061439514, -0.032207995653152466, 0.03268912062048912
788465, -0.4469115436077118, -1.405008316040039, -1.6546229124069214, 0, 0, 0, 0, 0, 0, 0, 0, 0, 0, 0, 0, 51503.0, 46816.0, 47916.0, 55041.0, 0.49346792697906494, -1.397011637687683, 0.4944620132446289, -0.0687851533293724, -0.02976216748356819, 0.029276324436068535
788475, -0.421718567609787, -1.383804440498352, -1.6452432870864868, 0, 0, 0, 0, 0, 0, 0, 0, 0, 0, 0, 0, 48223.0, 50634.0, 50786.0, 52240.0, 0.4936853051185608, -1.3964710235595703, 0.495580792427063, -0.06320164352655411, -0.026042893528938293, 0.0393025204539299
788485, -0.4126737713813782, -1.334591269493103, -1.6335268020629883, 0, 0, 0, 0, 0, 0, 0, 0, 0, 0, 0, 0, 49519.0, 50625.0, 49234.0, 51908.0, 0.4935460686683655, -1.3961082696914673, 0.49679213762283325, -0.05899747833609581, -0.023061485961079597, 0.04450855031609535
788495, -0.42665278911590576, -1.2989298105239868, -1.6269887685775757, 0, 0, 0, 0, 0, 0, 0, 0, 0, 0, 0, 0, 49102.0, 49080.0, 49606.0, 52912.0, 0.4932299256324768, -1.395997166633606, 0.49778831005096436, -0.0556543692946434, -0.021137308329343796, 0.04903033748269081
788505, -0.391836553812027, -1.198477864265442, -1.6219874620437622, 0, 0, 0, 0, 0, 0, 0, 0, 0, 0, 0, 0, 49357.0, 48905.0, 48772.0, 52853.0, 0.4929073750972748, -1.3959113359451294, 0.49857354164123535, -0.052554551512002945, -0.01946626603603363, 0.051953576505184174
788515, -0.36404651403427124, -1.1306198835372925, -1.6178748607635498, 0, 0, 0, 0, 0, 0, 0, 0, 0, 0, 0, 0, 49698.0, 48102.0, 47950.0, 53186.0, 0.49248045682907104, -1.3959654569625854, 0.4993187189102173, -0.04994916543364525, -0.01830746978521347, 0.056662458926439285
788525, -0.32326337695121765, -1.0506163835525513, -1.6230721473693848, 0, 0, 0, 0, 0, 0, 0, 0, 0, 0, 0, 0, 45473.0, 49872.0, 51183.0, 51545.0, 0.4921688437461853, -1.395912528038025, 0.5003280639648438, -0.04723673686385155, -0.016916977241635323, 0.06596461683511734
788535, -0.29346051812171936, -0.9919003844261169, -1.603846788406372, 0, 0, 0, 0, 0, 0, 0, 0, 0, 0, 0, 0, 45787.0, 48934.0, 51437.0, 51209.0, 0.49181297421455383, -1.3958922624588013, 0.5012180805206299, -0.044883742928504944, -0.015474125742912292, 0.07412633299827576
788545, -0.2070743441581726, -0.8944407105445862, -1.5819947719573975, 0, 0, 0, 0, 0, 0, 0, 0, 0, 0, 0, 0, 46201.0, 50600.0, 49636.0, 50029.0, 0.4916601777076721, -1.395693063735962, 0.5025874376296997, -0.04198158159852028, -0.013683688826858997, 0.08146190643310547
788556, -0.10006207972764969, -0.7740545272827148, -1.574694037437439, 0, 0, 0, 0, 0, 0, 0, 0, 0, 0, 0, 0, 47181.0, 47208.0, 49373.0, 52886.0, 0.49133315682411194, -1.3957183361053467, 0.5020161271095276, -0.03968070074915886, -0.012932097539305687, 0.07217368483543396
788565, -0.011144018732011318, -0.6979320645332336, -1.569040060043335, 0, 0, 0, 0, 0, 0, 0, 0, 0, 0, 0, 0, 48246.0, 51567.0, 47927.0, 48995.0, 0.4910113215446472, -1.3956602811813354, 0.5030494332313538, -0.03780701756477356, -0.01184768881648779, 0.0696088895201683
788575, 0.031807899475097656, -0.5843521356582642, -1.570369839668274, 0, 0, 0, 0, 0, 0, 0, 0, 0, 0, 0, 0, 44519.0, 49472.0, 51469.0, 50616.0, 0.4906971752643585, -1.3956818580627441, 0.5039232969284058, -0.03606770932674408, -0.01113760657608509, 0.07068749517202377
788585, 0.06430728733539581, -0.489081472158432, -1.564499855041504, 0, 0, 0, 0, 0, 0, 0, 0, 0, 0, 0, 0, 48616.0, 44584.0, 47951.0, 53982.0, 0.49055537581443787, -1.3955644369125366, 0.5049955248832703, -0.03391531854867935, -0.0103059783577919, 0.07535826414823532
788595, 0.10720715671777725, -0.3856000006198883, -1.5548895597457886, 0, 0, 0, 0, 0, 0, 0, 0, 0, 0, 0, 0, 49161.0, 50139.0, 46965.0, 49475.0, 0.49031075835227966, -1.395465612411499, 0.503390908241272, -0.03237837553024292, -0.009633243083953857, 0.05971461534500122
788605, 0.12105908244848251, -0.31278666853904724, -1.5384907722473145, 0, 0, 0, 0, 0, 0, 0, 0, 0, 0, 0, 0, 46937.0, 48908.0, 49681.0, 51606.0, 0.49004626274108887, -1.3954110145568848, 0.5043233633041382, -0.03119913674890995, -0.009259783662855625, 0.06019258871674538
788615, 0.11554962396621704, -0.28081247210502625, -1.5199055671691895, 0, 0, 0, 0, 0, 0, 0, 0, 0, 0, 0, 0, 49748.0, 44989.0, 47179.0, 53917.0, 0.4897593855857849, -1.3954384326934814, 0.505093514919281, -0.03037918172776699, -0.009240878745913506, 0.06088622286915779
788625, 0.17641936242580414, -0.20560142397880554, -1.5205134153366089, 0, 0, 0, 0, 0, 0, 0, 0, 0, 0, 0, 0, 47737.0, 49859.0, 48901.0, 50594.0, 0.48945385217666626, -1.3954261541366577, 0.5060272812843323, -0.029779156669974327, -0.009145060554146767, 0.061622973531484604
788635, 0.21482694149017334, -0.16866284608840942, -1.51361083984375, 0, 0, 0, 0, 0, 0, 0, 0, 0, 0, 0, 0, 49136.0, 48908.0, 47403.0, 51184.0, 0.4892241060733795, -1.3954002857208252, 0.5055356025695801, -0.02872512862086296, -0.00894987303763628, 0.05182032287120819
788645, 0.28375107049942017, -0.1462550163269043, -1.5182312726974487, 0, 0, 0, 0, 0, 0, 0, 0, 0, 0, 0, 0, 49679.0, 50767.0, 46999.0, 49807.0, 0.48891353607177734, -1.3954029083251953, 0.5063461065292358, -0.02837541326880455, -0.008988051675260067, 0.05306736007332802
788655, 0.31665757298469543, -0.10637275129556656, -1.4977153539657593, 0, 0, 0, 0, 0, 0, 0, 0, 0, 0, 0, 0, 48197.0, 48728.0, 49066.0, 51174.0, 0.4886336028575897, -1.3954455852508545, 0.5070329308509827, -0.02803214080631733, -0.009204843081533909, 0.05642553046345711
788665, 0.3505791425704956, -0.08003130555152893, -1.4893923997879028, 0, 0, 0, 0, 0, 0, 0, 0, 0, 0, 0, 0, 50253.0, 47737.0, 46252.0, 52379.0, 0.48828789591789246, -1.3954086303710938, 0.5080357789993286, -0.027966244146227837, -0.009252369403839111, 0.05959689989686012
788675, 0.387279212474823, -0.08827288448810577, -1.4740110635757446, 0, 0, 0, 0, 0, 0, 0, 0, 0, 0, 0, 0, 46675.0, 46020.0, 49718.0, 53679.0, 0.48795247077941895, -1.3955217599868774, 0.5087578296661377, -0.028016837313771248, -0.009996220469474792, 0.05909470096230507
788685, 0.39533111453056335, -0.060380809009075165, -1.460209608078003, 0, 0, 0, 0, 0, 0, 0, 0, 0, 0, 0, 0, 52025.0, 47432.0, 44413.0, 53157.0, 0.4876618981361389, -1.3955429792404175, 0.5075918436050415, -0.027874261140823364, -0.010430632159113884, 0.04582745209336281
788695, 0.41406553983688354, -0.047189295291900635, -1.4638667106628418, 0, 0, 0, 0, 0, 0, 0, 0, 0, 0, 0, 0, 51715.0, 48425.0, 44739.0, 52374.0, 0.48738062381744385, -1.3954784870147705, 0.508324146270752, -0.02766854502260685, -0.010341926477849483, 0.045951567590236664
788705, 0.4580598473548889, -0.0335296206176281, -1.4632753133773804, 0, 0, 0, 0, 0, 0, 0, 0, 0, 0, 0, 0, 49188.0, 51287.0, 47427.0, 49552.0, 0.48712608218193054, -1.3954719305038452, 0.5089357495307922, -0.027444422245025635, -0.010542595759034157, 0.04810698330402374
788715, 0.48182862997055054, -0.006715384777635336, -1.456011414527893, 0, 0, 0, 0, 0, 0, 0, 0, 0, 0, 0, 0, 45292.0, 49268.0, 51536.0, 51593.0, 0.48678553104400635, -1.3955128192901611, 0.509681761264801, -0.027543548494577408, -0.011054372414946556, 0.04290149360895157
788725, 0.5075350999832153, -0.027484703809022903, -1.4569562673568726, 0, 0, 0, 0, 0, 0, 0, 0, 0, 0, 0, 0, 50563.0, 51067.0, 46092.0, 50068.0, 0.4864450991153717, -1.3955358266830444, 0.5081444978713989, -0.027693869546055794, -0.011696349829435349, 0.028516512364149094
788735, 0.5182998180389404, 0.052214063704013824, -1.4523448944091797, 0, 0, 0, 0, 0, 0, 0, 0, 0, 0, 0, 0, 47855.0, 50780.0, 49593.0, 50981.0, 0.4861445426940918, -1.3955528736114502, 0.5085486769676208, -0.02782021462917328, -0.01200912520289421, 0.027746617794036865
788746, 0.5241114497184753, 0.06589820981025696, -1.445992112159729, 0, 0, 0, 0, 0, 0, 0, 0, 0, 0, 0, 0, 46727.0, 49562.0, 50961.0, 51943.0, 0.48579391837120056, -1.395546555519104, 0.5092658996582031, -0.027793634682893753, -0.012440676800906658, 0.026576267555356026
788757, 0.5583451986312866, 0.09534811228513718, -1.4435969591140747, 0, 0, 0, 0, 0, 0, 0, 0, 0, 0, 0, 0, 50991.0, 49474.0, 46609.0, 52142.0, 0.4854760468006134, -1.3955824375152588, 0.5097965002059937, -0.027986600995063782, -0.013058233074843884, 0.028763072565197945
788765, 0.5352737903594971, 0.10992903262376785, -1.42465078830719, 0, 0, 0, 0, 0, 0, 0, 0, 0, 0, 0, 0, 46751.0, 45231.0, 51263.0, 55219.0, 0.4851115047931671, -1.3956602811813354, 0.5103224515914917, -0.028381748124957085, -0.013884148560464382, 0.02436668984591961
788775, 0.5100177526473999, 0.0844394639134407, -1.4061517715454102, 0, 0, 0, 0, 0, 0, 0, 0, 0, 0, 0, 0, 51211.0, 49115.0, 46980.0, 52617.0, 0.4847213327884674, -1.395829439163208, 0.5096189379692078, -0.028925776481628418, -0.015126192942261696, 0.01740843616425991
788785, 0.5100177526473999, 0.0844394639134407, -1.4061517715454102, 0, 0, 0, 0, 0, 0, 0, 0, 0, 0, 0, 0, 46425.0, 51798.0, 51075.0, 50408.0, 0.48428210616111755, -1.3959616422653198, 0.5100381374359131, -0.029818547889590263, -0.016084415838122368, 0.020117074251174927
788795, 0.4714728891849518, 0.11937905102968216, -1.4126043319702148, 0, 0, 0, 0, 0, 0, 0, 0, 0, 0, 0, 0, 49145.0, 48405.0, 49118.0, 53282.0, 0.4838963449001312, -1.3960776329040527, 0.5104469060897827, -0.030185597017407417, -0.016853272914886475, 0.016947543248534203
788807, 0.44476518034935, 0.11863608658313751, -1.423206090927124, 0, 0, 0, 0, 0, 0, 0, 0, 0, 0, 0, 0, 50327.0, 47909.0, 47705.0, 54003.0, 0.4834892451763153, -1.3961671590805054, 0.5108129382133484, -0.03084172122180462, -0.017475346103310585, 0.017021512612700462
788815, 0.47285711765289307, 0.1753537803888321, -1.4259331226348877, 0, 0, 0, 0, 0, 0, 0, 0, 0, 0, 0, 0, 46845.0, 51869.0, 50955.0, 50612.0, 0.4831428825855255, -1.3963301181793213, 0.5094554424285889, -0.031218374148011208, -0.018475832417607307, 0.004282760433852673
788825, 0.48147445917129517, 0.17826583981513977, -1.4293981790542603, 0, 0, 0, 0, 0, 0, 0, 0, 0, 0, 0, 0, 50854.0, 49464.0, 47823.0, 53183.0, 0.48279157280921936, -1.3964256048202515, 0.509718656539917, -0.031478043645620346, -0.018957629799842834, 0.0025293936487287283
788835, 0.48147445917129517, 0.17826583981513977, -1.4293981790542603, 0, 0, 0, 0, 0, 0, 0, 0, 0, 0, 0, 0, 45951.0, 48147.0, 53019.0, 53758.0, 0.4824032485485077, -1.3964983224868774, 0.5099412798881531, -0.031998470425605774, -0.01933935098350048, 0.0004707588814198971
788847, 0.47052204608917236, 0.15550750494003296, -1.4072680473327637, 0, 0, 0, 0, 0, 0, 0, 0, 0, 0, 0, 0, 48353.0, 49896.0, 50509.0, 53022.0, 0.4819328188896179, -1.3966737985610962, 0.5101209878921509, -0.03288701921701431, -0.02022765576839447, -2.6446792617207393e-05
788855, 0.4599720239639282, 0.15016421675682068, -1.405724287033081, 0, 0, 0, 0, 0, 0, 0, 0, 0, 0, 0, 0, 49688.0, 50620.0, 49253.0, 52508.0, 0.4815733730792999, -1.396718978881836, 0.5096469521522522, -0.033335357904434204, -0.02036704123020172, -0.005422812886536121
788865, 0.4928792417049408, 0.11114806681871414, -1.427864909172058, 0, 0, 0, 0, 0, 0, 0, 0, 0, 0, 0, 0, 46244.0, 52261.0, 52114.0, 51725.0, 0.48117002844810486, -1.3968957662582397, 0.5096896290779114, -0.03382895886898041, -0.02113381214439869, -0.0026667385827749968
788875, 0.4587741792201996, 0.09880882501602173, -1.4173704385757446, 0, 0, 0, 0, 0, 0, 0, 0, 0, 0, 0, 0, 50412.0, 50797.0, 48953.0, 52322.0, 0.48117002844810486, -1.3968957662582397, 0.5096896290779114, -0.03382895886898041, -0.02113381214439869, -0.0026667385827749968
788885, 0.42720934748649597, 0.04471591114997864, -1.3849395513534546, 0, 0, 0, 0, 0, 0, 0, 0, 0, 0, 0, 0, 48300.0, 48621.0, 51515.0, 53539.0, 0.4803174138069153, -1.3971385955810547, 0.5100420713424683, -0.034877803176641464, -0.021977514028549194, 0.0009232376469299197
788895, 0.42720934748649597, 0.04471591114997864, -1.3849395513534546, 0, 0, 0, 0, 0, 0, 0, 0, 0, 0, 0, 0, 51782.0, 50199.0, 46957.0, 52911.0, 0.47976815700531006, -1.3973238468170166, 0.5102362036705017, -0.036004215478897095, -0.022807374596595764, 0.002298572566360235
788905, 0.43708303570747375, 0.05230377987027168, -1.3808976411819458, 0, 0, 0, 0, 0, 0, 0, 0, 0, 0, 0, 0, 46805.0, 51478.0, 52617.0, 52084.0, 0.47931262850761414, -1.3974980115890503, 0.5083931088447571, -0.03627605363726616, -0.02350335195660591, -0.011578584089875221
788915, 0.4059060215950012, 0.054673705250024796, -1.3791159391403198, 0, 0, 0, 0, 0, 0, 0, 0, 0, 0, 0, 0, 47440.0, 52395.0, 52010.0, 51299.0, 0.4787970185279846, -1.397613286972046, 0.5085573196411133, -0.0369332954287529, -0.023723766207695007, -0.005764071363955736
788925, 0.39550480246543884, 0.011594340205192566, -1.3727320432662964, 0, 0, 0, 0, 0, 0, 0, 0, 0, 0, 0, 0, 51203.0, 51738.0, 48204.0, 51706.0, 0.47837749123573303, -1.3978118896484375, 0.5086188912391663, -0.037185151129961014, -0.02438356541097164, -0.003246544161811471
788935, 0.36582401394844055, -0.01425040140748024, -1.375320553779602, 0, 0, 0, 0, 0, 0, 0, 0, 0, 0, 0, 0, 49332.0, 53617.0, 49302.0, 50561.0, 0.4779568612575531, -1.3979154825210571, 0.5088608264923096, -0.037511568516492844, -0.024362018331885338, -0.0006062837201170623
788945, 0.33450955152511597, -0.02330096811056137, -1.3980759382247925, 0, 0, 0, 0, 0, 0, 0, 0, 0, 0, 0, 0, 52660.0, 47589.0, 46051.0, 55354.0, 0.4774544835090637, -1.398123025894165, 0.5074069499969482, -0.03797405585646629, -0.025155020877718925, -0.015111077576875687
788955, 0.31204068660736084, -0.09610114991664886, -1.3966902494430542, 0, 0, 0, 0, 0, 0, 0, 0, 0, 0, 0, 0, 49253.0, 49699.0, 49864.0, 54588.0, 0.477059930562973, -1.398250937461853, 0.50752192735672, -0.037850379943847656, -0.025249088183045387, -0.011644658632576466
788965, 0.28290045261383057, -0.16124820709228516, -1.4023088216781616, 0, 0, 0, 0, 0, 0, 0, 0, 0, 0, 0, 0, 49917.0, 50931.0, 49615.0, 52981.0, 0.47661224007606506, -1.398443579673767, 0.5075638890266418, -0.03799024969339371, -0.025524981319904327, -0.009760488756000996
788975, 0.2933710813522339, -0.20394910871982574, -1.3988109827041626, 0, 0, 0, 0, 0, 0, 0, 0, 0, 0, 0, 0, 48037.0, 47560.0, 51599.0, 55290.0, 0.4762606918811798, -1.3984882831573486, 0.5077823400497437, -0.0374818779528141, -0.025003835558891296, -0.007041633129119873
788985, 0.24921289086341858, -0.2916432023048401, -1.4121851921081543, 0, 0, 0, 0, 0, 0, 0, 0, 0, 0, 0, 0, 51390.0, 52009.0, 45045.0, 52209.0, 0.4758301079273224, -1.398659586906433, 0.5080055594444275, -0.03728160634636879, -0.02536858431994915, -0.007816281169652939
788995, 0.23636041581630707, -0.360624223947525, -1.4212074279785156, 0, 0, 0, 0, 0, 0, 0, 0, 0, 0, 0, 0, 49877.0, 51169.0, 48838.0, 53441.0, 0.4753967523574829, -1.398815393447876, 0.5075315833091736, -0.03693854436278343, -0.025466203689575195, -0.006405336782336235
789005, 0.23869797587394714, -0.43207305669784546, -1.4321448802947998, 0, 0, 0, 0, 0, 0, 0, 0, 0, 0, 0, 0, 49534.0, 49640.0, 49917.0, 53851.0, 0.4749508202075958, -1.3990116119384766, 0.5077607035636902, -0.03648750111460686, -0.025844374671578407, 0.0005851563764736056
789015, 0.24325330555438995, -0.46455058455467224, -1.4307160377502441, 0, 0, 0, 0, 0, 0, 0, 0, 0, 0, 0, 0, 50063.0, 49625.0, 49217.0, 53544.0, 0.47445565462112427, -1.399164080619812, 0.5080755352973938, -0.03647400811314583, -0.02587849088013172, 0.0071828048676252365
789025, 0.27575868368148804, -0.4649367034435272, -1.4443764686584473, 0, 0, 0, 0, 0, 0, 0, 0, 0, 0, 0, 0, 47512.0, 48129.0, 51495.0, 54397.0, 0.47403159737586975, -1.3993514776229858, 0.5083277821540833, -0.03597750887274742, -0.026014897972345352, 0.015022064559161663
789035, 0.26718059182167053, -0.48852670192718506, -1.4269682168960571, 0, 0, 0, 0, 0, 0, 0, 0, 0, 0, 0, 0, 49425.0, 51595.0, 49934.0, 50507.0, 0.47364941239356995, -1.3995490074157715, 0.506883442401886, -0.03511367738246918, -0.026520736515522003, 0.010213633999228477
789045, 0.2635287344455719, -0.45249253511428833, -1.4103083610534668, 0, 0, 0, 0, 0, 0, 0, 0, 0, 0, 0, 0, 46253.0, 48066.0, 52878.0, 53799.0, 0.4732476472854614, -1.399733304977417, 0.5072605013847351, -0.03440525382757187, -0.026695629581809044, 0.010982655920088291
789055, 0.2159195989370346, -0.45618537068367004, -1.3930950164794922, 0, 0, 0, 0, 0, 0, 0, 0, 0, 0, 0, 0, 53027.0, 52580.0, 45703.0, 49748.0, 0.4728814661502838, -1.3999192714691162, 0.5075045228004456, -0.03377680853009224, -0.026781460270285606, 0.009725332260131836
789065, 0.21711137890815735, -0.46493372321128845, -1.3833057880401611, 0, 0, 0, 0, 0, 0, 0, 0, 0, 0, 0, 0, 49057.0, 48198.0, 50119.0, 53893.0, 0.47249168157577515, -1.4000614881515503, 0.5078851580619812, -0.03317767381668091, -0.026585301384329796, 0.01055503636598587
789075, 0.16271860897541046, -0.5123286843299866, -1.3632558584213257, 0, 0, 0, 0, 0, 0, 0, 0, 0, 0, 0, 0, 49398.0, 48519.0, 49745.0, 53571.0, 0.47215381264686584, -1.400268793106079, 0.5083332061767578, -0.0323624312877655, -0.026902535930275917, 0.01716090366244316
789085, 0.08823925256729126, -0.5666741728782654, -1.3722233772277832, 0, 0, 0, 0, 0, 0, 0, 0, 0, 0, 0, 0, 47582.0, 51227.0, 50363.0, 52251.0, 0.47172263264656067, -1.4004508256912231, 0.5076543688774109, -0.03192406892776489, -0.02697768621146679, 0.013366162776947021
789095, 0.034146636724472046, -0.585890531539917, -1.3987834453582764, 0, 0, 0, 0, 0, 0, 0, 0, 0, 0, 0, 0, 49651.0, 50611.0, 48006.0, 52645.0, 0.47148624062538147, -1.4005546569824219, 0.5081048607826233, -0.030438078567385674, -0.02652798965573311, 0.021696390584111214
789105, -0.034062258899211884, -0.6351627111434937, -1.404406189918518, 0, 0, 0, 0, 0, 0, 0, 0, 0, 0, 0, 0, 49871.0, 49938.0, 48170.0, 52544.0, 0.4712079167366028, -1.4006972312927246, 0.5085952877998352, -0.029338954016566277, -0.026228686794638634, 0.024672094732522964
789115, -0.04322579875588417, -0.6623477339744568, -1.4050348997116089, 0, 0, 0, 0, 0, 0, 0, 0, 0, 0, 0, 0, 49871.0, 48799.0, 48325.0, 52913.0, 0.4709182679653168, -1.400884985923767, 0.5090262293815613, -0.028217140585184097, -0.025908304378390312, 0.02941928245127201
789125, -0.03780596703290939, -0.667186975479126, -1.3978439569473267, 0, 0, 0, 0, 0, 0, 0, 0, 0, 0, 0, 0, 50534.0, 49830.0, 47608.0, 51546.0, 0.4705856442451477, -1.40097975730896, 0.5081380009651184, -0.027268623933196068, -0.025111505761742592, 0.024810461327433586
789135, 0.011841187253594398, -0.6853862404823303, -1.3734383583068848, 0, 0, 0, 0, 0, 0, 0, 0, 0, 0, 0, 0, 48775.0, 48602.0, 50058.0, 52511.0, 0.47030287981033325, -1.4011318683624268, 0.5086562633514404, -0.026148295029997826, -0.02470863237977028, 0.033877547830343246
789145, 0.06162960082292557, -0.6747167706489563, -1.3635900020599365, 0, 0, 0, 0, 0, 0, 0, 0, 0, 0, 0, 0, 51934.0, 49167.0, 45166.0, 52217.0, 0.4700200855731964, -1.4012647867202759, 0.5092563629150391, -0.025160210207104683, -0.024366028606891632, 0.0387163944542408
789157, 0.12147095799446106, -0.6657852530479431, -1.369896650314331, 0, 0, 0, 0, 0, 0, 0, 0, 0, 0, 0, 0, 44668.0, 48300.0, 51874.0, 52992.0, 0.46979081630706787, -1.4014114141464233, 0.5097439289093018, -0.023933809250593185, -0.023966440930962563, 0.03802391514182091
789165, 0.11962990462779999, -0.6784265041351318, -1.3807936906814575, 0, 0, 0, 0, 0, 0, 0, 0, 0, 0, 0, 0, 48977.0, 51501.0, 48066.0, 49925.0, 0.46952560544013977, -1.4015389680862427, 0.5090375542640686, -0.022555047646164894, -0.02365066111087799, 0.03303970396518707
789175, 0.12408991158008575, -0.6544336676597595, -1.36834716796875, 0, 0, 0, 0, 0, 0, 0, 0, 0, 0, 0, 0, 49120.0, 48287.0, 48205.0, 52811.0, 0.4692929983139038, -1.4016858339309692, 0.509602427482605, -0.021155809983611107, -0.023526687175035477, 0.03251485154032707
789185, 0.12323770672082901, -0.6341040134429932, -1.3469558954238892, 0, 0, 0, 0, 0, 0, 0, 0, 0, 0, 0, 0, 46032.0, 49153.0, 50958.0, 52128.0, 0.46914514899253845, -1.4017428159713745, 0.5101480484008789, -0.019764605909585953, -0.02293824404478073, 0.033689841628074646
789195, 0.13567127287387848, -0.607173502445221, -1.319301962852478, 0, 0, 0, 0, 0, 0, 0, 0, 0, 0, 0, 0, 49160.0, 48907.0, 48189.0, 52057.0, 0.46892237663269043, -1.401909351348877, 0.5106620788574219, -0.018766412511467934, -0.02304896153509617, 0.0305921733379364
789205, 0.11304368078708649, -0.5994914174079895, -1.2888263463974, 0, 0, 0, 0, 0, 0, 0, 0, 0, 0, 0, 0, 48300.0, 49049.0, 49367.0, 51780.0, 0.46877819299697876, -1.4020674228668213, 0.5112045407295227, -0.017309049144387245, -0.023054692894220352, 0.03558073192834854
789215, 0.0981551855802536, -0.5922488570213318, -1.2583614587783813, 0, 0, 0, 0, 0, 0, 0, 0, 0, 0, 0, 0, 48617.0, 49723.0, 49289.0, 51299.0, 0.4685702919960022, -1.4022399187088013, 0.5103242993354797, -0.016491102054715157, -0.02302950993180275, 0.0332869328558445
789225, 0.0927547812461853, -0.5367356538772583, -1.2361420392990112, 0, 0, 0, 0, 0, 0, 0, 0, 0, 0, 0, 0, 47372.0, 47790.0, 49937.0, 52966.0, 0.4684690237045288, -1.402332067489624, 0.5108800530433655, -0.015164874494075775, -0.022618567571043968, 0.0369228795170784
789235, 0.07708677649497986, -0.5239840745925903, -1.2253620624542236, 0, 0, 0, 0, 0, 0, 0, 0, 0, 0, 0, 0, 49052.0, 49130.0, 47253.0, 52408.0, 0.46829959750175476, -1.402520775794983, 0.511407732963562, -0.014271465130150318, -0.022835344076156616, 0.03737988322973251
789245, 0.044999152421951294, -0.45735153555870056, -1.2191506624221802, 0, 0, 0, 0, 0, 0, 0, 0, 0, 0, 0, 0, 47849.0, 44343.0, 49194.0, 55506.0, 0.46816956996917725, -1.4026901721954346, 0.512012779712677, -0.013013332150876522, -0.022745441645383835, 0.04091602936387062
789255, -0.012122802436351776, -0.44087815284729004, -1.2248427867889404, 0, 0, 0, 0, 0, 0, 0, 0, 0, 0, 0, 0, 47412.0, 47125.0, 49481.0, 53142.0, 0.4679967164993286, -1.4029247760772705, 0.5103676319122314, -0.012242213822901249, -0.023001814261078835, 0.032016269862651825
789265, -0.04704456403851509, -0.43845638632774353, -1.1964870691299438, 0, 0, 0, 0, 0, 0, 0, 0, 0, 0, 0, 0, 50072.0, 48602.0, 47829.0, 51859.0, 0.46782055497169495, -1.4031102657318115, 0.5108429193496704, -0.01157158613204956, -0.022895749658346176, 0.034318480640649796
789275, -0.06415673345327377, -0.4302036762237549, -1.172315239906311, 0, 0, 0, 0, 0, 0, 0, 0, 0, 0, 0, 0, 43871.0, 45704.0, 52622.0, 54503.0, 0.4677722454071045, -1.4033054113388062, 0.5113152265548706, -0.010486242361366749, -0.022642549127340317, 0.03371043875813484
789285, -0.043702468276023865, -0.4577614963054657, -1.16790771484375, 0, 0, 0, 0, 0, 0, 0, 0, 0, 0, 0, 0, 51162.0, 48627.0, 45802.0, 52149.0, 0.4676341712474823, -1.4035148620605469, 0.5118701457977295, -0.009686009027063847, -0.02276379056274891, 0.04112653061747551
789295, -0.007091977167874575, -0.43986058235168457, -1.1687190532684326, 0, 0, 0, 0, 0, 0, 0, 0, 0, 0, 0, 0, 45859.0, 47939.0, 50465.0, 52765.0, 0.46755561232566833, -1.4035557508468628, 0.5124701857566833, -0.008988247253000736, -0.022011861205101013, 0.04231652617454529
789306, 0.008695227093994617, -0.47469577193260193, -1.169785976409912, 0, 0, 0, 0, 0, 0, 0, 0, 0, 0, 0, 0, 47420.0, 48678.0, 50084.0, 52288.0, 0.46750879287719727, -1.403623342514038, 0.5112190246582031, -0.00796598382294178, -0.02140996791422367, 0.030100416392087936
789315, 0.014339961111545563, -0.5424898266792297, -1.1470345258712769, 0, 0, 0, 0, 0, 0, 0, 0, 0, 0, 0, 0, 49261.0, 49801.0, 48423.0, 50939.0, 0.46742597222328186, -1.4037753343582153, 0.5115754008293152, -0.007234332151710987, -0.021188944578170776, 0.02904023788869381
789325, 0.02129417285323143, -0.4939071238040924, -1.1481679677963257, 0, 0, 0, 0, 0, 0, 0, 0, 0, 0, 0, 0, 46402.0, 48307.0, 50672.0, 52923.0, 0.46736854314804077, -1.403926134109497, 0.5120370388031006, -0.006260561291128397, -0.021106384694576263, 0.02778654173016548
789335, 0.027191700413823128, -0.4794445037841797, -1.144187092781067, 0, 0, 0, 0, 0, 0, 0, 0, 0, 0, 0, 0, 49736.0, 48456.0, 47488.0, 52789.0, 0.46730753779411316, -1.404029130935669, 0.5124307870864868, -0.0053038871847093105, -0.020754294469952583, 0.028610585257411003
789346, 0.00018747808644548059, -0.49383583664894104, -1.1368950605392456, 0, 0, 0, 0, 0, 0, 0, 0, 0, 0, 0, 0, 45255.0, 49211.0, 52481.0, 52594.0, 0.46721383929252625, -1.4041095972061157, 0.5101126432418823, -0.0045804730616509914, -0.020387187600135803, 0.015277672559022903
789355, 0.007576927077025175, -0.43046557903289795, -1.119975209236145, 0, 0, 0, 0, 0, 0, 0, 0, 0, 0, 0, 0, 47348.0, 44608.0, 51049.0, 55543.0, 0.4671928286552429, -1.4042164087295532, 0.5104285478591919, -0.0035771988332271576, -0.020091071724891663, 0.0151835260912776
789365, 0.0035274403635412455, -0.40705883502960205, -1.1131564378738403, 0, 0, 0, 0, 0, 0, 0, 0, 0, 0, 0, 0, 50407.0, 45398.0, 47495.0, 55408.0, 0.4672357738018036, -1.4043755531311035, 0.5106993317604065, -0.0025539484340697527, -0.019941801205277443, 0.015014690347015858
789375, 0.011035799980163574, -0.4217657148838043, -1.1099618673324585, 0, 0, 0, 0, 0, 0, 0, 0, 0, 0, 0, 0, 48120.0, 48857.0, 49941.0, 53003.0, 0.46721288561820984, -1.404422640800476, 0.5109758377075195, -0.0017396999755874276, -0.019427577033638954, 0.018358051776885986
789385, 0.0057021030224859715, -0.4144146144390106, -1.0977648496627808, 0, 0, 0, 0, 0, 0, 0, 0, 0, 0, 0, 0, 44943.0, 51093.0, 52943.0, 50258.0, 0.4672599136829376, -1.4045202732086182, 0.5094406008720398, -0.0006917539867572486, -0.019077008590102196, 0.010584868490695953
789395, -0.0044427597895264626, -0.43631502985954285, -1.0961837768554688, 0, 0, 0, 0, 0, 0, 0, 0, 0, 0, 0, 0, 51513.0, 50482.0, 46548.0, 51807.0, 0.46721798181533813, -1.4046680927276611, 0.5097022652626038, -1.4038597328180913e-05, -0.018919015303254128, 0.010662545450031757
789407, 0.04032834619283676, -0.3462844491004944, -1.086857795715332, 0, 0, 0, 0, 0, 0, 0, 0, 0, 0, 0, 0, 45869.0, 48615.0, 52353.0, 53145.0, 0.4671590030193329, -1.4048670530319214, 0.5099367499351501, 0.0005712079582735896, -0.019338242709636688, 0.009684951044619083
789415, 0.09436748921871185, -0.3175327777862549, -1.0974256992340088, 0, 0, 0, 0, 0, 0, 0, 0, 0, 0, 0, 0, 52081.0, 51100.0, 45641.0, 51419.0, 0.46715977787971497, -1.4047343730926514, 0.5100188255310059, 0.0005453248741105199, -0.018634691834449768, 0.010219111107289791
789425, 0.14471039175987244, -0.2611871361732483, -1.0984888076782227, 0, 0, 0, 0, 0, 0, 0, 0, 0, 0, 0, 0, 47073.0, 54750.0, 50716.0, 47175.0, 0.4671686589717865, -1.4049073457717896, 0.5102470517158508, 0.0014099129475653172, -0.018773498013615608, 0.015850640833377838
789435, 0.1760520040988922, -0.2599078416824341, -1.0736156702041626, 0, 0, 0, 0, 0, 0, 0, 0, 0, 0, 0, 0, 51019.0, 48879.0, 48344.0, 53044.0, 0.4672006666660309, -1.4050102233886719, 0.5082526206970215, 0.0022069739643484354, -0.018643226474523544, 0.006499772891402245
789445, 0.1760520040988922, -0.2599078416824341, -1.0736156702041626, 0, 0, 0, 0, 0, 0, 0, 0, 0, 0, 0, 0, 49563.0, 50432.0, 48802.0, 52021.0, 0.4671802222728729, -1.4050770998001099, 0.508468508720398, 0.0025452286936342716, -0.018347397446632385, 0.010131116025149822
789455, 0.16898885369300842, -0.19387558102607727, -1.079509973526001, 0, 0, 0, 0, 0, 0, 0, 0, 0, 0, 0, 0, 48900.0, 46996.0, 49486.0, 54733.0, 0.4672159254550934, -1.4051800966262817, 0.5086742639541626, 0.0031016734428703785, -0.018259666860103607, 0.014796842820942402
789465, 0.14427107572555542, -0.22879377007484436, -1.0730705261230469, 0, 0, 0, 0, 0, 0, 0, 0, 0, 0, 0, 0, 47359.0, 47939.0, 51108.0, 53724.0, 0.4671951234340668, -1.405299186706543, 0.5089536905288696, 0.003407625714316964, -0.018338296562433243, 0.017078090459108353
789475, 0.12165642529726028, -0.20849722623825073, -1.0702821016311646, 0, 0, 0, 0, 0, 0, 0, 0, 0, 0, 0, 0, 49796.0, 52898.0, 48627.0, 48882.0, 0.4672855734825134, -1.4053783416748047, 0.5078740119934082, 0.004089660476893187, -0.018389210104942322, 0.0106646828353405
789485, 0.12165642529726028, -0.20849722623825073, -1.0702821016311646, 0, 0, 0, 0, 0, 0, 0, 0, 0, 0, 0, 0, 48450.0, 49510.0, 49617.0, 53470.0, 0.4672856330871582, -1.4055012464523315, 0.5080684423446655, 0.004397336393594742, -0.018471676856279373, 0.009204529225826263
789495, 0.11208407580852509, -0.20118404924869537, -1.0828380584716797, 0, 0, 0, 0, 0, 0, 0, 0, 0, 0, 0, 0, 51474.0, 48188.0, 46802.0, 53732.0, 0.46730750799179077, -1.4055863618850708, 0.5082669258117676, 0.004753828980028629, -0.018303755670785904, 0.011708143167197704
789506, 0.09889465570449829, -0.19885393977165222, -1.0804777145385742, 0, 0, 0, 0, 0, 0, 0, 0, 0, 0, 0, 0, 45039.0, 51198.0, 52986.0, 51289.0, 0.46747294068336487, -1.4056470394134521, 0.5084844827651978, 0.005719787906855345, -0.01815168559551239, 0.01094051543623209
789515, 0.06390701234340668, -0.20540402829647064, -1.0608510971069336, 0, 0, 0, 0, 0, 0, 0, 0, 0, 0, 0, 0, 48718.0, 46828.0, 50839.0, 54265.0, 0.4675198793411255, -1.4057079553604126, 0.5086520314216614, 0.006157502997666597, -0.017761090770363808, 0.008898426778614521
789525, 0.05099979415535927, -0.2518448233604431, -1.0755608081817627, 0, 0, 0, 0, 0, 0, 0, 0, 0, 0, 0, 0, 51951.0, 46862.0, 47076.0, 55645.0, 0.46761375665664673, -1.4058136940002441, 0.5062819719314575, 0.006727314554154873, -0.017654957249760628, -0.006352358963340521
789535, 0.04799012839794159, -0.238462433218956, -1.0527303218841553, 0, 0, 0, 0, 0, 0, 0, 0, 0, 0, 0, 0, 49559.0, 48475.0, 50186.0, 53914.0, 0.46766358613967896, -1.4058865308761597, 0.5063327550888062, 0.0070334793999791145, -0.017411356791853905, -0.003351796418428421
789546, 0.05341097712516785, -0.2623554766178131, -1.0507160425186157, 0, 0, 0, 0, 0, 0, 0, 0, 0, 0, 0, 0, 49676.0, 49509.0, 49852.0, 53007.0, 0.46773290634155273, -1.4060298204421997, 0.5064557790756226, 0.00759350648149848, -0.01745406724512577, 0.00048477042582817376
789557, 0.07982045412063599, -0.22986720502376556, -1.0234414339065552, 0, 0, 0, 0, 0, 0, 0, 0, 0, 0, 0, 0, 48480.0, 51467.0, 51416.0, 50933.0, 0.46791818737983704, -1.4059611558914185, 0.506560742855072, 0.008501246571540833, -0.016352860257029533, 0.0027238044422119856
789565, 0.15019068121910095, -0.18749774992465973, -1.0174461603164673, 0, 0, 0, 0, 0, 0, 0, 0, 0, 0, 0, 0, 50887.0, 48726.0, 48384.0, 54040.0, 0.4680621325969696, -1.4060100317001343, 0.5045300126075745, 0.00933629646897316, -0.015942001715302467, -0.012719158083200455
789575, 0.18008583784103394, -0.19355516135692596, -1.0046364068984985, 0, 0, 0, 0, 0, 0, 0, 0, 0, 0, 0, 0, 50147.0, 47544.0, 50277.0, 55221.0, 0.4681392312049866, -1.4061639308929443, 0.5044659972190857, 0.009681993164122105, -0.01616511680185795, -0.014164759777486324
789585, 0.15074679255485535, -0.15423373878002167, -1.020297646522522, 0, 0, 0, 0, 0, 0, 0, 0, 0, 0, 0, 0, 49020.0, 49875.0, 51088.0, 53599.0, 0.4682520925998688, -1.4062422513961792, 0.5044487118721008, 0.010110931470990181, -0.016128234565258026, -0.013025716878473759
789595, 0.12064754962921143, -0.14298135042190552, -1.0199739933013916, 0, 0, 0, 0, 0, 0, 0, 0, 0, 0, 0, 0, 49985.0, 52194.0, 50392.0, 51219.0, 0.468430757522583, -1.406320571899414, 0.5044724941253662, 0.011013397946953773, -0.016065631061792374, -0.013082577846944332
789605, 0.0995791107416153, -0.1079070121049881, -1.0232253074645996, 0, 0, 0, 0, 0, 0, 0, 0, 0, 0, 0, 0, 49938.0, 52490.0, 50042.0, 51126.0, 0.46858566999435425, -1.406362771987915, 0.5021455883979797, 0.011563767679035664, -0.01578827202320099, -0.02140488103032112
789615, 0.12237455695867538, -0.08595245331525803, -1.0129541158676147, 0, 0, 0, 0, 0, 0, 0, 0, 0, 0, 0, 0, 49573.0, 49677.0, 50816.0, 54317.0, 0.46871164441108704, -1.4063903093338013, 0.5021421909332275, 0.011908900924026966, -0.01536557823419571, -0.014836286194622517
789625, 0.09970550239086151, -0.0811212882399559, -1.0107401609420776, 0, 0, 0, 0, 0, 0, 0, 0, 0, 0, 0, 0, 52909.0, 50607.0, 47130.0, 53237.0, 0.46885234117507935, -1.406529426574707, 0.5021346211433411, 0.012361138127744198, -0.015471938997507095, -0.009914074093103409
789635, 0.09970550239086151, -0.0811212882399559, -1.0107401609420776, 0, 0, 0, 0, 0, 0, 0, 0, 0, 0, 0, 0, 48727.0, 49807.0, 51456.0, 54082.0, 0.4689747393131256, -1.406690001487732, 0.5022655725479126, 0.012576029635965824, -0.0159353855997324, -0.006374616641551256
789645, 0.1330820620059967, -0.038120120763778687, -1.0020374059677124, 0, 0, 0, 0, 0, 0, 0, 0, 0, 0, 0, 0, 49783.0, 48819.0, 50156.0, 54635.0, 0.4691105782985687, -1.406827449798584, 0.5024296045303345, 0.012865416705608368, -0.016094496473670006, -0.003219831269234419
789655, 0.11646103858947754, -0.028360698372125626, -1.0194889307022095, 0, 0, 0, 0, 0, 0, 0, 0, 0, 0, 0, 0, 49409.0, 52087.0, 51121.0, 52364.0, 0.4692627787590027, -1.4068936109542847, 0.49984246492385864, 0.013220126740634441, -0.01586872898042202, -0.015250558033585548
789665, 0.10078858584165573, 0.005636366084218025, -1.0271693468093872, 0, 0, 0, 0, 0, 0, 0, 0, 0, 0, 0, 0, 47812.0, 52909.0, 52504.0, 51393.0, 0.46938687562942505, -1.4069958925247192, 0.49982938170433044, 0.013297857716679573, -0.01591615378856659, -0.012691115029156208
789675, 0.12651140987873077, 0.03424036130309105, -1.0160261392593384, 0, 0, 0, 0, 0, 0, 0, 0, 0, 0, 0, 0, 52577.0, 51141.0, 47528.0, 53169.0, 0.46953728795051575, -1.4071342945098877, 0.5000178217887878, 0.013613922521471977, -0.016032276675105095, -0.005935037042945623
789685, 0.12651140987873077, 0.03424036130309105, -1.0160261392593384, 0, 0, 0, 0, 0, 0, 0, 0, 0, 0, 0, 0, 48571.0, 50592.0, 51522.0, 53554.0, 0.46960335969924927, -1.4072633981704712, 0.5002174377441406, 0.013403070159256458, -0.0160937812179327, -0.0022228877060115337
789695, 0.1320800930261612, 0.041951537132263184, -1.0167582035064697, 0, 0, 0, 0, 0, 0, 0, 0, 0, 0, 0, 0, 50414.0, 51315.0, 49950.0, 52284.0, 0.4697044789791107, -1.40736985206604, 0.4990999102592468, 0.0132756931707263, -0.016067830845713615, -0.004453723318874836
789705, 0.09688765555620193, 0.06542642414569855, -0.9789973497390747, 0, 0, 0, 0, 0, 0, 0, 0, 0, 0, 0, 0, 50208.0, 49770.0, 51023.0, 52911.0, 0.46992596983909607, -1.4074729681015015, 0.49932798743247986, 0.013936168514192104, -0.016077248379588127, 0.0017782589420676231
789715, 0.10024872422218323, 0.06712433695793152, -0.9549713730812073, 0, 0, 0, 0, 0, 0, 0, 0, 0, 0, 0, 0, 51850.0, 50204.0, 48442.0, 53117.0, 0.4700101613998413, -1.4076341390609741, 0.499481201171875, 0.01347570400685072, -0.016310039907693863, 0.004055457189679146
789725, 0.1430763155221939, 0.11308182030916214, -0.9378137588500977, 0, 0, 0, 0, 0, 0, 0, 0, 0, 0, 0, 0, 49064.0, 51360.0, 51359.0, 51855.0, 0.4700709581375122, -1.407846450805664, 0.4997367858886719, 0.013254093937575817, -0.016744839027523994, 0.005574315786361694
789735, 0.14779718220233917, 0.0908585637807846, -0.9358547329902649, 0, 0, 0, 0, 0, 0, 0, 0, 0, 0, 0, 0, 52395.0, 50211.0, 47889.0, 52883.0, 0.4702198803424835, -1.4080053567886353, 0.5000515580177307, 0.013464834541082382, -0.016965575516223907, 0.005500490311533213
789745, 0.14840933680534363, 0.08843604475259781, -0.9289400577545166, 0, 0, 0, 0, 0, 0, 0, 0, 0, 0, 0, 0, 48458.0, 50944.0, 51603.0, 53068.0, 0.4704141914844513, -1.4080398082733154, 0.4987824857234955, 0.013546316884458065, -0.01682092994451523, -0.00011290614929748699
789755, 0.11595191061496735, 0.0675584077835083, -0.9209116697311401, 0, 0, 0, 0, 0, 0, 0, 0, 0, 0, 0, 0, 51366.0, 49417.0, 48599.0, 54094.0, 0.47043439745903015, -1.4082307815551758, 0.49902692437171936, 0.01293128076940775, -0.017221294343471527, 0.0006314370548352599
789765, 0.10371483117341995, 0.06906405836343765, -0.8978564739227295, 0, 0, 0, 0, 0, 0, 0, 0, 0, 0, 0, 0, 48188.0, 53380.0, 51779.0, 49983.0, 0.47055137157440186, -1.4084513187408447, 0.4991619288921356, 0.012930559925734997, -0.017794471234083176, 0.0038808526005595922
789775, 0.041807692497968674, 0.07975578308105469, -0.8766778111457825, 0, 0, 0, 0, 0, 0, 0, 0, 0, 0, 0, 0, 51483.0, 49204.0, 48080.0, 54344.0, 0.4707302749156952, -1.4085496664047241, 0.49952808022499084, 0.013111363165080547, -0.017788266763091087, 0.008940904401242733
789785, 0.041807692497968674, 0.07975578308105469, -0.8766778111457825, 0, 0, 0, 0, 0, 0, 0, 0, 0, 0, 0, 0, 49867.0, 49330.0, 49824.0, 53739.0, 0.47086986899375916, -1.4086326360702515, 0.49747711420059204, 0.013066920451819897, -0.01767042465507984, 0.0009190331911668181
789795, 0.006923666689544916, 0.08670079708099365, -0.8431296348571777, 0, 0, 0, 0, 0, 0, 0, 0, 0, 0, 0, 0, 50911.0, 49322.0, 49984.0, 53287.0, 0.47095903754234314, -1.4088282585144043, 0.49780166149139404, 0.012842368334531784, -0.01802646927535534, 0.006558334454894066
789805, 0.017138412222266197, 0.10609636455774307, -0.8376140594482422, 0, 0, 0, 0, 0, 0, 0, 0, 0, 0, 0, 0, 50396.0, 51370.0, 49504.0, 52013.0, 0.47111430764198303, -1.4089539051055908, 0.49805954098701477, 0.012886668555438519, -0.01790718547999859, 0.009787906892597675
789815, 0.02598835714161396, 0.08293749392032623, -0.8283833861351013, 0, 0, 0, 0, 0, 0, 0, 0, 0, 0, 0, 0, 49063.0, 49271.0, 51066.0, 53660.0, 0.4712226390838623, -1.4091588258743286, 0.49850794672966003, 0.01274803001433611, -0.01834648847579956, 0.015083820559084415
789825, 0.045592453330755234, 0.09543923288583755, -0.7917235493659973, 0, 0, 0, 0, 0, 0, 0, 0, 0, 0, 0, 0, 53114.0, 51966.0, 46440.0, 50759.0, 0.47135964035987854, -1.4092720746994019, 0.4989963173866272, 0.012776566669344902, -0.018160080537199974, 0.022460758686065674
789835, 0.045592453330755234, 0.09543923288583755, -0.7917235493659973, 0, 0, 0, 0, 0, 0, 0, 0, 0, 0, 0, 0, 51100.0, 50190.0, 48978.0, 52162.0, 0.47157207131385803, -1.4093552827835083, 0.498924195766449, 0.01302290614694357, -0.01785239763557911, 0.02562064304947853
