timeTick, roll, pitch, yaw, gyroX, gyroY, gyroZ, stateX, stateY, stateZ, stateVX, stateVY, stateVZ, whisker1, whisker2, whisker3, motor1, motor2, motor3, motor4, otX, otY, otZ, otRoll, otPitch, otYaw, otq0, otq1, otq2, otq3
514174, 0.110227070748806, 0.30467402935028076, -0.10235980898141861, 0, 0, 0, 0, 0, 0, 0, 0, 0, 0, 0, 0, 0, 0, 0, 0, 0, 0, 0, 0, 0, 0, 0, 0, 0, 0
514184, 0.07998035848140717, 0.30454444885253906, -0.10501133650541306, -0.06463921815156937, 0.036726485937833786, -0.12175878882408142, 22.019771575927734, -0.8693933486938477, 0.004221588373184204, 0.000634975207503885, -0.0017160471761599183, -0.001055323053151369, 0, 0, 0, 0.0, 0.0, 0.0, 0.0, 0, 0, 0, 0, 0, 0, 0, 0, 0, 0
514194, 0.08020250499248505, 0.3022997975349426, -0.10512668639421463, -0.039413128048181534, 0.2335301637649536, 0.04453352838754654, 22.019779205322266, -0.8694111704826355, 0.0042107426561415195, 0.0007105980766937137, -0.0018465686589479446, -0.001113401260226965, 0, 0, 0, 0.0, 0.0, 0.0, 0.0, 0, 0, 0, 0, 0, 0, 0, 0, 0, 0
514204, 0.0897248238325119, 0.3043597340583801, -0.10394345968961716, 0.08654659986495972, 0.1281658262014389, 0.013488098047673702, 22.019786834716797, -0.8694301247596741, 0.004117415752261877, 0.0007609228487126529, -0.0019914221484214067, -0.0013482265640050173, 0, 0, 0, 0.0, 0.0, 0.0, 0.0, 0, 0, 0, 0, 0, 0, 0, 0, 0, 0
514214, 0.04783984646201134, 0.3232661187648773, -0.10877370089292526, -0.08829158544540405, 0.14195168018341064, 0.10599192976951599, 22.0197811126709, -0.8696519732475281, 0.00410424591973424, 0.0008121230057440698, -0.003269185544922948, -0.001210245885886252, 0, 0, 0, 0.0, 0.0, 0.0, 0.0, 0, 0, 0, 0, 0, 0, 0, 0, 0, 0
514224, 0.04891664534807205, 0.33076003193855286, -0.10744386166334152, 0.14167822897434235, -0.27820542454719543, 0.23401878774166107, 22.019344329833984, -0.8687887787818909, 0.004096152260899544, -0.0015440090792253613, 0.001725394162349403, -0.001167768961749971, 0, 0, 0, 0.0, 0.0, 0.0, 0.0, 0, 0, 0, 0, 0, 0, 0, 0, 0, 0
514234, 0.040149711072444916, 0.30016350746154785, -0.1057647094130516, 0.03391856327652931, 0.22427251935005188, -0.0375470332801342, 22.019119262695312, -0.8687940239906311, 0.0040834867395460606, -0.0027404213324189186, 0.0017111531924456358, -0.0012280904920771718, 0, 0, 0, 0.0, 0.0, 0.0, 0.0, 0, 0, 0, 0, 0, 0, 0, 0, 0, 0
514244, 0.04051670804619789, 0.2995910346508026, -0.10595963150262833, 0.07529732584953308, -0.12180523574352264, -0.10852223634719849, 22.019800186157227, -0.8685612082481384, 0.004075583536177874, 0.001038266229443252, 0.0029908299911767244, -0.0010323245078325272, 0, 0, 0, 0.0, 0.0, 0.0, 0.0, 0, 0, 0, 0, 0, 0, 0, 0, 0, 0
514254, 0.06259283423423767, 0.28646206855773926, -0.10352405905723572, 0.1407439410686493, 0.14391069114208221, -0.04663290083408356, 22.019813537597656, -0.8685291409492493, 0.0036245309747755527, 0.001170519506558776, 0.0032133832573890686, -0.003426875453442335, 0, 0, 0, 0.0, 0.0, 0.0, 0.0, 0, 0, 0, 0, 0, 0, 0, 0, 0, 0
514264, 0.044167838990688324, 0.287163108587265, -0.10353997349739075, 0.2403302788734436, -0.1616109162569046, 0.012954119592905045, 22.020042419433594, -0.8689778447151184, 0.0035913758911192417, 0.002447227481752634, 0.0006074961856938899, -0.003636629320681095, 0, 0, 0, 0.0, 0.0, 0.0, 0.0, 0, 0, 0, 0, 0, 0, 0, 0, 0, 0
514274, 0.05513317137956619, 0.28859877586364746, -0.10268642008304596, -0.23203037679195404, -0.01600048877298832, -0.1431151032447815, 22.020048141479492, -0.8685376644134521, 0.0035541623365134, 0.002359486650675535, 0.003068619640544057, -0.0037137523759156466, 0, 0, 0, 0.0, 0.0, 0.0, 0.0, 0, 0, 0, 0, 0, 0, 0, 0, 0, 0
514284, 0.06586752086877823, 0.31001582741737366, -0.10352453589439392, 0.07637470960617065, -0.25223639607429504, -0.04985269159078598, 22.019580841064453, -0.869003415107727, 0.0035205150488764048, -0.00017747785022947937, 0.0005612996174022555, -0.0037766085006296635, 0, 0, 0, 0.0, 0.0, 0.0, 0.0, 0, 0, 0, 0, 0, 0, 0, 0, 0, 0
514294, 0.07814966887235641, 0.3016904890537262, -0.1009683609008789, 0.13829617202281952, -0.1459382325410843, 0.1787247508764267, 22.01957893371582, -0.8689975142478943, 0.0034825222101062536, -0.0001262042933376506, 0.000616455334238708, -0.0038216079119592905, 0, 0, 0, 0.0, 0.0, 0.0, 0.0, 0, 0, 0, 0, 0, 0, 0, 0, 0, 0
514304, 0.07838813215494156, 0.3036385178565979, -0.10291355103254318, 0.10760586708784103, -0.04324418306350708, -0.19540387392044067, 22.019798278808594, -0.8692120313644409, 0.0044998954981565475, 0.0011091550113633275, -0.0006863651215098798, 0.0017726242076605558, 0, 0, 0, 0.0, 0.0, 0.0, 0.0, 0, 0, 0, 0, 0, 0, 0, 0, 0, 0
514314, 0.12001851946115494, 0.2919599711894989, -0.09817865490913391, 0.03924804553389549, 0.2812005877494812, -0.02929498627781868, 22.019807815551758, -0.8692187070846558, 0.004517702851444483, 0.0009879969293251634, -0.0006432805093936622, 0.0017892352771013975, 0, 0, 0, 0.0, 0.0, 0.0, 0.0, 0, 0, 0, 0, 0, 0, 0, 0, 0, 0
514324, 0.10690604150295258, 0.2907229959964752, -0.09954691678285599, 0.09306012094020844, -0.2230256348848343, -0.0035636320244520903, 22.020029067993164, -0.8701211810112, 0.00453387014567852, 0.002059339778497815, -0.005543272010982037, 0.0017052110051736236, 0, 0, 0, 0.0, 0.0, 0.0, 0.0, 0, 0, 0, 0, 0, 0, 0, 0, 0, 0
514334, 0.04729078337550163, 0.29576823115348816, -0.10596165806055069, 0.15709683299064636, -0.40325620770454407, 0.07189609855413437, 22.02003288269043, -0.869891345500946, 0.0045536840334534645, 0.0018386695301160216, -0.003995088394731283, 0.0016993109602481127, 0, 0, 0, 0.0, 0.0, 0.0, 0.0, 0, 0, 0, 0, 0, 0, 0, 0, 0, 0
514344, 0.07996144145727158, 0.29546141624450684, -0.10436621308326721, 0.08712652325630188, 0.24008089303970337, 0.008504465222358704, 22.020048141479492, -0.8685480952262878, 0.004581444896757603, 0.0016454019350931048, 0.0036507004406303167, 0.0018216957105323672, 0, 0, 0, 0.0, 0.0, 0.0, 0.0, 0, 0, 0, 0, 0, 0, 0, 0, 0, 0
514354, 0.06843928247690201, 0.3339604139328003, -0.10663463175296783, -0.24680227041244507, 0.11316829174757004, 0.15261048078536987, 22.02004051208496, -0.8692165017127991, 0.004356213379651308, 0.0016179056838154793, -0.00018665252719074488, 0.000690113811288029, 0, 0, 0, 0.0, 0.0, 0.0, 0.0, 0, 0, 0, 0, 0, 0, 0, 0, 0, 0
514364, 0.0594467893242836, 0.3020669221878052, -0.10519050061702728, -0.0417790412902832, 0.0325404591858387, -0.03736308589577675, 22.019128799438477, -0.8690211176872253, 0.004364417400211096, -0.003269840031862259, 0.0010564479744061828, 0.0007268778281286359, 0, 0, 0, 0.0, 0.0, 0.0, 0.0, 0, 0, 0, 0, 0, 0, 0, 0, 0, 0
514374, 0.11853943765163422, 0.3037348985671997, -0.10014813393354416, 0.025875484570860863, -0.18016737699508667, 0.056575410068035126, 22.019821166992188, -0.8687825202941895, 0.004375474061816931, 0.0005796083714812994, 0.0022222818806767464, 0.0006872572121210396, 0, 0, 0, 0.0, 0.0, 0.0, 0.0, 0, 0, 0, 0, 0, 0, 0, 0, 0, 0
514384, 0.08930511027574539, 0.30366644263267517, -0.10248474776744843, 0.10419126600027084, 0.172283336520195, 0.011722641997039318, 22.019794464111328, -0.8700952529907227, 0.004387657158076763, 0.0005591860390268266, -0.0052955253049731255, 0.0007476397440768778, 0, 0, 0, 0.0, 0.0, 0.0, 0.0, 0, 0, 0, 0, 0, 0, 0, 0, 0, 0
514394, 0.0884372815489769, 0.3035430908203125, -0.10266317427158356, -0.07469626516103745, -0.16014589369297028, -0.13891789317131042, 22.01980972290039, -0.8694474697113037, 0.004403074737638235, 0.0007387656951323152, -0.0015761218965053558, 0.0008573455270379782, 0, 0, 0, 0.0, 0.0, 0.0, 0.0, 0, 0, 0, 0, 0, 0, 0, 0, 0, 0
514404, 0.05002216249704361, 0.31429827213287354, -0.1063266396522522, 0.33944171667099, -0.08613583445549011, 0.24324284493923187, 22.019817352294922, -0.8694627285003662, 0.004412166774272919, 0.0007928411359898746, -0.0014780604979023337, 0.0009614534210413694, 0, 0, 0, 0.0, 0.0, 0.0, 0.0, 0, 0, 0, 0, 0, 0, 0, 0, 0, 0
514414, 0.08224339783191681, 0.30680426955223083, -0.10416915267705917, -0.006195547990500927, -0.3356066048145294, -0.033193159848451614, 22.019590377807617, -0.86856609582901, 0.005113678518682718, -0.0006777878734283149, 0.003650831524282694, 0.004360620863735676, 0, 0, 0, 0.0, 0.0, 0.0, 0.0, 0, 0, 0, 0, 0, 0, 0, 0, 0, 0
514424, 0.0830230712890625, 0.3058724105358124, -0.10259820520877838, 0.0770137831568718, 0.12598074972629547, 0.0645449310541153, 22.019804000854492, -0.8692418932914734, 0.005162006709724665, 0.0003599390620365739, -0.00026566613814793527, 0.004407045431435108, 0, 0, 0, 0.0, 0.0, 0.0, 0.0, 0, 0, 0, 0, 0, 0, 0, 0, 0, 0
514434, 0.0844544768333435, 0.30366572737693787, -0.10332359373569489, -0.01704125478863716, 0.31384414434432983, 0.03822433575987816, 22.019807815551758, -0.869244396686554, 0.00520576536655426, 0.0003741402761079371, -0.0002336224279133603, 0.004345028195530176, 0, 0, 0, 0.0, 0.0, 0.0, 0.0, 0, 0, 0, 0, 0, 0, 0, 0, 0, 0
514444, 0.06304311007261276, 0.30133628845214844, -0.10605733841657639, 0.07403966039419174, 0.09921367466449738, -0.15435658395290375, 22.019811630249023, -0.8692467212677002, 0.005248598754405975, 0.0005079111433587968, -0.0002357296325499192, 0.004222002346068621, 0, 0, 0, 0.0, 0.0, 0.0, 0.0, 0, 0, 0, 0, 0, 0, 0, 0, 0, 0
514454, 0.06280900537967682, 0.3020697832107544, -0.10602426528930664, 0.16456371545791626, -0.23634269833564758, 0.07963690161705017, 22.01982879638672, -0.8687511682510376, 0.003927046433091164, 0.0007309966022148728, 0.0024518626742064953, -0.0031845292542129755, 0, 0, 0, 0.0, 0.0, 0.0, 0.0, 0, 0, 0, 0, 0, 0, 0, 0, 0, 0
514464, 0.10924237966537476, 0.3032456338405609, -0.1021733433008194, 0.013814586214721203, 0.19006209075450897, -0.19042792916297913, 22.01983642578125, -0.8687267899513245, 0.0038949651643633842, 0.0009689105208963156, 0.0024195618461817503, -0.0032313603442162275, 0, 0, 0, 0.0, 0.0, 0.0, 0.0, 0, 0, 0, 0, 0, 0, 0, 0, 0, 0
514474, 0.10889944434165955, 0.30058857798576355, -0.10253582894802094, 0.0448695607483387, -0.05918467789888382, -0.20304633677005768, 22.019821166992188, -0.8697633147239685, 0.0038660489954054356, 0.0011504446156322956, -0.00321076437830925, -0.003195572877302766, 0, 0, 0, 0.0, 0.0, 0.0, 0.0, 0, 0, 0, 0, 0, 0, 0, 0, 0, 0
514484, 0.0632731094956398, 0.3015287518501282, -0.10476472228765488, 0.11678042262792587, 0.06372367590665817, 0.025702612474560738, 22.019832611083984, -0.8697949051856995, 0.0038342326879501343, 0.0010928045958280563, -0.003106058342382312, -0.0031672725453972816, 0, 0, 0, 0.0, 0.0, 0.0, 0.0, 0, 0, 0, 0, 0, 0, 0, 0, 0, 0
514494, 0.07647524029016495, 0.30075931549072266, -0.10399588197469711, -0.0191922876983881, 0.22728398442268372, -0.03407694771885872, 22.01984977722168, -0.868715226650238, 0.0038040014915168285, 0.0009737999062053859, 0.0028444307390600443, -0.003397999331355095, 0, 0, 0, 0.0, 0.0, 0.0, 0.0, 0, 0, 0, 0, 0, 0, 0, 0, 0, 0
514504, 0.07713834941387177, 0.33488932251930237, -0.10684593766927719, -0.00848381407558918, -0.2111731916666031, -0.28471460938453674, 22.019847869873047, -0.8689880967140198, 0.003771608928218484, 0.000902041036169976, 0.0012910128571093082, -0.0033789416775107384, 0, 0, 0, 0.0, 0.0, 0.0, 0.0, 0, 0, 0, 0, 0, 0, 0, 0, 0, 0
514514, 0.08892489224672318, 0.3003638982772827, -0.10437586903572083, 0.0954219177365303, 0.06693927943706512, 0.05358074605464935, 22.019027709960938, -0.8690038919448853, 0.004281159024685621, -0.003491926472634077, 0.001405288465321064, -0.0004771696403622627, 0, 0, 0, 0.0, 0.0, 0.0, 0.0, 0, 0, 0, 0, 0, 0, 0, 0, 0, 0
514524, 0.0769902914762497, 0.298877090215683, -0.10578417032957077, -0.2547241449356079, 0.2219516485929489, -0.15039421617984772, 22.019838333129883, -0.8692528009414673, 0.004281358327716589, 0.0009744690614752471, -7.096792251104489e-05, -0.0004540195513982326, 0, 0, 0, 0.0, 0.0, 0.0, 0.0, 0, 0, 0, 0, 0, 0, 0, 0, 0, 0
514534, 0.07949519157409668, 0.3293648958206177, -0.10699509084224701, 0.10421516001224518, 0.1165509819984436, -0.17077910900115967, 22.01984405517578, -0.86899334192276, 0.004277048632502556, 0.000848018447868526, 0.0012745177373290062, -0.000443268014350906, 0, 0, 0, 0.0, 0.0, 0.0, 0.0, 0, 0, 0, 0, 0, 0, 0, 0, 0, 0
514544, 0.07967550307512283, 0.29700613021850586, -0.10601618140935898, 0.11555779725313187, -0.05942327529191971, -0.018225589767098427, 22.01906394958496, -0.8690129518508911, 0.004273096565157175, -0.003204949898645282, 0.0011281585320830345, -0.00047474188613705337, 0, 0, 0, 0.0, 0.0, 0.0, 0.0, 0, 0, 0, 0, 0, 0, 0, 0, 0, 0
514554, 0.12915843725204468, 0.29656168818473816, -0.10237064212560654, -0.02001482993364334, -0.18525466322898865, -0.03226333111524582, 22.019838333129883, -0.8690056800842285, 0.003737036604434252, 0.0010037688771262765, 0.0008922190754674375, -0.0034187925048172474, 0, 0, 0, 0.0, 0.0, 0.0, 0.0, 0, 0, 0, 0, 0, 0, 0, 0, 0, 0
514564, 0.08797014504671097, 0.2939710319042206, -0.10457317531108856, 0.12624825537204742, 0.3455789089202881, 0.27839893102645874, 22.01981544494629, -0.8702359795570374, 0.003703143447637558, 0.0009329760214313865, -0.005864542443305254, -0.003509610891342163, 0, 0, 0, 0.0, 0.0, 0.0, 0.0, 0, 0, 0, 0, 0, 0, 0, 0, 0, 0
514574, 0.05947134271264076, 0.2931348383426666, -0.10738076269626617, 0.07700266689062119, 0.0910336822271347, -0.1854960173368454, 22.01983642578125, -0.8692597150802612, 0.0036772422026842833, 0.0009113977430388331, -0.0005360935465432703, -0.0035331572871655226, 0, 0, 0, 0.0, 0.0, 0.0, 0.0, 0, 0, 0, 0, 0, 0, 0, 0, 0, 0
514584, 0.05875125527381897, 0.2929821312427521, -0.10729470103979111, -0.0954781100153923, -0.12319918721914291, 0.007096022367477417, 22.01984977722168, -0.8685388565063477, 0.003643196076154709, 0.0009379723342135549, 0.003399067558348179, -0.00342206540517509, 0, 0, 0, 0.0, 0.0, 0.0, 0.0, 0, 0, 0, 0, 0, 0, 0, 0, 0, 0
514594, 0.10229535400867462, 0.32548391819000244, -0.10419300943613052, 0.14558926224708557, -0.21898694336414337, 0.14646974205970764, 22.019859313964844, -0.8685050010681152, 0.0036092563532292843, 0.0009146289667114615, 0.0033705716487020254, -0.00336550478823483, 0, 0, 0, 0.0, 0.0, 0.0, 0.0, 0, 0, 0, 0, 0, 0, 0, 0, 0, 0
514604, 0.11032257974147797, 0.2927721440792084, -0.1026313304901123, -0.30742084980010986, 0.35423335433006287, 0.14434877038002014, 22.01905632019043, -0.8695194721221924, 0.004182209260761738, -0.003143191570416093, -0.002191943349316716, -0.00015448931662831455, 0, 0, 0, 0.0, 0.0, 0.0, 0.0, 0, 0, 0, 0, 0, 0, 0, 0, 0, 0
514614, 0.09762196242809296, 0.29141300916671753, -0.10284164547920227, -0.15466897189617157, 0.01969853788614273, -0.029318196699023247, 22.019834518432617, -0.8697475790977478, 0.004183230455964804, 0.001061991904862225, -0.003305107355117798, -0.0001983569673029706, 0, 0, 0, 0.0, 0.0, 0.0, 0.0, 0, 0, 0, 0, 0, 0, 0, 0, 0, 0
514624, 0.07858392596244812, 0.32035037875175476, -0.10473470389842987, 0.2433844655752182, 0.11863304674625397, -0.1157732754945755, 22.01983642578125, -0.8694962859153748, 0.004182904027402401, 0.001011607120744884, -0.0019347744528204203, -0.00014686038775835186, 0, 0, 0, 0.0, 0.0, 0.0, 0.0, 0, 0, 0, 0, 0, 0, 0, 0, 0, 0
514634, 0.06830932199954987, 0.2879272997379303, -0.10381025075912476, -0.050980959087610245, 0.08498379588127136, 0.15893924236297607, 22.01984405517578, -0.8688029646873474, 0.004187348298728466, 0.0010265744058415294, 0.0018844380974769592, -0.00017165571625810117, 0, 0, 0, 0.0, 0.0, 0.0, 0.0, 0, 0, 0, 0, 0, 0, 0, 0, 0, 0
514644, 0.06880424916744232, 0.288482129573822, -0.10544131696224213, -0.03941287845373154, 0.07791204750537872, -0.17456182837486267, 22.019853591918945, -0.8687840700149536, 0.004185779951512814, 0.0009447183692827821, 0.001894501387141645, -0.00014167276094667614, 0, 0, 0, 0.0, 0.0, 0.0, 0.0, 0, 0, 0, 0, 0, 0, 0, 0, 0, 0
514654, 0.1205640509724617, 0.2910296618938446, -0.1019044890999794, -0.1914464831352234, -0.114632748067379, -0.02732708305120468, 22.01982879638672, -0.8699530363082886, 0.0045322636142373085, 0.0007623729179613292, -0.004610020201653242, 0.0019033985445275903, 0, 0, 0, 0.0, 0.0, 0.0, 0.0, 0, 0, 0, 0, 0, 0, 0, 0, 0, 0
514664, 0.08004650473594666, 0.29148048162460327, -0.10715389251708984, -0.024983281269669533, 0.061376091092824936, -0.22348368167877197, 22.01983642578125, -0.8700000643730164, 0.004551390651613474, 0.0006955465651117265, -0.004801189061254263, 0.0019224166171625257, 0, 0, 0, 0.0, 0.0, 0.0, 0.0, 0, 0, 0, 0, 0, 0, 0, 0, 0, 0
514674, 0.07133382558822632, 0.2931949198246002, -0.10742365568876266, 0.09443996101617813, -0.26207026839256287, 0.14300131797790527, 22.019845962524414, -0.8687991499900818, 0.0045783487148582935, 0.0006401415448635817, 0.0015280904481187463, 0.0020954825449734926, 0, 0, 0, 0.0, 0.0, 0.0, 0.0, 0, 0, 0, 0, 0, 0, 0, 0, 0, 0
514684, 0.0919502004981041, 0.32364827394485474, -0.10653912276029587, 0.060706742107868195, -0.0417853407561779, -0.0758143961429596, 22.019853591918945, -0.8687847852706909, 0.004599836189299822, 0.0009652535663917661, 0.0013443829957395792, 0.002202436327934265, 0, 0, 0, 0.0, 0.0, 0.0, 0.0, 0, 0, 0, 0, 0, 0, 0, 0, 0, 0
514694, 0.09103367477655411, 0.29472240805625916, -0.10574211180210114, -0.19801771640777588, -0.06831149011850357, 0.21279776096343994, 22.01909828186035, -0.8692626357078552, 0.004629106726497412, 0.0011160388821735978, -0.0011789528653025627, 0.002345680259168148, 0, 0, 0, 0.0, 0.0, 0.0, 0.0, 0, 0, 0, 0, 0, 0, 0, 0, 0, 0
514704, 0.1093430146574974, 0.2925105094909668, -0.10529951006174088, -0.15982240438461304, 0.19693470001220703, -0.28534558415412903, 22.01984405517578, -0.869255781173706, 0.004798829555511475, 0.0011780415661633015, -0.001244675600901246, 0.0032593088690191507, 0, 0, 0, 0.0, 0.0, 0.0, 0.0, 0, 0, 0, 0, 0, 0, 0, 0, 0, 0
514714, 0.1268717348575592, 0.2928217053413391, -0.10306742787361145, 0.03615671396255493, -0.148076593875885, 0.023420847952365875, 22.019838333129883, -0.8697189688682556, 0.004831179045140743, 0.0013066773535683751, -0.003765337634831667, 0.0033425777219235897, 0, 0, 0, 0.0, 0.0, 0.0, 0.0, 0, 0, 0, 0, 0, 0, 0, 0, 0, 0
514724, 0.11460371315479279, 0.2913193702697754, -0.10341932624578476, 0.027053076773881912, 0.21398232877254486, -0.13871534168720245, 22.019826889038086, -0.8701763153076172, 0.004863699898123741, 0.001321069779805839, -0.006248327437788248, 0.0036076148971915245, 0, 0, 0, 0.0, 0.0, 0.0, 0.0, 0, 0, 0, 0, 0, 0, 0, 0, 0, 0
514734, 0.08410907536745071, 0.31948813796043396, -0.10625892877578735, -0.09707260876893997, 0.26112091541290283, 0.1134684830904007, 22.019834518432617, -0.8699431419372559, 0.004903727676719427, 0.0014181463047862053, -0.004829332698136568, 0.0038037439808249474, 0, 0, 0, 0.0, 0.0, 0.0, 0.0, 0, 0, 0, 0, 0, 0, 0, 0, 0, 0
514744, 0.10220856219530106, 0.31970322132110596, -0.10465655475854874, -0.040279895067214966, -0.12284395098686218, -0.06214982643723488, 22.019140243530273, -0.8692570924758911, 0.004949528258293867, -0.00207960931584239, -0.00118958146777004, 0.003907747566699982, 0, 0, 0, 0.0, 0.0, 0.0, 0.0, 0, 0, 0, 0, 0, 0, 0, 0, 0, 0
514754, 0.09251142293214798, 0.31864073872566223, -0.10723146051168442, 0.16509002447128296, 0.02989279292523861, -0.21704401075839996, 22.019134521484375, -0.8697057962417603, 0.004575580824166536, -0.001859497046098113, -0.003570323809981346, 0.0016433876007795334, 0, 0, 0, 0.0, 0.0, 0.0, 0.0, 0, 0, 0, 0, 0, 0, 0, 0, 0, 0
514764, 0.08192119747400284, 0.2884485125541687, -0.10836441069841385, 0.05710705369710922, 0.2991564869880676, -0.04084683209657669, 22.01914405822754, -0.8694841861724854, 0.004592122044414282, -0.0018372766207903624, -0.0023950322065502405, 0.0014512984780594707, 0, 0, 0, 0.0, 0.0, 0.0, 0.0, 0, 0, 0, 0, 0, 0, 0, 0, 0, 0
514774, 0.100913405418396, 0.2830159366130829, -0.10763772577047348, 0.05887894704937935, -0.30341029167175293, -0.05471068620681763, 22.019859313964844, -0.8692719340324402, 0.004608959890902042, 0.0018516617128625512, -0.0012984357308596373, 0.0013650791952386498, 0, 0, 0, 0.0, 0.0, 0.0, 0.0, 0, 0, 0, 0, 0, 0, 0, 0, 0, 0
514784, 0.08071381598711014, 0.2822926342487335, -0.1097036600112915, 0.08098726719617844, 0.36914578080177307, -0.0405425988137722, 22.02007484436035, -0.8697181344032288, 0.004621375352144241, 0.002804441610351205, -0.003736560232937336, 0.0013028027024120092, 0, 0, 0, 0.0, 0.0, 0.0, 0.0, 0, 0, 0, 0, 0, 0, 0, 0, 0, 0
514794, 0.0815189853310585, 0.28174731135368347, -0.10898882895708084, 0.08161628246307373, 0.16807803511619568, 0.030080879107117653, 22.02008819580078, -0.8692810535430908, 0.004638280253857374, 0.0025215146597474813, -0.001240316079929471, 0.001517866738140583, 0, 0, 0, 0.0, 0.0, 0.0, 0.0, 0, 0, 0, 0, 0, 0, 0, 0, 0, 0
514804, 0.12043047696352005, 0.28120672702789307, -0.10483430325984955, -0.1122770607471466, 0.013759184628725052, -0.12602150440216064, 22.02012062072754, -0.8692892789840698, 0.0035525511484593153, 0.002690164837986231, -0.0012550054816529155, -0.003910927101969719, 0, 0, 0, 0.0, 0.0, 0.0, 0.0, 0, 0, 0, 0, 0, 0, 0, 0, 0, 0
514814, 0.08906542509794235, 0.2838532030582428, -0.1088283434510231, 0.07483363896608353, -0.15142492949962616, -0.05221700295805931, 22.020097732543945, -0.8701945543289185, 0.003513484727591276, 0.002541824709624052, -0.006137355230748653, -0.003816948737949133, 0, 0, 0, 0.0, 0.0, 0.0, 0.0, 0, 0, 0, 0, 0, 0, 0, 0, 0, 0
514824, 0.08834034949541092, 0.28321224451065063, -0.10852449387311935, -0.10940828919410706, -0.03107626922428608, -0.0474066324532032, 22.020111083984375, -0.869522213935852, 0.0034811797086149454, 0.0023834072053432465, -0.0023040578234940767, -0.0038563774432986975, 0, 0, 0, 0.0, 0.0, 0.0, 0.0, 0, 0, 0, 0, 0, 0, 0, 0, 0, 0
514834, 0.0978761538863182, 0.2834331691265106, -0.10842955112457275, 0.1447431594133377, 0.11504798382520676, -0.1692897528409958, 22.02013397216797, -0.869545578956604, 0.0034423191100358963, 0.0023542505223304033, -0.0023747761733829975, -0.003915341570973396, 0, 0, 0, 0.0, 0.0, 0.0, 0.0, 0, 0, 0, 0, 0, 0, 0, 0, 0, 0
514844, 0.1168702244758606, 0.28246060013771057, -0.10617225617170334, 0.05117263272404671, 0.2701649069786072, -0.23556242883205414, 22.020126342773438, -0.8697761297225952, 0.0034017947036772966, 0.0023066620342433453, -0.0035141792614012957, -0.004096077289432287, 0, 0, 0, 0.0, 0.0, 0.0, 0.0, 0, 0, 0, 0, 0, 0, 0, 0, 0, 0
514854, 0.11664700508117676, 0.28280961513519287, -0.10559681057929993, 0.10262450575828552, -0.12212119251489639, 0.2439972162246704, 22.02011489868164, -0.8702338933944702, 0.003623950993642211, 0.0022403153125196695, -0.005807930137962103, -0.002761954441666603, 0, 0, 0, 0.0, 0.0, 0.0, 0.0, 0, 0, 0, 0, 0, 0, 0, 0, 0, 0
514864, 0.08397338539361954, 0.28360652923583984, -0.11043260991573334, 0.11233988404273987, -0.08330453932285309, -0.053775642067193985, 22.020137786865234, -0.8702917098999023, 0.003596131457015872, 0.002328678732737899, -0.005752307362854481, -0.002801575232297182, 0, 0, 0, 0.0, 0.0, 0.0, 0.0, 0, 0, 0, 0, 0, 0, 0, 0, 0, 0
514874, 0.11414496600627899, 0.2828626036643982, -0.10578328371047974, 0.12772858142852783, 0.1020149439573288, -0.002536725252866745, 22.020151138305664, -0.8695713877677917, 0.003573295194655657, 0.002317213686183095, -0.0015179328620433807, -0.002849452430382371, 0, 0, 0, 0.0, 0.0, 0.0, 0.0, 0, 0, 0, 0, 0, 0, 0, 0, 0, 0
514884, 0.04104212298989296, 0.3221631944179535, -0.11372025310993195, 0.15922591090202332, 0.28159549832344055, -0.07825247943401337, 22.020132064819336, -0.8702749609947205, 0.003544379025697708, 0.002370850183069706, -0.005391465965658426, -0.002847603289410472, 0, 0, 0, 0.0, 0.0, 0.0, 0.0, 0, 0, 0, 0, 0, 0, 0, 0, 0, 0
514894, 0.06260360032320023, 0.2895887494087219, -0.11230079084634781, -0.007813719101250172, 0.035873543471097946, -0.03578037768602371, 22.0198974609375, -0.8690995573997498, 0.0035418954212218523, 0.0011373586021363735, 0.0011964344885200262, -0.002792978659272194, 0, 0, 0, 0.0, 0.0, 0.0, 0.0, 0, 0, 0, 0, 0, 0, 0, 0, 0, 0
514904, 0.05331388860940933, 0.3206626772880554, -0.11354120075702667, 0.08815956115722656, -0.17365030944347382, -0.20580241084098816, 22.019908905029297, -0.869088351726532, 0.003714337944984436, 0.0010455974843353033, 0.001225550309754908, -0.0018730555893853307, 0, 0, 0, 0.0, 0.0, 0.0, 0.0, 0, 0, 0, 0, 0, 0, 0, 0, 0, 0
514914, 0.11224804073572159, 0.27797067165374756, -0.10462193936109543, -0.1075960174202919, -0.026200346648693085, 0.06831393390893936, 22.019168853759766, -0.8688538074493408, 0.003694815095514059, -0.00283525581471622, 0.0024232547730207443, -0.00198389426805079, 0, 0, 0, 0.0, 0.0, 0.0, 0.0, 0, 0, 0, 0, 0, 0, 0, 0, 0, 0
514924, 0.05304216966032982, 0.2793918251991272, -0.11287269741296768, 0.3057587444782257, -0.11288931965827942, -0.03370991721749306