timeTick, roll, pitch, yaw, gyroX, gyroY, gyroZ, stateX, stateY, stateZ, stateVX, stateVY, stateVZ, motor1, motor2, motor3, motor4
611878, 0.21428312361240387, -0.2888534367084503, -13.131649017333984, 0, 0, 0, 0, 0, 0, 0, 0, 0, 0, 0, 0, 0
611888, 0.18350917100906372, -0.34509411454200745, -13.117915153503418, 0.028228919953107834, 0.2892341613769531, 0.10020289570093155, 0.12304925918579102, -0.50416499376297, 0.014111941680312157, -0.00904668215662241, 0.0015711273299530149, -0.0015053089009597898, 0.0, 0.0, 0.0, 0.0
611898, 0.26418936252593994, -0.3535747528076172, -13.109451293945312, -0.09076550602912903, -0.3387961983680725, -0.21682827174663544, 0.12438075989484787, -0.5037361979484558, 0.014113436453044415, -0.0015821923734620214, 0.0037223282270133495, -0.0014551067724823952, 0.0, 0.0, 0.0, 0.0
611908, 0.2094351053237915, -0.2955871820449829, -13.093851089477539, -0.16620278358459473, -0.08275070041418076, -0.03700711205601692, 0.12418782711029053, -0.5056387186050415, 0.0141065688803792, -0.002535209059715271, -0.006560195237398148, -0.0016362062888219953, 0.0, 0.0, 0.0, 0.0
611918, 0.2098197191953659, -0.2967693507671356, -13.07999038696289, 0.03549358621239662, 0.14930221438407898, 0.21635648608207703, 0.1230880543589592, -0.504165530204773, 0.01410731952637434, -0.008264576084911823, 0.001512986491434276, -0.0016788749489933252, 0.0, 0.0, 0.0, 0.0
611928, 0.22915245592594147, -0.38224396109580994, -13.069009780883789, -0.12113165110349655, -0.1770075410604477, -0.2108815312385559, 0.12300405651330948, -0.5041502118110657, 0.014054878614842892, -0.008513457141816616, 0.0015223692171275616, -0.0017861236119642854, 0.0, 0.0, 0.0, 0.0
611938, 0.20767353475093842, -0.3633739948272705, -13.054120063781738, 0.05064673721790314, 0.2671360373497009, 0.1122215986251831, 0.1248137354850769, -0.5050727128982544, 0.014057435095310211, 0.0012115180725231767, -0.0035875425674021244, -0.0016471631824970245, 0.0, 0.0, 0.0, 0.0
611948, 0.2057543396949768, -0.30405282974243164, -13.040046691894531, -0.15039491653442383, -0.006201995071023703, 0.14343853294849396, 0.12445387244224548, -0.5044887661933899, 0.014046280644834042, -0.0007883944199420512, -0.00020721806504298002, -0.0015573406126350164, 0.0, 0.0, 0.0, 0.0
611958, 0.20513637363910675, -0.3861858546733856, -13.0277681350708, -0.09491094946861267, -0.06134786084294319, -0.11361342668533325, 0.12305833399295807, -0.5041628479957581, 0.014032376930117607, -0.008203975856304169, 0.0017290351679548621, -0.0014124279841780663, 0.0, 0.0, 0.0, 0.0
611968, 0.19423381984233856, -0.3153882622718811, -13.01382064819336, -0.18642300367355347, -0.2629106342792511, -0.22159019112586975, 0.12491167336702347, -0.5045921206474304, 0.014045885764062405, 0.0018064721953123808, -0.0003905541670974344, -0.0012571989791467786, 0.0, 0.0, 0.0, 0.0
611978, 0.2528342604637146, -0.3564850389957428, -13.00169849395752, 0.07988112419843674, -0.11588458716869354, 0.10794777423143387, 0.12335754185914993, -0.5039978623390198, 0.015233682468533516, -0.006770901847630739, 0.0029168634209781885, 0.005048664286732674, 0.0, 0.0, 0.0, 0.0
611988, 0.16252487897872925, -0.34715956449508667, -12.985451698303223, -0.23552729189395905, 0.14753098785877228, 0.09039264917373657, 0.12396787852048874, -0.5055781006813049, 0.015295296907424927, -0.0031866433564573526, -0.005745092872530222, 0.004995882045477629, 0.0, 0.0, 0.0, 0.0
611998, 0.16334311664104462, -0.3467576503753662, -12.972579956054688, 0.14649976789951324, -0.05045906454324722, 0.05198891460895538, 0.12420599162578583, -0.5034867525100708, 0.01536723505705595, -0.0017268582014366984, 0.006006357725709677, 0.00500012282282114, 0.0, 0.0, 0.0, 0.0
612008, 0.16334311664104462, -0.3467576503753662, -12.972579956054688, -0.1573021411895752, -0.09663833677768707, 0.08907826989889145, 0.12418805807828903, -0.5034253597259521, 0.015416244976222515, -0.001861355034634471, 0.0062745101749897, 0.004802145063877106, 0.0, 0.0, 0.0, 0.0
612018, 0.20743131637573242, -0.33064478635787964, -12.948797225952148, -0.03847883269190788, 0.25487464666366577, -0.2415839582681656, 0.12372691184282303, -0.5033260583877563, 0.014873133040964603, -0.0044811493717134, 0.006702405400574207, 0.0014075608924031258, 0.0, 0.0, 0.0, 0.0
612028, 0.2270723283290863, -0.38101616501808167, -12.936182975769043, -0.039010901004076004, -0.1947748064994812, 0.11248710006475449, 0.12351780384778976, -0.5042683482170105, 0.014895273372530937, -0.00571068748831749, 0.0013515305472537875, 0.0014889452140778303, 0.0, 0.0, 0.0, 0.0
612038, 0.17710739374160767, -0.330906480550766, -12.921100616455078, 0.06700552254915237, -0.009121095761656761, -0.04092353582382202, 0.12457442283630371, -0.5050002932548523, 0.0149180693551898, 0.0002513941435609013, -0.002696482464671135, 0.0015641957288607955, 0.0, 0.0, 0.0, 0.0
612048, 0.207040473818779, -0.40139248967170715, -12.909039497375488, 0.08536792546510696, -0.03914676606655121, -0.23505529761314392, 0.12368854135274887, -0.5035889744758606, 0.014944233931601048, -0.004540810361504555, 0.005181556101888418, 0.0014549277257174253, 0.0, 0.0, 0.0, 0.0
612058, 0.19651733338832855, -0.3142857551574707, -12.896082878112793, -0.13445919752120972, -0.011038284748792648, 0.11442815512418747, 0.12513183057308197, -0.5046374797821045, 0.014978618361055851, 0.0032701019663363695, -0.0004898143815807998, 0.0016183146508410573, 0.0, 0.0, 0.0, 0.0
612068, 0.17838990688323975, -0.3667774796485901, -12.882542610168457, -0.06924159824848175, 0.23904253542423248, 0.07580201327800751, 0.12315648049116135, -0.5039522051811218, 0.015018271282315254, -0.007425520569086075, 0.00349620683118701, 0.0017708478262647986, 0.0, 0.0, 0.0, 0.0
612078, 0.19079746305942535, -0.3302069306373596, -12.869736671447754, 0.05215280503034592, 0.2905865013599396, -0.11279278993606567, 0.12437683343887329, -0.5037684440612793, 0.01504805963486433, -0.0005299346521496773, 0.004430369008332491, 0.0019611932802945375, 0.0, 0.0, 0.0, 0.0
612088, 0.19079746305942535, -0.3302069306373596, -12.869736671447754, -0.09365565329790115, 0.11026381701231003, 0.09948365390300751, 0.12344235926866531, -0.5037968158721924, 0.015070072375237942, -0.005665102507919073, 0.004155763890594244, 0.002074528019875288, 0.0, 0.0, 0.0, 0.0
612098, 0.2011335790157318, -0.4074355661869049, -12.856343269348145, -0.03800441324710846, -0.5303782224655151, 0.10615848004817963, 0.12514853477478027, -0.5044211149215698, 0.015110966749489307, 0.00357518601231277, 0.000912018062081188, 0.002325464738532901, 0.0, 0.0, 0.0, 0.0
612108, 0.21033866703510284, -0.4057338237762451, -12.830493927001953, -0.16374841332435608, 0.23149576783180237, 0.10567797720432281, 0.1231883093714714, -0.503974974155426, 0.015094071626663208, -0.006819664966315031, 0.0034404939506202936, 0.0022209833841770887, 0.0, 0.0, 0.0, 0.0
612118, 0.1830536425113678, -0.3636080324649811, -12.817360877990723, 0.042946454137563705, -0.4833102226257324, 0.12737737596035004, 0.1250760555267334, -0.5046323537826538, 0.015134458430111408, 0.0036712544970214367, -0.00010661800479283556, 0.002297967439517379, 0.0, 0.0, 0.0, 0.0
612128, 0.2119520604610443, -0.3902573883533478, -12.80490493774414, -0.05608609318733215, -0.2318950593471527, 0.06976711004972458, 0.12435472011566162, -0.5037893652915955, 0.015165545046329498, -0.0002940318954642862, 0.00422912510111928, 0.0022509025875478983, 0.0, 0.0, 0.0, 0.0
612138, 0.18354979157447815, -0.3615243136882782, -12.791217803955078, -0.11806098371744156, -0.09053808450698853, 0.024375000968575478, 0.12485172599554062, -0.5045785903930664, 0.015192050486803055, 0.0023685754276812077, -0.00034506485098972917, 0.0022973662707954645, 0.0, 0.0, 0.0, 0.0
612148, 0.2025289386510849, -0.3273148834705353, -12.791583061218262, -0.11269810795783997, 0.25031912326812744, 0.11458367854356766, 0.12436122447252274, -0.5037983059883118, 0.015221355482935905, -0.0002626452187541872, 0.004064737819135189, 0.0024143578484654427, 0.0, 0.0, 0.0, 0.0
612158, 0.20252498984336853, -0.4003978371620178, -12.777714729309082, -0.01581166684627533, 0.023294681683182716, 0.09820958971977234, 0.12341983616352081, -0.5040280818939209, 0.014333765022456646, -0.005202175583690405, 0.002782129682600498, -0.002380172722041607, 0.0, 0.0, 0.0, 0.0
612168, 0.18533287942409515, -0.3733799159526825, -12.764101028442383, -0.025952376425266266, -0.20921297371387482, 0.0057171606458723545, 0.12511330842971802, -0.5044111013412476, 0.014321645721793175, 0.003668345743790269, 0.0005136171821504831, -0.0025126677937805653, 0.0, 0.0, 0.0, 0.0
612178, 0.2049866020679474, -0.316762775182724, -12.751529693603516, 0.08513642102479935, -0.05607368052005768, -0.11956057697534561, 0.12457119673490524, -0.5038503408432007, 0.014301873743534088, 0.0005466094007715583, 0.0034213573671877384, -0.002490320475772023, 0.0, 0.0, 0.0, 0.0
612188, 0.2053505927324295, -0.31482893228530884, -12.740065574645996, -0.144817054271698, -0.21922802925109863, 0.011171051301062107, 0.12321606278419495, -0.503985583782196, 0.014281257055699825, -0.006717666517943144, 0.002722641220316291, -0.002415068680420518, 0.0, 0.0, 0.0, 0.0
612198, 0.21549546718597412, -0.3994923233985901, -12.725631713867188, 0.13365432620048523, -0.17765480279922485, 0.04274917021393776, 0.12372653186321259, -0.5036634802818298, 0.013749400153756142, -0.003771870629861951, 0.0044537694193422794, -0.005138262175023556, 0.0, 0.0, 0.0, 0.0
612208, 0.21516408026218414, -0.317361444234848, -12.71347713470459, 0.07453112304210663, -0.16146892309188843, 0.02218274585902691, 0.1250404566526413, -0.5046131014823914, 0.01370882149785757, 0.003488300135359168, -0.0008038868545554578, -0.005057047586888075, 0.0, 0.0, 0.0, 0.0
612218, 0.20669905841350555, -0.3188736140727997, -12.700918197631836, -0.15535500645637512, 0.07544851303100586, 0.12012258172035217, 0.12319252640008926, -0.5041975378990173, 0.013674143701791763, -0.006284934002906084, 0.0013752325903624296, -0.004965271335095167, 0.0, 0.0, 0.0, 0.0
612228, 0.22366797924041748, -0.3989121913909912, -12.687724113464355, -0.18509894609451294, -0.1840749830007553, -0.0780412033200264, 0.1232343539595604, -0.5039861798286438, 0.01362512819468975, -0.00570674566552043, 0.00245750998146832, -0.005042587406933308, 0.0, 0.0, 0.0, 0.0
612238, 0.18631130456924438, -0.34353989362716675, -12.6751708984375, 0.004172579385340214, 0.11807224154472351, -0.12023994326591492, 0.12499100714921951, -0.5048136711120605, 0.013595666736364365, 0.003736099461093545, -0.002164586214348674, -0.004916036035865545, 0.0, 0.0, 0.0, 0.0
612248, 0.22277596592903137, -0.3905004560947418, -12.662766456604004, -0.16135090589523315, 0.11147675663232803, 0.21943581104278564, 0.12394718825817108, -0.5037170648574829, 0.013310041278600693, -0.002272568875923753, 0.003722514258697629, -0.006072544027119875, 0.0, 0.0, 0.0, 0.0
612258, 0.22230878472328186, -0.388812780380249, -12.649575233459473, 0.09033684432506561, -0.3927289843559265, -0.034528013318777084, 0.1247725784778595, -0.5047574639320374, 0.01325669139623642, 0.002095141913741827, -0.0018802715931087732, -0.005905685015022755, 0.0, 0.0, 0.0, 0.0
612268, 0.18459609150886536, -0.3574073314666748, -12.637372970581055, 0.07139205932617188, 0.007678585592657328, -0.07405131310224533, 0.12479338049888611, -0.5047761797904968, 0.01319765206426382, 0.0020651810336858034, -0.0018676127074286342, -0.005901688244193792, 0.0, 0.0, 0.0, 0.0
612278, 0.18552885949611664, -0.33818501234054565, -12.625226020812988, 0.1122295930981636, -0.44727739691734314, -0.005423503462225199, 0.12434513866901398, -0.5037833452224731, 0.013146601617336273, -0.0004370812966953963, 0.0035930939484387636, -0.005908194929361343, 0.0, 0.0, 0.0, 0.0
612288, 0.20541775226593018, -0.30909988284111023, -12.613580703735352, -0.12204885482788086, -0.07867641001939774, -0.09891621768474579, 0.12391828745603561, -0.5036875009536743, 0.01345909759402275, -0.002908332971855998, 0.004023360554128885, -0.0039393906481564045, 0.0, 0.0, 0.0, 0.0
612298, 0.2514073848724365, -0.33979716897010803, -12.601385116577148, -0.11350230872631073, 0.30555611848831177, 0.02364308014512062, 0.12319070100784302, -0.5039717555046082, 0.013419079594314098, -0.006992874667048454, 0.002383425133302808, -0.003900936571881175, 0.0, 0.0, 0.0, 0.0
612308, 0.18329863250255585, -0.35029542446136475, -12.58733081817627, 0.04859160631895065, -0.25092968344688416, -0.01907053217291832, 0.12358913570642471, -0.5051689147949219, 0.013386865146458149, -0.0047056302428245544, -0.0038374874275177717, -0.003968243952840567, 0.0, 0.0, 0.0, 0.0
612318, 0.24885377287864685, -0.3480495810508728, -12.575068473815918, -0.07219507545232773, -0.09019195288419724, -0.010644993744790554, 0.12412187457084656, -0.50373774766922, 0.013363082893192768, -0.0017476195935159922, 0.004152275156229734, -0.004029350820928812, 0.0, 0.0, 0.0, 0.0
612328, 0.19906510412693024, -0.3200548589229584, -12.562125205993652, -0.22370798885822296, -0.16743645071983337, 0.08168493956327438, 0.1237960159778595, -0.5052019953727722, 0.013331552967429161, -0.0033924656454473734, -0.003941602073609829, -0.004174843430519104, 0.0, 0.0, 0.0, 0.0
612338, 0.17962545156478882, -0.3407801687717438, -12.548487663269043, -0.08457566052675247, -0.04548364877700806, -0.09862352162599564, 0.12340764701366425, -0.5040168762207031, 0.014381458051502705, -0.005237932782620192, 0.0026163177099078894, 0.0013794988626614213, 0.0, 0.0, 0.0, 0.0
612348, 0.1810334026813507, -0.3493119776248932, -12.536478042602539, 0.10970279574394226, -0.2064596563577652, -0.0058106728829443455, 0.12391100823879242, -0.5036942958831787, 0.014398542232811451, -0.0023526742588728666, 0.00418730266392231, 0.0015337996883317828, 0.0, 0.0, 0.0, 0.0
612358, 0.20172977447509766, -0.35670700669288635, -12.523585319519043, 0.10139455646276474, -0.012904382310807705, -0.029324641451239586, 0.12411054968833923, -0.5037408471107483, 0.01441518310457468, -0.0014384686946868896, 0.003833917435258627, 0.0016068742843344808, 0.0, 0.0, 0.0, 0.0
612368, 0.2031812071800232, -0.31034693121910095, -12.511370658874512, 0.031782034784555435, 0.013535235077142715, 0.0034671640023589134, 0.12422630935907364, -0.5042030811309814, 0.014434044249355793, -0.0007572517497465014, 0.0011248458176851273, 0.0015842256834730506, 0.0, 0.0, 0.0, 0.0
612378, 0.21185308694839478, -0.3840796947479248, -12.498205184936523, -0.00033553256071172655, -0.08263054490089417, 0.11764370650053024, 0.12318794429302216, -0.503968358039856, 0.013492047786712646, -0.006269203033298254, 0.0022842036560177803, -0.003340610070154071, 0.0, 0.0, 0.0, 0.0
612388, 0.184030219912529, -0.38207781314849854, -12.484919548034668, -0.19262655079364777, 0.040131956338882446, -0.12472284585237503, 0.12478086352348328, -0.5045320987701416, 0.013474022038280964, 0.002580086002126336, -0.000745402998290956, -0.0030027064494788647, 0.0, 0.0, 0.0, 0.0
612398, 0.1843113750219345, -0.3612399399280548, -12.472981452941895, -0.03759607672691345, 0.12670518457889557, 0.0005462071858346462, 0.12491125613451004, -0.5039166808128357, 0.013445955701172352, 0.0030888428445905447, 0.002655963646247983, -0.002813864964991808, 0.0, 0.0, 0.0, 0.0
612408, 0.21288250386714935, -0.38898587226867676, -12.460186004638672, -0.13462819159030914, 0.08632213622331619, 0.062018491327762604, 0.12450700253248215, -0.5038278102874756, 0.01342045422643423, 0.0006630973657593131, 0.0031445578206330538, -0.002912667114287615, 0.0, 0.0, 0.0, 0.0
612418, 0.20221221446990967, -0.3030332922935486, -12.449067115783691, -0.10176918655633926, -0.007838927209377289, -0.17746300995349884, 0.12498077005147934, -0.5045719742774963, 0.013392218388617039, 0.003232350805774331, -0.0009334671194665134, -0.0031722113490104675, 0.0, 0.0, 0.0, 0.0
612428, 0.18284423649311066, -0.3422079384326935, -12.436113357543945, -0.026270169764757156, -0.2648315727710724, -0.13179835677146912, 0.12320015579462051, -0.5039635896682739, 0.013209154829382896, -0.006627288646996021, 0.002424773061648011, -0.00413126777857542, 0.0, 0.0, 0.0, 0.0
612438, 0.20287248492240906, -0.34041059017181396, -12.425061225891113, -0.06998806446790695, 0.11379171162843704, 0.012460056692361832, 0.12410033494234085, -0.5037338137626648, 0.013177585788071156, -0.0015240005450323224, 0.0037977532483637333, -0.0039250655099749565, 0.0, 0.0, 0.0, 0.0
612448, 0.18438652157783508, -0.34211626648902893, -12.411869049072266, 0.017110995948314667, 0.01722312718629837, 0.09999934583902359, 0.12401141226291656, -0.504136860370636, 0.013141701929271221, -0.002199593698605895, 0.0018057640409097075, -0.0036916746757924557, 0.0, 0.0, 0.0, 0.0
612458, 0.18471559882164001, -0.3250587284564972, -12.399810791015625, 0.04004684463143349, -0.029730498790740967, -0.08639954030513763, 0.12409842759370804, -0.5037298202514648, 0.013106419704854488, -0.0017335446318611503, 0.0039957440458238125, -0.0032923247199505568, 0.0, 0.0, 0.0, 0.0
612468, 0.19349105656147003, -0.31043216586112976, -12.387895584106445, -0.060759466141462326, 0.12479567527770996, 0.07283463329076767, 0.12370782345533371, -0.5036437511444092, 0.014625637792050838, -0.0037998834159225225, 0.004197541158646345, 0.004746684804558754, 0.0, 0.0, 0.0, 0.0
612478, 0.18477986752986908, -0.3317122459411621, -12.375772476196289, -0.11518467962741852, -0.06010057404637337, 0.060699064284563065, 0.12326353788375854, -0.5037547945976257, 0.014671131037175655, -0.006023705936968327, 0.0034974475856870413, 0.0045733992010355, 0.0, 0.0, 0.0, 0.0
612488, 0.20397940278053284, -0.31291407346725464, -12.365053176879883, -0.15321913361549377, 0.019054649397730827, -0.2416776567697525, 0.1237029880285263, -0.5036386251449585, 0.014721183106303215, -0.003385479561984539, 0.00408099964261055, 0.004633828531950712, 0.0, 0.0, 0.0, 0.0
612498, 0.21206894516944885, -0.39755314588546753, -12.352188110351562, -0.041811760514974594, -0.1496657282114029, 0.11028624325990677, 0.12321595847606659, -0.5039515495300293, 0.014768330380320549, -0.00607715779915452, 0.002207208191975951, 0.004798196256160736, 0.0, 0.0, 0.0, 0.0
612508, 0.18466892838478088, -0.3294752240180969, -12.34048843383789, -0.17845265567302704, -0.2721259295940399, 0.005720765329897404, 0.12496308982372284, -0.5045396685600281, 0.01483701728284359, 0.0037256027571856976, -0.0011171979131177068, 0.0049216048792004585, 0.0, 0.0, 0.0, 0.0
612518, 0.21259009838104248, -0.39476126432418823, -12.326562881469727, 0.003328191814944148, -0.0829271748661995, -0.07268539816141129, 0.12369255721569061, -0.5036364793777466, 0.014132561162114143, -0.0035757170990109444, 0.0038471363950520754, 0.001007885322906077, 0.0, 0.0, 0.0, 0.0
612528, 0.21224436163902283, -0.3477683663368225, -12.315062522888184, 0.08485529571771622, -0.21705645322799683, -0.11488429456949234, 0.12495751678943634, -0.5045382976531982, 0.01415238343179226, 0.0033816646318882704, -0.001340935006737709, 0.00107959087472409, 0.0, 0.0, 0.0, 0.0
612538, 0.2111278474330902, -0.395437628030777, -12.303092956542969, 0.026529062539339066, 0.157432422041893, -0.006725267507135868, 0.12396608293056488, -0.5043217539787292, 0.014172662049531937, -0.002334466204047203, -1.9096128198725637e-06, 0.0011086382437497377, 0.0, 0.0, 0.0, 0.0
612548, 0.1833461970090866, -0.35868746042251587, -12.290777206420898, -0.030639860779047012, 0.32541459798812866, 0.08516088873147964, 0.12496233731508255, -0.5045350790023804, 0.014186262153089046, 0.003345187520608306, -0.0009794506477192044, 0.0011246470967307687, 0.0, 0.0, 0.0, 0.0
612558, 0.22920246422290802, -0.3878360092639923, -12.278482437133789, -0.08207845687866211, 0.027366427704691887, -0.1379615217447281, 0.12429246306419373, -0.5037616491317749, 0.013327950611710548, -0.0006800905102863908, 0.0035145492292940617, -0.0032767239026725292, 0.0, 0.0, 0.0, 0.0
612568, 0.18184155225753784, -0.3509047329425812, -12.26622486114502, -0.14725564420223236, -0.17558614909648895, -0.04580609127879143, 0.1246713325381279, -0.5048841834068298, 0.013300838880240917, 0.0013151275925338268, -0.002860953100025654, -0.0030983479227870703, 0.0, 0.0, 0.0, 0.0
612578, 0.19975273311138153, -0.3946760892868042, -12.25371265411377, -0.3145955801010132, -0.05165921524167061, -0.15839248895645142, 0.12408830970525742, -0.5037146210670471, 0.013280645944178104, -0.0019280866254121065, 0.0039153085090219975, -0.002926063956692815, 0.0, 0.0, 0.0, 0.0
612588, 0.18167753517627716, -0.3478085398674011, -12.241100311279297, 0.09408528357744217, -0.13036119937896729, 0.03446991741657257, 0.12499106675386429, -0.5043253302574158, 0.013258380815386772, 0.003104226430878043, 0.0005562187870964408, -0.0028030311223119497, 0.0, 0.0, 0.0, 0.0
612598, 0.1920139491558075, -0.3208284080028534, -12.228830337524414, 0.03917572274804115, 0.05284390226006508, -0.08108098804950714, 0.1240861639380455, -0.5037150382995605, 0.013239612802863121, -0.0022432319819927216, 0.004136290401220322, -0.0025411101523786783, 0.0, 0.0, 0.0, 0.0
612608, 0.1840379685163498, -0.35104355216026306, -12.21610164642334, 0.19038058817386627, -0.014184216968715191, -0.08044986426830292, 0.12345783412456512, -0.5037910342216492, 0.014792031608521938, -0.005725124850869179, 0.003513856790959835, 0.005689085461199284, 0.0, 0.0, 0.0, 0.0
612618, 0.21305987238883972, -0.3236143887042999, -12.204405784606934, 0.036839988082647324, 0.1299520879983902, -0.019099531695246696, 0.12409032881259918, -0.503716230392456, 0.014860907569527626, -0.001970740035176277, 0.0037062002811580896, 0.005790136754512787, 0.0, 0.0, 0.0, 0.0
612628, 0.21298690140247345, -0.31782832741737366, -12.1915283203125, -0.05671315640211105, 0.07025788724422455, -0.050011154264211655, 0.12336685508489609, -0.5041832327842712, 0.014919730834662914, -0.006122079212218523, 0.0009590777335688472, 0.005790218245238066, 0.0, 0.0, 0.0, 0.0
612638, 0.2127428650856018, -0.3159955143928528, -12.179162979125977, 0.025013772770762444, -0.43748238682746887, 0.008365302346646786, 0.12316057831048965, -0.5041411519050598, 0.014976222068071365, -0.00699365371838212, 0.0012215226888656616, 0.00582438800483942, 0.0, 0.0, 0.0, 0.0
612648, 0.21251405775547028, -0.3987790644168854, -12.165990829467773, -0.050754912197589874, 0.008975541219115257, -0.02446032501757145, 0.1234782412648201, -0.5035789608955383, 0.014233908616006374, -0.004885823465883732, 0.004443900194019079, 0.001803329330869019, 0.0, 0.0, 0.0, 0.0
612658, 0.21199947595596313, -0.3139169216156006, -12.1549654006958, -0.2471994310617447, 0.03035663813352585, -0.17784154415130615, 0.12493306398391724, -0.5045115351676941, 0.01426552515476942, 0.003681258298456669, -0.0010188675951212645, 0.0017287801019847393, 0.0, 0.0, 0.0, 0.0
612668, 0.2110648900270462, -0.3895047903060913, -12.14157485961914, 0.11559802293777466, -0.09823593497276306, -0.20351386070251465, 0.12315352261066437, -0.5041342377662659, 0.014300002716481686, -0.006774371024221182, 0.001339383888989687, 0.001644169446080923, 0.0, 0.0, 0.0, 0.0
612678, 0.1835751086473465, -0.36944305896759033, -12.130032539367676, -0.24089142680168152, -0.009096198715269566, -0.011659895069897175, 0.12472937256097794, -0.5044670104980469, 0.014335568994283676, 0.0025165248662233353, -0.0005862045218236744, 0.0017046522116288543, 0.0, 0.0, 0.0, 0.0
612688, 0.18466538190841675, -0.34070122241973877, -12.1190767288208, -0.007982300594449043, -0.23199202120304108, -0.05461088940501213, 0.12445738911628723, -0.5037866234779358, 0.01435785461217165, 0.0007485686219297349, 0.0034575010649859905, 0.0017929141176864505, 0.0, 0.0, 0.0, 0.0
612698, 0.1846286803483963, -0.3389120399951935, -12.106329917907715, 0.14798492193222046, -0.5185636878013611, -0.067866250872612, 0.1238560825586319, -0.5036564469337463, 0.013796413317322731, -0.0027435231022536755, 0.0043118963949382305, -0.001202764455229044, 0.0, 0.0, 0.0, 0.0
612708, 0.18472425639629364, -0.3346191942691803, -12.093912124633789, -0.0039043233264237642, -0.15580779314041138, -0.010668237693607807, 0.12382812052965164, -0.5036121010780334, 0.013784263283014297, -0.0028499113395810127, 0.004554018843919039, -0.0012269633589312434, 0.0, 0.0, 0.0, 0.0
612718, 0.1839161515235901, -0.3342902958393097, -12.081953048706055, 0.035737887024879456, -0.13742636144161224, -0.10884922742843628, 0.12379895895719528, -0.5035659670829773, 0.01377160381525755, -0.0029832320287823677, 0.004672426264733076, -0.001304604928009212, 0.0, 0.0, 0.0, 0.0
612728, 0.20609645545482635, -0.3056591749191284, -12.070731163024902, 0.201201930642128, 0.12803368270397186, 0.14002391695976257, 0.1249835416674614, -0.504514753818512, 0.013770030811429024, 0.0036751695442944765, -0.0008440100937150419, -0.001431992626748979, 0.0, 0.0, 0.0, 0.0
612738, 0.1874578297138214, -0.3167584538459778, -12.057713508605957, -0.2249806821346283, -0.19330988824367523, 0.05478864163160324, 0.12304578721523285, -0.5038745403289795, 0.014273572713136673, -0.007697321940213442, 0.00267394888214767, 0.0011439664522185922, 0.0, 0.0, 0.0, 0.0
612748, 0.1887635439634323, -0.33765554428100586, -12.044572830200195, 0.3610328435897827, -0.08494123816490173, 0.0667966902256012, 0.12335273623466492, -0.5034918785095215, 0.014287933707237244, -0.006101526785641909, 0.004550541751086712, 0.0011215630220249295, 0.0, 0.0, 0.0, 0.0
612758, 0.19008655846118927, -0.3287503123283386, -12.03315258026123, -0.004589722491800785, -0.2714570462703705, -0.11354020982980728, 0.12378475069999695, -0.5035855174064636, 0.014304650016129017, -0.003765846835449338, 0.0039297365583479404, 0.0012201601639389992, 0.0, 0.0, 0.0, 0.0
612768, 0.18920226395130157, -0.36716845631599426, -12.021672248840332, -0.017859788611531258, -0.22377413511276245, -0.1561945676803589, 0.12356939166784286, -0.5035346150398254, 0.014316121116280556, -0.004780667368322611, 0.004218519199639559, 0.0012574185384437442, 0.0, 0.0, 0.0, 0.0
612778, 0.19031275808811188, -0.3659285306930542, -12.010661125183105, 0.28745847940444946, 0.09659793972969055, 0.0029692521784454584, 0.12443143874406815, -0.5037232041358948, 0.014337185770273209, 5.420880188466981e-05, 0.0029456198681145906, 0.0013240015832707286, 0.0, 0.0, 0.0, 0.0
612788, 0.23177434504032135, -0.39441972970962524, -11.999500274658203, 0.06571880728006363, -0.12183225899934769, -0.0521886982023716, 0.12442824989557266, -0.5036913156509399, 0.013350876979529858, -0.00015272144810296595, 0.002953828778117895, -0.0038488428108394146, 0.0, 0.0, 0.0, 0.0
612798, 0.23192305862903595, -0.3931736648082733, -11.987190246582031, -0.02171597257256508, -0.14166240394115448, -0.023546967655420303, 0.12491660565137863, -0.5047496557235718, 0.013314958661794662, 0.0023952978663146496, -0.00301281432621181, -0.0037217603530734777, 0.0, 0.0, 0.0, 0.0
612808, 0.18868021667003632, -0.3600289821624756, -11.974956512451172, -0.00624312087893486, -0.00765633350238204, 0.0006478069699369371, 0.12494052201509476, -0.5047799348831177, 0.013277639634907246, 0.002388597931712866, -0.0030462935101240873, -0.0037416452541947365, 0.0, 0.0, 0.0, 0.0
612818, 0.18840287625789642, -0.35865697264671326, -11.962449073791504, -0.15460403263568878, -0.0987042784690857, -0.002157514914870262, 0.12442431598901749, -0.5036712884902954, 0.01325230486690998, -0.0004928644630126655, 0.0031382592860609293, -0.0036514836829155684, 0.0, 0.0, 0.0, 0.0
612828, 0.1887759119272232, -0.34753504395484924, -11.950623512268066, 0.022225448861718178, -0.40406572818756104, 0.2595466673374176, 0.12441959977149963, -0.5036397576332092, 0.013113299384713173, -0.0003789854818023741, 0.003106751712039113, -0.004100196063518524, 0.0, 0.0, 0.0, 0.0
612838, 0.22190989553928375, -0.3871292471885681, -11.937643051147461, -0.18159730732440948, 0.12034911662340164, -0.1714162826538086, 0.12416986376047134, -0.5035924315452576, 0.013072620145976543, -0.0016153819160535932, 0.0033887019380927086, -0.004059046506881714, 0.0, 0.0, 0.0, 0.0
612848, 0.2207621932029724, -0.3872208893299103, -11.92660140991211, 0.13945451378822327, 0.012308184988796711, -0.10750485956668854, 0.12499617785215378, -0.5045374035835266, 0.013035624288022518, 0.003101077163591981, -0.0014946991577744484, -0.004197585396468639, 0.0, 0.0, 0.0, 0.0
612858, 0.22125425934791565, -0.3862341046333313, -11.914118766784668, 0.2344127595424652, 0.09771092981100082, 0.15718384087085724, 0.12502773106098175, -0.5045517086982727, 0.012993201613426208, 0.0032105748541653156, -0.0013660821132361889, -0.004286628682166338, 0.0, 0.0, 0.0, 0.0
612868, 0.22039547562599182, -0.32762783765792847, -11.902999877929688, -0.19545282423496246, -0.035345423966646194, -0.020346883684396744, 0.12505920231342316, -0.5045658349990845, 0.012950549833476543, 0.003082921961322427, -0.0014597609406337142, -0.004243322182446718, 0.0, 0.0, 0.0, 0.0
612878, 0.21992722153663635, -0.3290228545665741, -11.890753746032715, -0.06868954002857208, 0.041340675204992294, 0.035027600824832916, 0.1237054169178009, -0.5042815208435059, 0.012512615881860256, -0.004089508205652237, 0.0001036469402606599, -0.00629765447229147, 37598.0, 37238.0, 37417.0, 37011.0
612888, 0.18363416194915771, -0.3301211893558502, -11.877298355102539, 0.2738017737865448, -0.06561681628227234, 0.4589742422103882, 0.12366471439599991, -0.504279613494873, 0.012449958361685276, -0.004051253665238619, 0.0002722447970882058, -0.006233469117432833, 37849.0, 37004.0, 37283.0, 37138.0
612898, 0.19601421058177948, -0.2895865738391876, -11.873711585998535, -0.47497180104255676, 0.7984588742256165, 0.29290902614593506, 0.12386509776115417, -0.5034323334693909, 0.012390467338263988, -0.0023453799076378345, 0.004130092449486256, -0.005998044274747372, 42628.0, 41649.0, 41670.0, 42136.0
612908, 0.1836138665676117, -0.325625479221344, -11.871810913085938, 0.14102213084697723, 0.12460780888795853, -0.875983476638794, 0.12274407595396042, -0.5035040378570557, 0.012329953722655773, -0.007468398194760084, 0.0031494158320128918, -0.005691357422620058, 41454.0, 42343.0, 42437.0, 41846.0
612918, 0.21906179189682007, -0.3882957994937897, -11.874563217163086, -0.5652008056640625, 2.13582181930542, 2.0190978050231934, 0.12337209284305573, -0.503319501876831, 0.012953014113008976, -0.0034778506960719824, 0.003496910212561488, -0.0019256105879321694, 45128.0, 43511.0, 41244.0, 42394.0
612928, 0.22159847617149353, -0.3927658796310425, -11.874366760253906, -2.268183946609497, 2.3285975456237793, -1.0704143047332764, 0.1247207447886467, -0.5047110319137573, 0.012941310182213783, 0.003964963369071484, -0.0041067227721214294, -0.001981626730412245, 46729.0, 42259.0, 40401.0, 44826.0
612938, 0.16405247151851654, -0.3654980957508087, -11.878703117370605, -0.7199807167053223, 4.196239471435547, 0.4145292341709137, 0.12490101158618927, -0.5046848058700562, 0.012925592251121998, 0.005235761869698763, -0.00427592359483242, -0.0010651039192453027, 45011.0, 44055.0, 42399.0, 43044.0
612948, 0.20654548704624176, -0.3611335754394531, -11.874754905700684, 1.4486578702926636, 1.5671597719192505, 3.5308313369750977, 0.12431596219539642, -0.5034664273262024, 0.012929354794323444, 0.0026342442724853754, 0.0015716435154899955, -0.001172520685940981, 40768.0, 42933.0, 45925.0, 44377.0
612958, 0.1560744345188141, -0.3465830385684967, -11.874526023864746, 1.0584125518798828, -0.7817394733428955, -1.9751864671707153, 0.12384996563196182, -0.5044593214988708, 0.012925872579216957, 0.0007116778288036585, -0.003860027529299259, -0.0004993469337932765, 42655.0, 41827.0, 43978.0, 44606.0
612968, 0.23719057440757751, -0.4092768728733063, -11.878292083740234, -1.7501754760742188, -1.3271126747131348, -2.177891731262207, 0.12360047549009323, -0.5033154487609863, 0.01296395156532526, -1.919828719110228e-05, 0.001583500881679356, 0.0008708412060514092, 44635.0, 43552.0, 41420.0, 43382.0
612978, 0.17265678942203522, -0.37905532121658325, -11.889010429382324, -1.7287405729293823, 0.8865081667900085, -0.7036690711975098, 0.12467284500598907, -0.5058716535568237, 0.012983206659555435, 0.005823074374347925, -0.011606510728597641, 0.002078591613098979, 44201.0, 42054.0, 40993.0, 44264.0
612988, 0.1651734560728073, -0.4258663058280945, -11.891060829162598, 0.08495093137025833, -1.2440091371536255, 0.7628401517868042, 0.12422563880681992, -0.5044348239898682, 0.013033839873969555, 0.003915033303201199, -0.004384280648082495, 0.001958976499736309, 43046.0, 41759.0, 42140.0, 43221.0
612998, 0.18349161744117737, -0.36604347825050354, -11.882570266723633, -0.5349600911140442, -1.4174818992614746, 0.07364952564239502, 0.12492918223142624, -0.5047948956489563, 0.013059700839221478, 0.007834434509277344, -0.0063726939260959625, 0.004505354445427656, 43517.0, 40267.0, 41376.0, 43884.0
613008, 0.1795874685049057, -0.3597175180912018, -11.889813423156738, -0.5359721779823303, -0.6385363936424255, -1.6978710889816284, 0.12354809790849686, -0.5052642822265625, 0.013516619801521301, 0.0012074040714651346, -0.008789990097284317, 0.01120457798242569, 41767.0, 39740.0, 41546.0, 44250.0
613018, 0.1787598878145218, -0.42317724227905273, -11.884631156921387, -3.3361804485321045, 1.1052038669586182, 3.024289131164551, 0.12356297671794891, -0.5053544044494629, 0.013647763058543205, 0.0017689572414383292, -0.009233398362994194, 0.015024367719888687, 42443.0, 41884.0, 41482.0, 40212.0
613028, 0.30159056186676025, -0.4824821352958679, -11.844996452331543, -2.1681768894195557, 1.3434538841247559, 3.0461978912353516, 0.12472564727067947, -0.506141722202301, 0.013796096667647362, 0.008034748956561089, -0.013109607622027397, 0.016604196280241013, 42638.0, 40471.0, 41967.0, 40620.0
613038, 0.27023398876190186, -0.459003210067749, -11.83726692199707, 3.6914255619049072, -3.143660068511963, -1.6485313177108765, 0.12546685338020325, -0.5097146034240723, 0.013867770321667194, 0.011893276125192642, -0.03063848987221718, 0.011267716996371746, 41584.0, 43316.0, 40564.0, 39039.0
613048, 0.30217626690864563, -0.5292932391166687, -11.87305736541748, 0.6811780333518982, -0.010127732530236244, -5.019963264465332, 0.12551429867744446, -0.509131669998169, 0.014020903967320919, 0.012202335521578789, -0.02686917781829834, 0.010368301533162594, 40556.0, 41704.0, 39219.0, 42690.0
613058, 0.3189239501953125, -0.5603221654891968, -11.930893898010254, -1.9661586284637451, 0.5519342422485352, -6.827298164367676, 0.12807615101337433, -0.5103392601013184, 0.014066580682992935, 0.024930914863944054, -0.03219223394989967, 0.01168871484696865, 39186.0, 41439.0, 39178.0, 43881.0
613068, 0.3640740215778351, -0.6801342368125916, -11.995485305786133, -5.2809247970581055, 4.145569801330566, -6.26936149597168, 0.12885162234306335, -0.5116130113601685, 0.014134435914456844, 0.028312871232628822, -0.0375874787569046, 0.011942566372454166, 42195.0, 43083.0, 35494.0, 42054.0
613078, 0.37425222992897034, -0.7205381989479065, -12.026771545410156, -0.03521713241934776, 2.3007750511169434, 2.7010791301727295, 0.13116134703159332, -0.514777421951294, 0.014049653895199299, 0.039237599819898605, -0.05214644968509674, 0.012536532245576382, 44313.0, 41544.0, 36275.0, 40572.0
613088, 0.38466131687164307, -0.7211712002754211, -11.976609230041504, 1.9708205461502075, -1.3820545673370361, 8.967277526855469, 0.131771981716156, -0.5160838961601257, 0.014109517447650433, 0.04137154296040535, -0.056884054094552994, 0.013640118762850761, 44262.0, 39844.0, 40202.0, 38506.0
613098, 0.44809529185295105, -0.8324570655822754, -11.918672561645508, 7.212831974029541, -10.638854026794434, 1.9410066604614258, 0.13408948481082916, -0.5165778994560242, 0.012924032285809517, 0.051873452961444855, -0.05739631503820419, 0.007480445317924023, 45425.0, 42082.0, 37905.0, 37695.0
613108, 0.555704653263092, -0.8108053803443909, -11.934045791625977, 5.3730974197387695, -3.0934386253356934, -4.307649612426758, 0.13681741058826447, -0.5187225937843323, 0.012767416425049305, 0.06392722576856613, -0.06617388874292374, 0.006277353968471289, 44332.0, 40428.0, 35287.0, 42688.0
613118, 0.6048542261123657, -0.7979223728179932, -11.97624683380127, 0.25895512104034424, -4.22528076171875, -3.9331436157226562, 0.1389709711074829, -0.5203477144241333, 0.01263383124023676, 0.07251535356044769, -0.07214317470788956, 0.00650059012696147, 44824.0, 39660.0, 34135.0, 44137.0
613128, 0.7183094620704651, -0.9105399250984192, -11.978923797607422, -1.981285810470581, 3.761197090148926, 1.1654664278030396, 0.13980194926261902, -0.5216497182846069, 0.012639549560844898, 0.07416608184576035, -0.0763254389166832, 0.007958161644637585, 45155.0, 37349.0, 35679.0, 44308.0
613138, 0.7708765864372253, -1.0884060859680176, -11.937376022338867, -6.3290839195251465, 10.564661026000977, 2.8220367431640625, 0.142792209982872, -0.5258869528770447, 0.012051270343363285, 0.08657993376255035, -0.09512828290462494, 0.0034648850560188293, 45987.0, 36514.0, 36617.0, 43652.0
613148, 0.7140625715255737, -1.2239353656768799, -11.889945030212402, -12.295527458190918, 9.605566024780273, 4.2330217361450195, 0.1455901861190796, -0.529833972454071, 0.01076818723231554, 0.09784635156393051, -0.11185896396636963, 0.0009447564370930195, 47123.0, 42590.0, 36257.0, 37592.0
613158, 0.7928431630134583, -1.322278618812561, -11.826970100402832, 2.3200042247772217, -5.309446811676025, 6.092330455780029, 0.14691266417503357, -0.5324234962463379, 0.010581840761005878, 0.10152847319841385, -0.1209815964102745, 0.007810313254594803, 46163.0, 38429.0, 38537.0, 40855.0
613168, 0.7784565091133118, -1.2310694456100464, -11.752639770507812, 4.584354400634766, -5.970409393310547, 6.708930015563965, 0.14995162189006805, -0.5366240739822388, 0.009914747439324856, 0.11367718130350113, -0.1378793865442276, 0.0043910956010222435, 51529.0, 41593.0, 30667.0, 36813.0
613178, 0.8702165484428406, -1.195104718208313, -11.673670768737793, 4.272692680358887, -3.4387166500091553, 7.414551258087158, 0.15049777925014496, -0.5377621054649353, 0.010118747130036354, 0.11251859366893768, -0.13840338587760925, 0.007214655168354511, 47549.0, 37487.0, 37793.0, 40497.0
613188, 1.020782709121704, -1.3956855535507202, -11.57655143737793, -6.187264442443848, 3.957587480545044, 9.6497802734375, 0.15300312638282776, -0.541982114315033, 0.010800694115459919, 0.1213492825627327, -0.15485508739948273, 0.008220328018069267, 52452.0, 37803.0, 29947.0, 39468.0
613198, 1.011688470840454, -1.3442959785461426, -11.48835563659668, 0.10491355508565903, -13.471004486083984, 3.6634092330932617, 0.15749505162239075, -0.5464641451835632, 0.009943702258169651, 0.13990211486816406, -0.1719404011964798, 0.004228752106428146, 50298.0, 37491.0, 33204.0, 41389.0
613208, 1.0810725688934326, -1.3838039636611938, -11.452112197875977, -5.546754837036133, 1.581777811050415, 0.32141637802124023, 0.15811875462532043, -0.5479786992073059, 0.010244647040963173, 0.13740535080432892, -0.17239537835121155, 0.007230181246995926, 48770.0, 37975.0, 33134.0, 42984.0
613218, 1.0892969369888306, -1.422847867012024, -11.444839477539062, -12.150253295898438, -7.164065361022949, -3.7127389907836914, 0.16157950460910797, -0.5520771145820618, 0.009360913187265396, 0.15008917450904846, -0.18692724406719208, 0.004053348675370216, 45164.0, 40188.0, 36490.0, 43232.0
613228, 1.026243805885315, -1.3221781253814697, -11.411491394042969, -10.336873054504395, -5.985044002532959, -3.5521209239959717, 0.1638135015964508, -0.5556699633598328, 0.008750593289732933, 0.1561824083328247, -0.19842301309108734, 0.007619310636073351, 49488.0, 39689.0, 29203.0, 44598.0
613238, 0.9879218935966492, -1.319823145866394, -11.401376724243164, -26.739675521850586, -16.551280975341797, -1.9452649354934692, 0.16516652703285217, -0.5600217580795288, 0.010216575115919113, 0.15732242166996002, -0.21318061649799347, 0.019025562331080437, 48683.0, 38235.0, 30461.0, 44688.0
613248, 0.8497385382652283, -1.206756353378296, -11.333464622497559, -20.802705764770508, -12.304427146911621, -0.013997619040310383, 0.1681707501411438, -0.5654801726341248, 0.009360408410429955, 0.16732627153396606, -0.23335573077201843, 0.020586395636200905, 42053.0, 38805.0, 41128.0, 43532.0
613258, 0.50843346118927, -0.9576157331466675, -11.360713005065918, -20.62811279296875, -13.959269523620605, -2.4166347980499268, 0.16902762651443481, -0.5693375468254089, 0.009268471971154213, 0.165291428565979, -0.2437920719385147, 0.02419094741344452, 50020.0, 40224.0, 28467.0, 43043.0
613268, 0.2632269263267517, -0.7693502902984619, -11.4013671875, -34.032535552978516, -33.39240264892578, -5.384922504425049, 0.16973300278186798, -0.5702481269836426, 0.010261807590723038, 0.1613626778125763, -0.2365199327468872, 0.027204280719161034, 45560.0, 40754.0, 33744.0, 43453.0
613278, -0.10173424333333969, -0.28015410900115967, -11.386892318725586, -32.16096115112305, -27.422439575195312, -5.201293468475342, 0.17156904935836792, -0.5729995369911194, 0.008249634876847267, 0.16424420475959778, -0.239787757396698, 0.022741327062249184, 41136.0, 41860.0, 39553.0, 43631.0
613288, -0.4325702488422394, -0.029486672952771187, -11.455290794372559, -35.141239166259766, -31.633081436157227, -3.2300221920013428, 0.16802559792995453, -0.5722405314445496, 0.010069368407130241, 0.1372365802526474, -0.22294045984745026, 0.0384545624256134, 41590.0, 40669.0, 38312.0, 43549.0
613298, -0.800683319568634, 0.3207675516605377, -11.487217903137207, -37.589168548583984, -30.088701248168945, -3.741791248321533, 0.17094166576862335, -0.575478732585907, 0.010045154951512814, 0.14566096663475037, -0.2275986224412918, 0.03797798976302147, 45678.0, 37138.0, 33196.0, 46448.0
613308, -1.2719042301177979, 0.599867582321167, -11.555212020874023, -58.22682571411133, -36.30147171020508, -5.655016899108887, 0.17236904799938202, -0.5782648324966431, 0.010314048267900944, 0.14533662796020508, -0.2289130687713623, 0.0420660674571991, 36388.0, 36845.0, 42941.0, 46836.0
613318, -1.9023305177688599, 0.9214748740196228, -11.619180679321289, -46.6549072265625, -24.84325408935547, -6.024038314819336, 0.17384079098701477, -0.579588770866394, 0.011043330654501915, 0.14464525878429413, -0.2210821807384491, 0.05026356875896454, 37012.0, 41061.0, 42156.0, 43342.0
613328, -2.432750701904297, 1.2826951742172241, -11.65390682220459, -58.04410934448242, -41.1306037902832, -4.0264573097229, 0.17499129474163055, -0.5796838998794556, 0.007114795036613941, 0.14291062951087952, -0.20709747076034546, 0.03410924971103668, 43867.0, 36900.0, 36476.0, 47443.0
613338, -3.004119396209717, 1.5863009691238403, -11.7141695022583, -50.56352996826172, -23.367603302001953, -3.0259006023406982, 0.1774984449148178, -0.5822514295578003, 0.007269303314387798, 0.14745062589645386, -0.20521974563598633, 0.037305478006601334, 31938.0, 44049.0, 46851.0, 41286.0
613348, -3.52303147315979, 2.0450963973999023, -11.732277870178223, -49.260536193847656, -53.38945770263672, -2.361341714859009, 0.1775214523077011, -0.5823807716369629, 0.00816782284528017, 0.1379295438528061, -0.1892099380493164, 0.04113383963704109, 47822.0, 38952.0, 31035.0, 45416.0
613358, -4.035583972930908, 2.395047187805176, -11.75084400177002, -31.361652374267578, -32.79288101196289, -5.524837493896484, 0.17960719764232635, -0.5802678465843201, 0.009084192104637623, 0.1393992304801941, -0.16056077182292938, 0.05084140971302986, 33875.0, 42648.0, 45356.0, 43229.0
613368, -4.510960578918457, 2.9590466022491455, -11.796446800231934, -46.75369644165039, -55.81622314453125, -5.098883628845215, 0.1794028878211975, -0.5790352821350098, 0.00611354922875762, 0.12914282083511353, -0.13919943571090698, 0.028569268062710762, 38516.0, 39805.0, 42453.0, 46239.0
613378, -5.145982265472412, 3.5056307315826416, -11.813752174377441, -38.514183044433594, -34.65058517456055, -2.8314671516418457, 0.17914214730262756, -0.5768893361091614, 0.00662178685888648, 0.11740706115961075, -0.11149836331605911, 0.029162675142288208, 32512.0, 45248.0, 47432.0, 40940.0
613388, -5.472508907318115, 4.010794162750244, -11.818832397460938, -24.465229034423828, -54.36924743652344, -3.832852840423584, 0.18029257655143738, -0.5762391686439514, 0.006892007309943438, 0.11347970366477966, -0.09274204820394516, 0.029488898813724518, 43760.0, 41763.0, 38198.0, 44663.0
613398, -5.890278339385986, 4.505356788635254, -11.769427299499512, -15.412703514099121, -30.336437225341797, -3.447556734085083, 0.18018074333667755, -0.5748399496078491, 0.007170969620347023, 0.10193033516407013, -0.06936464458703995, 0.031399644911289215, 33305.0, 44936.0, 47170.0, 42028.0
613408, -6.2757673263549805, 4.994653224945068, -11.59310531616211, -20.096263885498047, -47.58224868774414, -2.2468838691711426, 0.180525541305542, -0.5710680484771729, 0.00714968191459775, 0.09343405067920685, -0.035300325602293015, 0.03109203651547432, 38332.0, 42635.0, 44747.0, 43674.0
613418, -6.715000152587891, 5.440573692321777, -11.243056297302246, -10.701299667358398, -31.12883186340332, -3.5204505920410156, 0.1804160177707672, -0.5659558176994324, 0.003940570168197155, 0.08334948867559433, 0.002671384485438466, 0.010418488644063473, 38781.0, 44750.0, 45613.0, 42334.0
613428, -7.072815895080566, 5.80950927734375, -10.671821594238281, 1.5279288291931152, -42.05127716064453, -1.8310225009918213, 0.18052853643894196, -0.5585474371910095, 0.002949855523183942, 0.07407887279987335, 0.050627149641513824, 7.359029405051842e-05, 38461.0, 41465.0, 46892.0, 45544.0
613438, -7.341373920440674, 6.289182662963867, -10.500109672546387, 17.12190818786621, -16.337722778320312, -1.4105548858642578, 0.18119242787361145, -0.5499081611633301, 0.0012083599576726556, 0.06742925196886063, 0.101247638463974, -0.01190485991537571, 42996.0, 44401.0, 44911.0, 43316.0
613448, -7.043498992919922, 6.512495040893555, -10.514554023742676, 44.8440055847168, -35.282039642333984, -6.051485061645508, 0.17846441268920898, -0.5403598546981812, -0.0018684298265725374, 0.04187585040926933, 0.15739750862121582, -0.03011932224035263, 43968.0, 50961.0, 43727.0, 37394.0
613458, -6.8221893310546875, 7.010207176208496, -10.36523151397705, 63.46189880371094, -6.219150066375732, -3.1235902309417725, 0.1770879179239273, -0.5382516980171204, -0.001818917691707611, 0.02365349605679512, 0.17645858228206635, -0.029144030064344406, 48337.0, 50464.0, 39413.0, 38572.0
613468, -6.337057590484619, 7.36380672454834, -10.601922035217285, 78.63182830810547, -15.642274856567383, 0.3652859628200531, 0.17476561665534973, -0.5276539921760559, -0.004949749447405338, 0.0009923746110871434, 0.23108981549739838, -0.04500501602888107, 47415.0, 53061.0, 43637.0, 34090.0
613478, -5.5102667808532715, 7.598793983459473, -10.808107376098633, 92.51425170898438, 2.544201374053955, 4.859389781951904, 0.16969232261180878, -0.5187469720840454, -0.009039073251187801, -0.035595979541540146, 0.2799837291240692, -0.06121547892689705, 53149.0, 48828.0, 38703.0, 40933.0
613488, -4.827036380767822, 7.718019485473633, -10.712255477905273, 95.45428466796875, 8.4912109375, 1.966785192489624, 0.1674244999885559, -0.5148187875747681, -0.010859649628400803, -0.05648261681199074, 0.300091028213501, -0.06294962763786316, 49652.0, 51555.0, 44103.0, 39273.0
613498, -3.9612841606140137, 7.703863620758057, -11.113309860229492, 85.1342544555664, 26.568525314331055, 4.856618881225586, 0.16215826570987701, -0.5046225190162659, -0.016836436465382576, -0.09227446466684341, 0.3471429646015167, -0.0831376165151596, 52630.0, 49189.0, 41912.0, 44711.0
613508, -3.3270368576049805, 7.681975841522217, -11.383670806884766, 84.81324768066406, 33.40011215209961, 6.659348011016846, 0.15912467241287231, -0.49971243739128113, -0.01188662089407444, -0.11521266400814056, 0.3693140745162964, -0.0520905964076519, 51435.0, 49142.0, 42822.0, 43400.0
613518, -2.6131415367126465, 7.614975929260254, -12.115645408630371, 71.89462280273438, 45.927127838134766, 7.143908500671387, 0.15218253433704376, -0.4904489815235138, -0.016950495541095734, -0.15586423873901367, 0.4100691080093384, -0.07344714552164078, 52064.0, 45346.0, 43609.0, 48791.0
613528, -1.8767143487930298, 7.049839019775391, -12.503742218017578, 59.745887756347656, 61.65310287475586, 9.358515739440918, 0.14478759467601776, -0.48391440510749817, -0.022267382591962814, -0.19642534852027893, 0.4399050176143646, -0.08978907018899918, 51350.0, 45088.0, 46076.0, 50587.0
613538, -1.3344833850860596, 6.342412948608398, -12.41697883605957, 51.97085189819336, 80.78675842285156, 15.178749084472656, 0.1428012102842331, -0.48177212476730347, -0.022221531718969345, -0.208407923579216, 0.43977510929107666, -0.07148127257823944, 53057.0, 43631.0, 45130.0, 50558.0
613548, -1.057842493057251, 6.213963031768799, -13.541886329650879, 56.60623550415039, 82.88115692138672, 15.132789611816406, 0.13307568430900574, -0.47163671255111694, -0.019089167937636375, -0.25800806283950806, 0.4862573444843292, -0.038942620158195496, 54544.0, 43463.0, 43076.0, 49290.0
613558, -0.3241702616214752, 5.3537516593933105, -14.265721321105957, 61.988529205322266, 95.56893920898438, 17.719768524169922, 0.12517349421977997, -0.4641687870025635, -0.023798830807209015, -0.2947559952735901, 0.5123995542526245, -0.0516836903989315, 54189.0, 43908.0, 46106.0, 49070.0
613568, 0.29849493503570557, 4.67395544052124, -14.920202255249023, 65.02388763427734, 99.53321075439453, 22.135944366455078, 0.12148968875408173, -0.46243998408317566, -0.023902328684926033, -0.3075043261051178, 0.5094588398933411, -0.03544008359313011, 54434.0, 44297.0, 46453.0, 47823.0
613578, 0.9265261888504028, 3.9545443058013916, -15.066045761108398, 75.95303344726562, 99.97300720214844, 23.132266998291016, 0.11342927068471909, -0.4575488865375519, -0.028730178251862526, -0.3408834636211395, 0.5246710181236267, -0.04706529900431633, 56954.0, 44863.0, 42991.0, 47499.0
613588, 1.7306104898452759, 2.8957769870758057, -15.31525707244873, 80.93342590332031, 106.35198974609375, 26.49327850341797, 0.10585395246744156, -0.45147088170051575, -0.03394339606165886, -0.3696399927139282, 0.5378580093383789, -0.058639101684093475, 57735.0, 47237.0, 44108.0, 44914.0
613598, 2.57570481300354, 1.9060512781143188, -15.263542175292969, 83.5086898803711, 112.71693420410156, 28.43995475769043, 0.1006675660610199, -0.4433394968509674, -0.020373087376356125, -0.38093459606170654, 0.5515269637107849, 0.02981734648346901, 58096.0, 40862.0, 40292.0, 45981.0
613608, 3.4246253967285156, 0.7450529932975769, -14.902677536010742, 88.34114837646484, 117.98136138916016, 29.948333740234375, 0.0955405980348587, -0.43829086422920227, -0.020945973694324493, -0.39273691177368164, 0.5498371720314026, 0.04076607897877693, 57580.0, 39982.0, 44246.0, 45472.0
613618, 4.35163688659668, -0.578766942024231, -15.080157279968262, 71.4176025390625, 124.70507049560547, 32.066253662109375, 0.0915973037481308, -0.4328235387802124, -0.02045930176973343, -0.39576902985572815, 0.543480634689331, 0.05650986358523369, 58461.0, 33409.0, 40615.0, 48136.0
613628, 5.089139938354492, -2.1006357669830322, -15.02943229675293, 59.760963439941406, 134.62408447265625, 31.475542068481445, 0.09022950381040573, -0.431000679731369, -0.016817502677440643, -0.383561909198761, 0.5202223658561707, 0.08978380262851715, 57438.0, 37902.0, 43918.0, 43477.0
613638, 5.885685920715332, -3.6273622512817383, -15.423440933227539, 53.25822067260742, 118.22079467773438, 29.13413429260254, 0.08863790333271027, -0.42521628737449646, -0.004125539213418961, -0.3662143647670746, 0.5070622563362122, 0.17180562019348145, 57303.0, 25093.0, 39318.0, 49445.0
613648, 6.480184078216553, -5.256597518920898, -15.357089042663574, 39.682716369628906, 132.043212890625, 30.737565994262695, 0.09070705622434616, -0.4264580309391022, 0.0014001285890117288, -0.3336675763130188, 0.46443623304367065, 0.21034188568592072, 56917.0, 30106.0, 38820.0, 44253.0
613658, 7.133011817932129, -6.851578235626221, -15.842514991760254, 31.77312469482422, 114.6739501953125, 33.086936950683594, 0.0947619378566742, -0.4260661005973816, 0.007274320814758539, -0.2875259220600128, 0.42349275946617126, 0.2519110143184662, 57261.0, 21209.0, 35896.0, 46765.0
613668, 7.573111057281494, -8.3069486618042, -15.823092460632324, 22.858551025390625, 114.09355163574219, 33.82966613769531, 0.099579818546772, -0.43008410930633545, 0.01372463721781969, -0.2421545386314392, 0.3657252788543701, 0.2847951352596283, 56371.0, 20038.0, 35987.0, 45373.0
613678, 7.8104658126831055, -9.455038070678711, -15.508780479431152, 12.790422439575195, 82.14464569091797, 36.56290054321289, 0.10413739830255508, -0.4310535192489624, 0.01882127672433853, -0.19607549905776978, 0.3219389021396637, 0.3075660169124603, 55092.0, 17826.0, 38770.0, 45306.0
613688, 8.104825973510742, -10.23712158203125, -15.192878723144531, 6.88413143157959, 76.92813110351562, 40.71067428588867, 0.10646989941596985, -0.42795315384864807, 0.02521652914583683, -0.15836940705776215, 0.29871368408203125, 0.33424633741378784, 54319.0, 15129.0, 40690.0, 44599.0
613698, 8.313532829284668, -10.891031265258789, -14.890835762023926, -1.5112313032150269, 36.721763610839844, 38.58906173706055, 0.1057220846414566, -0.4286673367023468, 0.028990380465984344, -0.14342118799686432, 0.2621007263660431, 0.33663609623908997, 51308.0, 18563.0, 44080.0, 42362.0
613708, 8.211824417114258, -11.349564552307129, -14.842766761779785, -13.953134536743164, 32.965816497802734, 41.21398162841797, 0.1066577136516571, -0.4297506511211395, 0.032728493213653564, -0.11920110136270523, 0.22430408000946045, 0.33879539370536804, 49452.0, 23281.0, 45792.0, 40145.0
613718, 8.110028266906738, -11.423328399658203, -14.410680770874023, -20.708290100097656, 0.5124634504318237, 40.536319732666016, 0.11033640056848526, -0.4278489351272583, 0.03605702891945839, -0.08110746741294861, 0.20582324266433716, 0.33528998494148254, 50709.0, 24289.0, 42984.0, 39993.0
613728, 8.241747856140137, -11.534276008605957, -14.034035682678223, -21.774324417114258, -24.92073631286621, 37.6810417175293, 0.11277363449335098, -0.4276610314846039, 0.041546531021595, -0.050392601639032364, 0.17725475132465363, 0.3407331705093384, 45009.0, 30689.0, 47548.0, 36206.0
613738, 8.150432586669922, -11.283754348754883, -13.824246406555176, -21.44782257080078, -35.210105895996094, 36.30290985107422, 0.11306716501712799, -0.4310748875141144, 0.04503101482987404, -0.031992215663194656, 0.13072450459003448, 0.3373790383338928, 41465.0, 36910.0, 49399.0, 32278.0
613748, 8.14683723449707, -10.658367156982422, -13.111804008483887, -17.624935150146484, -66.79705810546875, 35.96003341674805, 0.11532393097877502, -0.4324050843715668, 0.048157114535570145, -0.006525549106299877, 0.10052487254142761, 0.3292085826396942, 44445.0, 39801.0, 46017.0, 31501.0
613758, 8.165279388427734, -9.752716064453125, -12.288651466369629, -11.065664291381836, -80.44463348388672, 35.02431869506836, 0.11379068344831467, -0.4335227310657501, 0.05141853541135788, 0.0018825693987309933, 0.07117898762226105, 0.3217513859272003, 39337.0, 41706.0, 49845.0, 30016.0
613768, 8.540816307067871, -8.436295509338379, -9.714273452758789, -12.771305084228516, -95.39998626708984, 34.26806640625, 0.1101999282836914, -0.4327840805053711, 0.05487215146422386, 0.000339730380801484, 0.052928321063518524, 0.31395423412323, 40461.0, 46098.0, 49428.0, 24586.0
613778, 8.646326065063477, -7.545001983642578, -9.480598449707031, -6.052963733673096, -102.0447006225586, 35.397178649902344, 0.0988980159163475, -0.43649089336395264, 0.05648618936538696, -0.027045734226703644, 0.0041888076812028885, 0.2943444848060608, 41128.0, 46243.0, 50748.0, 23615.0
613788, 8.712193489074707, -6.542484760284424, -8.920974731445312, -15.2564058303833, -97.39779663085938, 31.936779022216797, 0.10191153734922409, -0.441519558429718, 0.058783501386642456, -0.0013232440687716007, -0.03607061877846718, 0.28226858377456665, 40479.0, 50955.0, 51120.0, 17153.0
613798, 8.695962905883789, -5.512628078460693, -8.606971740722656, -12.17168140411377, -97.48255157470703, 33.638465881347656, 0.1020820140838623, -0.44525784254074097, 0.06099404767155647, 0.0112495431676507, -0.06994608044624329, 0.2735569477081299, 44736.0, 47730.0, 49007.0, 25696.0
613808, 8.711853981018066, -4.832860469818115, -8.886521339416504, -14.735552787780762, -89.9136734008789, 32.206539154052734, 0.10263675451278687, -0.44796881079673767, 0.0632285326719284, 0.021312415599822998, -0.09465357661247253, 0.26027053594589233, 41328.0, 49891.0, 52295.0, 21057.0
613818, 8.72690486907959, -3.9969773292541504, -8.649863243103027, -17.24997901916504, -87.16932678222656, 32.40021514892578, 0.10907066613435745, -0.4549578130245209, 0.06389686465263367, 0.051370080560445786, -0.13513529300689697, 0.24287326633930206, 45555.0, 44820.0, 49704.0, 33157.0
613828, 8.501023292541504, -3.170732259750366, -8.107297897338867, -36.70804214477539, -63.62923049926758, 32.72383499145508, 0.11229950189590454, -0.46150341629981995, 0.06508802622556686, 0.06931092590093613, -0.17512354254722595, 0.23135130107402802, 47200.0, 44500.0, 50378.0, 33111.0
613838, 8.215031623840332, -2.5022928714752197, -7.373300552368164, -52.13473129272461, -53.77960968017578, 34.224639892578125, 0.1115574911236763, -0.46382245421409607, 0.06746747344732285, 0.06928494572639465, -0.1933460831642151, 0.2193271666765213, 44221.0, 38357.0, 54104.0, 38229.0
613848, 7.589279651641846, -2.0165083408355713, -7.4242777824401855, -63.79719543457031, -44.42367172241211, 26.65164566040039, 0.11219526082277298, -0.4701399803161621, 0.06815163791179657, 0.07688603550195694, -0.23039279878139496, 0.20802278816699982, 48949.0, 30849.0, 51032.0, 46850.0
613858, 6.974614143371582, -1.7960145473480225, -7.108741760253906, -88.25839233398438, -24.575044631958008, 26.57097053527832, 0.1144302487373352, -0.47268155217170715, 0.07017295807600021, 0.08228183537721634, -0.24260856211185455, 0.20251773297786713, 46480.0, 32339.0, 53600.0, 46261.0
613868, 6.174057960510254, -1.6160637140274048, -6.897370338439941, -91.95590209960938, -19.200132369995117, 28.97464370727539, 0.11706217378377914, -0.47986483573913574, 0.06995842605829239, 0.09336145222187042, -0.2774137258529663, 0.18485777080059052, 50983.0, 27598.0, 51333.0, 49301.0
613878, 5.173553466796875, -1.5224053859710693, -6.728328704833984, -101.46263885498047, -1.452807903289795, 26.440658569335938, 0.11973172426223755, -0.4861263036727905, 0.07063647359609604, 0.10270985215902328, -0.3046911656856537, 0.1756402850151062, 49259.0, 32768.0, 53765.0, 46963.0
613888, 4.292526721954346, -1.459518313407898, -6.235586166381836, -98.44989776611328, -5.305633068084717, 27.292036056518555, 0.12084122747182846, -0.4882482886314392, 0.0727696344256401, 0.10335470736026764, -0.3082158863544464, 0.17342863976955414, 52055.0, 26000.0, 52143.0, 51070.0
613898, 3.32643985748291, -1.4638004302978516, -5.94727897644043, -97.88562774658203, 5.992537498474121, 28.627336502075195, 0.12181328237056732, -0.4940282106399536, 0.07334022969007492, 0.10770120471715927, -0.3302862346172333, 0.16730262339115143, 51814.0, 34147.0, 53853.0, 46281.0
613908, 2.47471284866333, -1.5057175159454346, -6.220470428466797, -89.44974517822266, -15.217034339904785, 22.826997756958008, 0.12566688656806946, -0.5006825923919678, 0.07387392967939377, 0.11935509741306305, -0.3516266345977783, 0.1596386432647705, 51967.0, 31287.0, 53161.0, 50333.0
613918, 1.6663672924041748, -1.4546245336532593, -6.032556056976318, -86.28457641601562, -6.256594657897949, 23.329856872558594, 0.12766121327877045, -0.5034960508346558, 0.07575064152479172, 0.1226024329662323, -0.35158130526542664, 0.16300824284553528, 55063.0, 39248.0, 50127.0, 45540.0
613928, 0.9172788858413696, -1.326775074005127, -5.761594295501709, -74.42645263671875, -21.96808433532715, 28.218515396118164, 0.1299719512462616, -0.5093188285827637, 0.07649137824773788, 0.12945674359798431, -0.3661036193370819, 0.15936261415481567, 54955.0, 39246.0, 51905.0, 44477.0
613938, 0.22462335228919983, -1.125707745552063, -5.557093143463135, -59.917240142822266, -14.034008979797363, 26.41645050048828, 0.1312830001115799, -0.511933445930481, 0.07855478674173355, 0.1305776834487915, -0.362114280462265, 0.15961168706417084, 53634.0, 40545.0, 53653.0, 43784.0
