timeTick, roll, pitch, yaw, gyroX, gyroY, gyroZ, stateX, stateY, stateZ, stateVX, stateVY, stateVZ, whisker1, whisker2, whisker3, motor1, motor2, motor3, motor4
6839, 0.10052294284105301, -0.36424583196640015, 0.028043778613209724, 0, 0, 0, 0, 0, 0, 0, 0, 0, 0, 0, 0, 0, 0, 0, 0
6849, 0.10064540803432465, -0.3646668493747711, 0.02942970208823681, -0.06422825902700424, -0.036369260400533676, 0.20916646718978882, -0.00033256065216846764, 0.0001580926327733323, 0.012240655720233917, -0.0013109133578836918, 7.133401595638134e-06, -0.002167075639590621, 0, 0, 0, 0.0, 0.0, 0.0, 0.0
6859, 0.11440073698759079, -0.363952100276947, 0.029064100235700607, -0.09758695960044861, -0.10741929709911346, -0.03008984960615635, -0.0003407333279028535, 0.0001567189465276897, 0.013342667371034622, -0.0013904067454859614, -2.1471225409186445e-05, 0.0037715404760092497, 0, 0, 0, 0.0, 0.0, 0.0, 0.0
6869, 0.11406431347131729, -0.36273398995399475, 0.029424022883176804, -0.04047314077615738, -0.08930224180221558, -0.032542698085308075, -0.00032308048685081303, -0.0002858419611584395, 0.013380637392401695, -0.0013224870199337602, -0.0017960895784199238, 0.00382989295758307, 0, 0, 0, 0.0, 0.0, 0.0, 0.0
6879, 0.11342978477478027, -0.3635502755641937, 0.02893982082605362, 0.004759186878800392, 0.24722014367580414, -0.07587679475545883, -0.0003361827111802995, -0.0003036134294234216, 0.013419285416603088, -0.001297984505072236, -0.0017581961583346128, 0.003900094423443079, 0, 0, 0, 0.0, 0.0, 0.0, 0.0
6889, 0.09845791757106781, -0.3618873059749603, 0.028922460973262787, 0.04232100769877434, -0.129343181848526, 0.136373832821846, -0.00034880448947660625, -0.0003223132807761431, 0.013458766043186188, -0.001226396532729268, -0.001981767825782299, 0.003996395971626043, 0, 0, 0, 0.0, 0.0, 0.0, 0.0
6899, 0.09757725149393082, -0.36098337173461914, 0.029177652671933174, -0.07926426082849503, 0.015151094645261765, 0.1046467125415802, -0.00034249373129568994, 0.00016176517237909138, 0.012898781336843967, -0.0011676569702103734, -6.836766260676086e-05, 0.0006904150941409171, 0, 0, 0, 0.0, 0.0, 0.0, 0.0
6909, 0.09673155844211578, -0.36048153042793274, 0.030518237501382828, 0.017224427312612534, -0.2884503901004791, 0.27605026960372925, -0.0003546031366568059, 0.00016177803627215326, 0.012905294075608253, -0.0012542287586256862, 7.094033935572952e-05, 0.0006124844658188522, 0, 0, 0, 0.0, 0.0, 0.0, 0.0
6919, 0.09576113522052765, -0.3596873879432678, 0.0303806159645319, -0.027955587953329086, -0.10958700627088547, 0.13321788609027863, -0.00036754185566678643, 0.00016298965783789754, 0.012910418212413788, -0.0013335214462131262, 0.00017138100520242006, 0.0004127826541662216, 0, 0, 0, 0.0, 0.0, 0.0, 0.0
6929, 0.096215158700943, -0.3602440357208252, 0.03037770465016365, 0.014006133191287518, 0.22768855094909668, 0.07357849925756454, -0.00038145098369568586, 0.0001648017205297947, 0.012913912534713745, -0.0014483025297522545, 0.00019103199883829802, 0.0002864208654500544, 0, 0, 0, 0.0, 0.0, 0.0, 0.0
6939, 0.06683746725320816, -0.3616859018802643, 0.03154856711626053, 0.21522705256938934, -0.15197257697582245, 0.1176382452249527, -0.00039593293331563473, 0.00016685247828718275, 0.01291680708527565, -0.0014480894897133112, 0.00021912020747549832, 0.00029288046061992645, 0, 0, 0, 0.0, 0.0, 0.0, 0.0
6949, 0.1273040771484375, -0.36196649074554443, 0.03142071142792702, -0.0531768873333931, -0.1112608015537262, -0.15774020552635193, -0.0003713228215929121, 0.0011833255412057042, 0.01335560530424118, -0.001329143880866468, 0.004528019577264786, 0.0023984808940440416, 0, 0, 0, 0.0, 0.0, 0.0, 0.0
6959, 0.09675123542547226, -0.36295223236083984, 0.03178849816322327, -0.013696849346160889, 0.08009131252765656, 0.06391642242670059, -0.000348281319020316, -0.0008066085865721107, 0.01338530145585537, -0.0011670793173834682, -0.003763251006603241, 0.002321615582332015, 0, 0, 0, 0.0, 0.0, 0.0, 0.0
6969, 0.07079894095659256, -0.3612046241760254, 0.03140857815742493, 0.031194906681776047, -0.13263148069381714, -0.042672477662563324, -0.0003406215400900692, 0.00016068156401161104, 0.013411399908363819, -0.0012080332962796092, 0.00021075550466775894, 0.0022217908408492804, 0, 0, 0, 0.0, 0.0, 0.0, 0.0
6979, 0.07243351638317108, -0.35814815759658813, 0.03254120051860809, 0.10562048852443695, -0.2919856905937195, 0.3104521930217743, -0.00033660203916952014, 0.0010217728558927774, 0.013433445245027542, -0.0011330118868499994, 0.0037431218661367893, 0.0022137039341032505, 0, 0, 0, 0.0, 0.0, 0.0, 0.0
6989, 0.1128532737493515, -0.3576241135597229, 0.03276226297020912, -0.08678276836872101, -0.07992122322320938, 0.1267419010400772, -0.0003502716135699302, 0.0010610036551952362, 0.012876375578343868, -0.001052568550221622, 0.0038988757878541946, -0.0010017849272117019, 0, 0, 0, 0.0, 0.0, 0.0, 0.0
6999, 0.09878796339035034, -0.3593416213989258, 0.03364862874150276, -0.21817004680633545, 0.06639715284109116, 0.16800564527511597, -0.0003339523682370782, -0.00028456054860726, 0.012870131060481071, -0.001011639484204352, -0.0015479786088690162, -0.0010234684450551867, 0, 0, 0, 0.0, 0.0, 0.0, 0.0
7009, 0.10018625110387802, -0.35796672105789185, 0.03337391838431358, 0.26843103766441345, -0.24532881379127502, -0.030567964538931847, -0.00031713195494376123, 0.0001447346730856225, 0.012860378250479698, -0.001025545527227223, 0.00022254639770835638, -0.0010668522445484996, 0, 0, 0, 0.0, 0.0, 0.0, 0.0
7019, 0.11303136497735977, -0.35551339387893677, 0.03303531929850578, -0.07773671299219131, -0.20751923322677612, -0.0011498064268380404, -0.0003276145434938371, 0.00014730278053320944, 0.012849456630647182, -0.0010709617054089904, 0.0002910749753937125, -0.0011170526267960668, 0, 0, 0, 0.0, 0.0, 0.0, 0.0
7029, 0.0996471419930458, -0.3563610017299652, 0.032623663544654846, 0.003393594641238451, -0.19008003175258636, 0.1115846335887909, -0.000309525232296437, -0.0002655010612215847, 0.012838216498494148, -0.0010398857994005084, -0.0013978667557239532, -0.001140480861067772, 0, 0, 0, 0.0, 0.0, 0.0, 0.0
7039, 0.09812670201063156, -0.35754960775375366, 0.03318098559975624, -0.21796166896820068, 0.13847225904464722, 0.06073291227221489, -0.0002832782338373363, 0.0001469506387365982, 0.014096233993768692, -0.0009754981729201972, 0.0004876890452578664, 0.005497467238456011, 0, 0, 0, 0.0, 0.0, 0.0, 0.0
7049, 0.09867779910564423, -0.35822805762290955, 0.03347353637218475, -0.05524304509162903, 0.24707499146461487, -0.08951003104448318, -0.0002930473710875958, 0.0001525738334748894, 0.014150973409414291, -0.00097836391068995, 0.0006369585171341896, 0.005450773984193802, 0, 0, 0, 0.0, 0.0, 0.0, 0.0
7059, 0.09884046763181686, -0.3590794801712036, 0.033609192818403244, 0.051994308829307556, 0.02298479713499546, -0.11103878915309906, -0.00030247203540056944, 0.00015972016262821853, 0.01420462504029274, -0.0009066056227311492, 0.0007923195953480899, 0.005279989447444677, 0, 0, 0, 0.0, 0.0, 0.0, 0.0
7069, 0.07406705617904663, -0.3588069677352905, 0.03430065140128136, -0.14182627201080322, 0.07997378706932068, 0.037897851318120956, -0.00031207187566906214, 0.00016768978093750775, 0.014257067814469337, -0.0010133987525478005, 0.0008016139618121088, 0.005208868533372879, 0, 0, 0, 0.0, 0.0, 0.0, 0.0
7079, 0.11376286298036575, -0.3585478365421295, 0.03414400294423103, -0.06910879909992218, 0.07036920636892319, 0.08026263862848282, -0.0003050953382626176, 0.00102035712916404, 0.013392496854066849, -0.0010650214971974492, 0.004237337037920952, 8.074169454630464e-05, 0, 0, 0, 0.0, 0.0, 0.0, 0.0
7089, 0.10260578989982605, -0.3564005196094513, 0.03500266745686531, 0.24546711146831512, -0.16124635934829712, 0.021767621859908104, -0.00030669354600831866, -0.0002600605657789856, 0.013397418893873692, -0.0009598046890459955, -0.0010885315714403987, 8.972071373136714e-05, 0, 0, 0, 0.0, 0.0, 0.0, 0.0
7099, 0.10207715630531311, -0.35299012064933777, 0.03415380418300629, -0.08705417066812515, -0.3240223526954651, -0.013718674890697002, -0.0003104725037701428, 0.00014302405179478228, 0.013399017974734306, -0.0009815737139433622, 0.0006107199587859213, 0.00012075791892129928, 0, 0, 0, 0.0, 0.0, 0.0, 0.0
7109, 0.10235045850276947, -0.3518142104148865, 0.03364890441298485, 0.055261362344026566, -0.0999903455376625, -0.0209084190428257, -0.00032068986911326647, 0.00014933569764252752, 0.01339977141469717, -0.0010618912056088448, 0.0006516112480312586, 3.0277595215011388e-05, 0, 0, 0, 0.0, 0.0, 0.0, 0.0
7119, 0.1034531369805336, -0.3525402843952179, 0.03266506269574165, 0.1607358604669571, 0.19028593599796295, -0.11509858071804047, -0.0003313793567940593, 0.00015617524331901222, 0.013399465009570122, -0.0010760048171505332, 0.0007162984111346304, -9.120966569753364e-05, 0, 0, 0, 0.0, 0.0, 0.0, 0.0
7129, 0.10390155762434006, -0.3506295382976532, 0.033030614256858826, 0.006123533938080072, -0.26093852519989014, 0.053593434393405914, -0.00033958404674194753, 0.00016354858234990388, 0.014039776287972927, -0.0012091384269297123, 0.0008971995557658374, 0.0032237116247415543, 0, 0, 0, 0.0, 0.0, 0.0, 0.0
7139, 0.10471516847610474, -0.3481924533843994, 0.033698808401823044, 0.24164755642414093, -0.31730929017066956, 0.08737125247716904, -0.0003525484062265605, 0.00017278412997256964, 0.0140723567456007, -0.001383756985887885, 0.0009499160805717111, 0.003292754525318742, 0, 0, 0, 0.0, 0.0, 0.0, 0.0
7149, 0.11971645057201385, -0.3504551947116852, 0.03373083844780922, -0.05221763625741005, 0.4250591993331909, 0.1220284253358841, -0.00036699321935884655, 0.00018202174396719784, 0.014105752110481262, -0.0015052285743877292, 0.000897610851097852, 0.0033866274170577526, 0, 0, 0, 0.0, 0.0, 0.0, 0.0
7159, 0.10516243427991867, -0.35152509808540344, 0.034620363265275955, -0.12066856026649475, -0.05280093848705292, 0.015905147418379784, -0.00034492422128096223, -0.0002890463510993868, 0.014139920473098755, -0.0013430395629256964, -0.0012430871138349175, 0.0034063200000673532, 0, 0, 0, 0.0, 0.0, 0.0, 0.0
7169, 0.10497746616601944, -0.35170042514801025, 0.03398247808218002, 0.04440804570913315, 0.047516413033008575, 0.017760461196303368, -0.00032514476333744824, 0.00016674162179697305, 0.013312342576682568, -0.0013773496029898524, 0.0005418097716756165, -0.001325878780335188, 0, 0, 0, 0.0, 0.0, 0.0, 0.0
7179, 0.10521245002746582, -0.34885168075561523, 0.03324628993868828, 0.1663127839565277, -0.22242839634418488, -0.03744019567966461, -0.00034060937468893826, 0.00017182438750751317, 0.013298572041094303, -0.001715563703328371, 0.0004747440107166767, -0.001427772338502109, 0, 0, 0, 0.0, 0.0, 0.0, 0.0
7189, 0.1053229570388794, -0.34717682003974915, 0.032501231878995895, -0.08597772568464279, -0.08198270946741104, 0.01639523357152939, -0.0003588366089388728, 0.00017656100681051612, 0.013283593580126762, -0.001929865451529622, 0.00047258264385163784, -0.001567517756484449, 0, 0, 0, 0.0, 0.0, 0.0, 0.0
7199, 0.10514146834611893, -0.34663209319114685, 0.03216158226132393, 0.02032923512160778, -0.1551910787820816, -0.2203873246908188, -0.0003787310270126909, 0.00018137074948754162, 0.013267185539007187, -0.002049003727734089, 0.0004893654258921742, -0.001713691744953394, 0, 0, 0, 0.0, 0.0, 0.0, 0.0
7209, 0.07580526918172836, -0.3493342995643616, 0.031692374497652054, -0.07754414528608322, 0.31952348351478577, -0.09624522924423218, -0.0004005195223726332, 0.00018593762069940567, 0.013249795883893967, -0.0023086853325366974, 0.0004240069247316569, -0.0017638627905398607, 0, 0, 0, 0.0, 0.0, 0.0, 0.0
7219, 0.09220711886882782, -0.35173144936561584, 0.03190392628312111, -0.2491907924413681, 0.2268916368484497, -0.03108610212802887, -0.0003640291979536414, 0.0011487776646390557, 0.013934781774878502, -0.002109922468662262, 0.004324252251535654, 0.0018246474210172892, 0, 0, 0, 0.0, 0.0, 0.0, 0.0
7229, 0.09185539931058884, -0.3523242771625519, 0.03161220997571945, -0.07981672883033752, 0.056307047605514526, -0.09079627692699432, -0.0003341617120895535, 0.0006276699714362621, 0.013954012654721737, -0.0018464619060978293, 0.0020592305809259415, 0.0016873398562893271, 0, 0, 0, 0.0, 0.0, 0.0, 0.0
7239, 0.12034376710653305, -0.3538767397403717, 0.0322333499789238, 0.12232163548469543, 0.09669997543096542, -0.07109280675649643, -0.0003524722415022552, 0.0006489474908448756, 0.01397097110748291, -0.0018156534060835838, 0.0021962786559015512, 0.0017047246219590306, 0, 0, 0, 0.0, 0.0, 0.0, 0.0
7249, 0.08006364107131958, -0.35630109906196594, 0.033319540321826935, -0.031072262674570084, 0.1742517650127411, 0.05000855773687363, -0.0003222681989427656, -0.0002929312759079039, 0.013989178463816643, -0.0017311184201389551, -0.0017619382124394178, 0.0016377598512917757, 0, 0, 0, 0.0, 0.0, 0.0, 0.0
7259, 0.1068580225110054, -0.35768985748291016, 0.03373843804001808, -0.0873117670416832, 0.2034587860107422, 0.08055057376623154, -0.0002919032413046807, 0.0010382374748587608, 0.0148083521053195, -0.0017700009047985077, 0.003952971193939447, 0.005736904684454203, 0, 0, 0, 0.0, 0.0, 0.0, 0.0
7269, 0.1077985167503357, -0.3542536795139313, 0.03335200995206833, 0.04880455881357193, -0.29430583119392395, 0.0444258376955986, -0.00028689185273833573, 0.00015252413868438452, 0.014868021942675114, -0.0018288107821717858, 0.00018224168161395937, 0.005702991504222155, 0, 0, 0, 0.0, 0.0, 0.0, 0.0
7279, 0.10919371247291565, -0.3527234196662903, 0.03480322286486626, 0.34229180216789246, -0.16555632650852203, 0.2731883227825165, -0.0003054300614167005, 0.00015370073379017413, 0.014925437979400158, -0.0018788710003718734, 5.308813342708163e-05, 0.005780528299510479, 0, 0, 0, 0.0, 0.0, 0.0, 0.0
7289, 0.10809746384620667, -0.35344526171684265, 0.03507372364401817, -0.12097759544849396, -0.002649156376719475, 0.010614032857120037, -0.0003249306755606085, 0.00015371970948763192, 0.014983301050961018, -0.002021285705268383, -4.92859362566378e-05, 0.005792513955384493, 0, 0, 0, 0.0, 0.0, 0.0, 0.0
7299, 0.08131778240203857, -0.35501760244369507, 0.035157326608896255, 0.016362899914383888, 0.10363569110631943, 0.13955190777778625, -0.00034558988409116864, 0.000153746732394211, 0.015040997415781021, -0.0021105939522385597, 5.470033283927478e-05, 0.005747130606323481, 0, 0, 0, 0.0, 0.0, 0.0, 0.0
7309, 0.10832518339157104, -0.3575229048728943, 0.03541983664035797, -0.09626239538192749, 0.1292262226343155, 0.08326338976621628, -0.0003194693708792329, 0.001056014676578343, 0.013858214020729065, -0.0020900743547827005, 0.003971396945416927, -0.0009724291739985347, 0, 0, 0, 0.0, 0.0, 0.0, 0.0
7319, 0.10843349248170853, -0.3577379584312439, 0.03595257177948952, 0.04515542834997177, 0.04163546860218048, -0.022129274904727936, -0.00028708812897093594, 0.00015436364628840238, 0.013850834220647812, -0.0020612229127436876, 0.00019926346431020647, -0.0010282938601449132, 0, 0, 0, 0.0, 0.0, 0.0, 0.0
7329, 0.10839799046516418, -0.3560445308685303, 0.03521206974983215, -0.007166409399360418, -0.07940003275871277, -0.0256476029753685, -0.00030824352870695293, 0.00015658888150937855, 0.013841075822710991, -0.0021698512136936188, 0.0002457816735841334, -0.0009229936404153705, 0, 0, 0, 0.0, 0.0, 0.0, 0.0
7339, 0.08292518556118011, -0.35634636878967285, 0.034445032477378845, 0.11090361326932907, -0.2097405344247818, -0.003442870918661356, -0.0003305879654362798, 0.0001598650123924017, 0.013832127675414085, -0.002299028215929866, 0.00040944578358903527, -0.00086632912280038, 0, 0, 0, 0.0, 0.0, 0.0, 0.0
7349, 0.12337835878133774, -0.3580312430858612, 0.03306202590465546, 0.004048349801450968, 0.10123570263385773, -0.15401501953601837, -0.0002993759699165821, 0.0010351322125643492, 0.013489807955920696, -0.002276162151247263, 0.003967239521443844, -0.002728617051616311, 0, 0, 0, 0.0, 0.0, 0.0, 0.0
7359, 0.110319122672081, -0.3585495054721832, 0.03419984132051468, 0.06595051288604736, -0.09354600310325623, 0.06195102259516716, -0.00027654922450892627, -0.0002763365919236094, 0.01346585713326931, -0.002093867165967822, -0.0016110142460092902, -0.0027227113023400307, 0, 0, 0, 0.0, 0.0, 0.0, 0.0
7369, 0.10992816835641861, -0.3576352298259735, 0.033845942467451096, -0.02272697724401951, -0.18785081803798676, -0.12065774947404861, -0.0002574653772171587, 0.000144436169648543, 0.01343909464776516, -0.001808750443160534, 0.00016596255591139197, -0.002821468049660325, 0, 0, 0, 0.0, 0.0, 0.0, 0.0
7379, 0.10823240876197815, -0.35627543926239014, 0.035455964505672455, -0.24895422160625458, -0.15591751039028168, 0.059912003576755524, -0.0002757001493591815, 0.00014623349125031382, 0.013410607352852821, -0.001838185009546578, 0.00019349860667716712, -0.002875679638236761, 0, 0, 0, 0.0, 0.0, 0.0, 0.0
7389, 0.08289887011051178, -0.357766330242157, 0.0353744812309742, 0.010185780934989452, -0.15509392321109772, -0.05752969905734062, -0.00029493990587070584, 0.00014800768985878676, 0.013381799682974815, -0.0020097491797059774, 0.00016133306780830026, -0.0028854648116976023, 0, 0, 0, 0.0, 0.0, 0.0, 0.0
7399, 0.12190267443656921, -0.3605960011482239, 0.03473096340894699, -0.040661245584487915, 0.07034719735383987, -0.16019079089164734, -0.00026337537565268576, 0.0009827559115365148, 0.014017164707183838, -0.0017970303306356072, 0.0036045811139047146, 0.0005707888049073517, 0, 0, 0, 0.0, 0.0, 0.0, 0.0
7409, 0.10939071327447891, -0.36094507575035095, 0.034750983119010925, -0.0006843202281743288, -0.04676656797528267, -0.17068544030189514, -0.0002380360383540392, -0.00026235199766233563, 0.014026000164449215, -0.0017856062622740865, -0.001644954551011324, 0.0005217207362875342, 0, 0, 0, 0.0, 0.0, 0.0, 0.0
7419, 0.10843493044376373, -0.3603019118309021, 0.035514261573553085, -0.2158380150794983, 0.07029003649950027, 0.05848690867424011, -0.00022463146888185292, 0.00014517565432470292, 0.014032754115760326, -0.0016243122518062592, 0.00010352780373068526, 0.0006330239120870829, 0, 0, 0, 0.0, 0.0, 0.0, 0.0
7429, 0.10983243584632874, -0.35811933875083923, 0.03401869162917137, 0.1632608026266098, -0.171116441488266, -0.17898684740066528, -0.00024087812926154584, 0.00014666195784229785, 0.014038982801139355, -0.0016250244807451963, 0.0001937359047587961, 0.0006130480323918164, 0, 0, 0, 0.0, 0.0, 0.0, 0.0
7439, 0.11103649437427521, -0.35718822479248047, 0.034501779824495316, 0.2409096360206604, -0.011209557764232159, 0.10749828815460205, -0.00025863497285172343, 0.00014843448298051953, 0.013622310012578964, -0.0015974973794072866, 0.00011384295066818595, -0.0016811490058898926, 0, 0, 0, 0.0, 0.0, 0.0, 0.0
7449, 0.12347057461738586, -0.3582074046134949, 0.03514435142278671, -0.05221083015203476, 0.07742958515882492, 0.15710397064685822, -0.00027495360700413585, 0.0001489272399339825, 0.013606242835521698, -0.0016662199050188065, -1.5296502169803716e-05, -0.0015318231889978051, 0, 0, 0, 0.0, 0.0, 0.0, 0.0
7459, 0.10939840972423553, -0.3596138060092926, 0.03569807484745979, -0.12536869943141937, 0.0876401737332344, 0.1997680366039276, -0.00025810679653659463, -0.0002669712121132761, 0.013591678813099861, -0.001650171703658998, -0.001808418077416718, -0.001348255667835474, 0, 0, 0, 0.0, 0.0, 0.0, 0.0
7469, 0.1087745949625969, -0.35929831862449646, 0.03513065353035927, 0.04190024733543396, -0.024686546996235847, -0.04819374531507492, -0.00023869039432611316, 0.0001492509909439832, 0.013579543679952621, -0.0015493144746869802, 5.8037239796249196e-05, -0.0012628687545657158, 0, 0, 0, 0.0, 0.0, 0.0, 0.0
7479, 0.10907686501741409, -0.3599381446838379, 0.03452899307012558, 0.11516231298446655, 0.28111183643341064, -0.04679816961288452, -0.00025493549765087664, 0.00014983341679908335, 0.013567238114774227, -0.0016996966442093253, 5.844782936037518e-05, -0.0011978973634541035, 0, 0, 0, 0.0, 0.0, 0.0, 0.0
7489, 0.10882019251585007, -0.35874640941619873, 0.0355137437582016, -0.04256829246878624, -0.1401280015707016, 0.2287953943014145, -0.0002784440584946424, 0.00015165600052569062, 0.012104799970984459, -0.0018266880651935935, -8.987019828055054e-05, -0.00850419420748949, 0, 0, 0, 0.0, 0.0, 0.0, 0.0
7499, 0.10898051410913467, -0.3568216562271118, 0.036913372576236725, -0.011866677552461624, -0.21548816561698914, 0.2435968816280365, -0.0002969320921692997, 0.00015109330706764013, 0.012020116671919823, -0.0018708669813349843, -2.2684123905492015e-05, -0.008431979455053806, 0, 0, 0, 0.0, 0.0, 0.0, 0.0
7509, 0.10977939516305923, -0.35525041818618774, 0.037529781460762024, 0.09540142118930817, -0.1991357058286667, 0.11864105612039566, -0.00031764653977006674, 0.00015141128096729517, 0.011935662478208542, -0.0022719702683389187, 8.625455666333437e-05, -0.008458557538688183, 0, 0, 0, 0.0, 0.0, 0.0, 0.0
7519, 0.08054544776678085, -0.3548498749732971, 0.03826208785176277, -0.13815803825855255, -0.15933305025100708, 0.11001028120517731, -0.00034116450115107, 0.00015194872685242444, 0.011850525625050068, -0.0024315642658621073, 2.1220810594968498e-05, -0.008568418212234974, 0, 0, 0, 0.0, 0.0, 0.0, 0.0
7529, 0.08003334701061249, -0.35505470633506775, 0.037758249789476395, -0.061353668570518494, 0.06404188275337219, -0.2353607416152954, -0.00030570357921533287, 0.0010766886407509446, 0.013059928081929684, -0.0022113106679171324, 0.0038721917662769556, -0.0017681265017017722, 0, 0, 0, 0.0, 0.0, 0.0, 0.0
7539, 0.07963293790817261, -0.3558045029640198, 0.03784416243433952, 0.049526289105415344, 0.2039780169725418, -0.04363254830241203, -0.00032769294921308756, 0.0011160082649439573, 0.01304094772785902, -0.0021865477319806814, 0.0039917295798659325, -0.0020275874994695187, 0, 0, 0, 0.0, 0.0, 0.0, 0.0
7549, 0.09698359668254852, -0.3567069172859192, 0.03818482533097267, 0.11895272135734558, 0.12966541945934296, 0.06786143779754639, -0.0003496265271678567, 0.0011561864521354437, 0.013019867241382599, -0.0022001515608280897, 0.004043907392770052, -0.002188189420849085, 0, 0, 0, 0.0, 0.0, 0.0, 0.0
7559, 0.1111782118678093, -0.3586316704750061, 0.038839180022478104, -0.10481090098619461, -0.024473052471876144, 0.01249087043106556, -0.0003145173250231892, 0.0006380084669217467, 0.012999233789741993, -0.0020153673831373453, 0.0017315751174464822, -0.0022960419300943613, 0, 0, 0, 0.0, 0.0, 0.0, 0.0
7569, 0.08569329977035522, -0.35920974612236023, 0.03926071897149086, 0.12313368916511536, -0.08545336872339249, 0.05571974813938141, -0.00028582013328559697, 0.00015755447384435683, 0.01297665759921074, -0.0019124549580737948, -0.0002888212911784649, -0.002356062177568674, 0, 0, 0, 0.0, 0.0, 0.0, 0.0
7579, 0.11319080740213394, -0.3591988980770111, 0.03901026397943497, -0.038484957069158554, -0.037035342305898666, -0.004162196535617113, -0.0002716933668125421, 0.001022783457301557, 0.012559481896460056, -0.0018902873853221536, 0.0035303477197885513, -0.004443120677024126, 0, 0, 0, 0.0, 0.0, 0.0, 0.0
7589, 0.11274036020040512, -0.3590761125087738, 0.038619983941316605, -0.20184913277626038, -0.022372253239154816, -0.1570848673582077, -0.0002528346376493573, 0.00015312139294110239, 0.012517123483121395, -0.001867845538072288, -9.463696187594905e-05, -0.004487144760787487, 0, 0, 0, 0.0, 0.0, 0.0, 0.0
7599, 0.12442361563444138, -0.36096999049186707, 0.04003502428531647, -0.06361118704080582, 0.20679882168769836, 0.26567602157592773, -0.0002717598690651357, 0.00015243192319758236, 0.012471470050513744, -0.001917175017297268, -4.326548150856979e-05, -0.004643255844712257, 0, 0, 0, 0.0, 0.0, 0.0, 0.0
7609, 0.11161614954471588, -0.36092549562454224, 0.03935479745268822, 0.13580584526062012, -0.20525673031806946, -0.09971384704113007, -0.00024913004017435014, -0.0002564600727055222, 0.012423699721693993, -0.0018248005071654916, -0.0017102996353060007, -0.004866904579102993, 0, 0, 0, 0.0, 0.0, 0.0, 0.0
7619, 0.08771924674510956, -0.36154478788375854, 0.0387425571680069, -0.06302439421415329, 0.0479353666305542, 0.01780245080590248, -0.00023398081248160452, 0.00015872518997639418, 0.012624132446944714, -0.0016738969134166837, 0.00012232981680426747, -0.0035582496784627438, 0, 0, 0, 0.0, 0.0, 0.0, 0.0
7629, 0.10206643491983414, -0.36175310611724854, 0.03843826800584793, 0.19891974329948425, -0.008853849023580551, 0.03716826066374779, -0.00021891224605496973, 0.0009161074412986636, 0.012589538469910622, -0.0014449437148869038, 0.003157790983095765, -0.003407122800126672, 0, 0, 0, 0.0, 0.0, 0.0, 0.0
7639, 0.09178618341684341, -0.3606932461261749, 0.037759508937597275, -0.02177768014371395, -0.05567796900868416, -0.1548248678445816, -0.00021464814199134707, 0.0005270455149002373, 0.0125571982935071, -0.001327398349530995, 0.0012908629141747952, -0.0032709355000406504, 0, 0, 0, 0.0, 0.0, 0.0, 0.0
7649, 0.10407610982656479, -0.3605278730392456, 0.03756851330399513, -0.025715429335832596, -0.04760916531085968, -0.0674031674861908, -0.00021116402058396488, 0.0008706247317604721, 0.01252453587949276, -0.0012724108528345823, 0.002691502682864666, -0.003205772489309311, 0, 0, 0, 0.0, 0.0, 0.0, 0.0
7659, 0.09298648685216904, -0.3623088300228119, 0.037468526512384415, -0.12557989358901978, 0.073726125061512, -0.05698531121015549, -0.000199309695744887, 0.0005071141058579087, 0.012493850663304329, -0.0012504899641498923, 0.0010971099836751819, -0.0031464477069675922, 0, 0, 0, 0.0, 0.0, 0.0, 0.0
7669, 0.12584136426448822, -0.36204588413238525, 0.03743664547801018, 0.2261749804019928, -0.17604076862335205, 0.016230108216404915, -0.00018811965128406882, 0.0008351656724698842, 0.012665682472288609, -0.001178540289402008, 0.0023007288109511137, -0.0020349533297121525, 0, 0, 0, 0.0, 0.0, 0.0, 0.0
7679, 0.11507423222064972, -0.36197343468666077, 0.0371638685464859, 0.0510118268430233, 0.0019235925283282995, 0.05128216743469238, -0.00018144588102586567, -0.00014034946798346937, 0.012647771276533604, -0.0012274023611098528, -0.0021194731816649437, -0.0018595161382108927, 0, 0, 0, 0.0, 0.0, 0.0, 0.0
7689, 0.11402285099029541, -0.36041030287742615, 0.0369163379073143, -0.12943275272846222, -0.1324157416820526, 0.12430831044912338, -0.00018041823932435364, 0.00018662362708710134, 0.012631431221961975, -0.0013609466841444373, -0.0007973332540132105, -0.0016540562501177192, 0, 0, 0, 0.0, 0.0, 0.0, 0.0
7699, 0.11315508186817169, -0.3599608838558197, 0.03787417709827423, 0.010326063260436058, 0.03414706140756607, 0.10602078586816788, -0.00019387906650081277, 0.00017856583872344345, 0.012615981511771679, -0.0013312160735949874, -0.0008142229053191841, -0.001435488578863442, 0, 0, 0, 0.0, 0.0, 0.0, 0.0
7709, 0.12364445626735687, -0.3605794310569763, 0.037955574691295624, -0.05848241597414017, 0.23301954567432404, 0.04850155487656593, -0.0002026829170063138, 0.00016958070045802742, 0.01355276070535183, -0.0012796178925782442, -0.0008288020035251975, 0.003683838527649641, 0, 0, 0, 0.0, 0.0, 0.0, 0.0
7719, 0.11134922504425049, -0.3614213764667511, 0.03827771171927452, -0.08345090597867966, 0.3318431079387665, 0.08874814957380295, -0.00019241974223405123, -0.00015266162517946213, 0.013588882982730865, -0.001214195042848587, -0.0022743381559848785, 0.0036167113576084375, 0, 0, 0, 0.0, 0.0, 0.0, 0.0
7729, 0.1110932007431984, -0.3608076870441437, 0.0374482125043869, -0.036960944533348083, 0.009622912853956223, -0.12756749987602234, -0.00019621899991761893, 0.00017885347187984735, 0.013626297935843468, -0.0011531495256349444, -0.0007651408086530864, 0.003662052797153592, 0, 0, 0, 0.0, 0.0, 0.0, 0.0
7739, 0.11043878644704819, -0.36135876178741455, 0.0377555713057518, -0.015424573794007301, -0.07971004396677017, 0.006434465758502483, -0.0002080677804769948, 0.0001711016520857811, 0.013663096353411674, -0.001216632081195712, -0.0007852151175029576, 0.0036980975419282913, 0, 0, 0, 0.0, 0.0, 0.0, 0.0
7749, 0.08725332468748093, -0.360381543636322, 0.03649788722395897, 0.07289696484804153, -0.14450252056121826, -0.21583746373653412, -0.0002214849810115993, 0.00016289882478304207, 0.013699949719011784, -0.0014668309595435858, -0.0008553434745408595, 0.0036729348357766867, 0, 0, 0, 0.0, 0.0, 0.0, 0.0
7759, 0.12326151877641678, -0.3599392771720886, 0.0361805334687233, 0.1904703825712204, -0.03333621844649315, -0.03282102197408676, -0.00022448411618825048, 0.0008331441204063594, 0.013057160191237926, -0.0014833385357633233, 0.002152563538402319, 0.0003411911893635988, 0, 0, 0, 0.0, 0.0, 0.0, 0.0
7769, 0.12337622046470642, -0.35951024293899536, 0.035972919315099716, 0.03320517763495445, -0.01590769551694393, 0.07598507404327393, -0.00021234730957075953, -0.000152303182403557, 0.013063414953649044, -0.0013479902409017086, -0.0023980059195309877, 0.0004889437113888562, 0, 0, 0, 0.0, 0.0, 0.0, 0.0
7779, 0.109898641705513, -0.3591366112232208, 0.0354749821126461, -0.014463684521615505, 0.006090878043323755, 0.004221995361149311, -0.00022565729159396142, -0.00017601368017494678, 0.013068445026874542, -0.0013140111695975065, -0.0023440925870090723, 0.0005175193073228002, 0, 0, 0, 0.0, 0.0, 0.0, 0.0
7789, 0.08625148981809616, -0.3583759367465973, 0.03511008247733116, -0.04604727774858475, -0.08181989938020706, 0.01957695744931698, -0.00021877425024285913, 0.00016494003648404032, 0.013074096292257309, -0.0011502361157909036, -0.0007179297972470522, 0.0003729313029907644, 0, 0, 0, 0.0, 0.0, 0.0, 0.0
7799, 0.0864943116903305, -0.35665518045425415, 0.034324511885643005, 0.19421906769275665, -0.1576526015996933, -0.10029629617929459, -0.000215094507439062, 0.000802032183855772, 0.013839255087077618, -0.0010229506297037005, 0.0022348712664097548, 0.004190519917756319, 0, 0, 0, 0.0, 0.0, 0.0, 0.0
7809, 0.11006004363298416, -0.3587256669998169, 0.03436458855867386, -0.08919528871774673, 0.2766687870025635, 0.009489791467785835, -0.00022498876205645502, 0.0008248538943007588, 0.013880757614970207, -0.0009559215977787971, 0.0023294752463698387, 0.004110316280275583, 0, 0, 0, 0.0, 0.0, 0.0, 0.0
7819, 0.11012843996286392, -0.35861316323280334, 0.03499278798699379, 0.029020454734563828, -0.07128319144248962, 0.06980837881565094, -0.00021530486992560327, 0.00017082926933653653, 0.013923542574048042, -0.0009086572681553662, -0.0006825599120929837, 0.004086059983819723, 0, 0, 0, 0.0, 0.0, 0.0, 0.0
7829, 0.108607716858387, -0.36007410287857056, 0.034406449645757675, -0.12979203462600708, 0.31308713555336, 0.14794446527957916, -0.00022439843451138586, 0.0001638984977034852, 0.013963708654046059, -0.0009100804454647005, -0.0007035867893137038, 0.003947543445974588, 0, 0, 0, 0.0, 0.0, 0.0, 0.0
7839, 0.08423766493797302, -0.3597235083580017, 0.03397655487060547, 0.03443574532866478, -0.1168607547879219, -0.005997383035719395, -0.00023397846962325275, 0.00015664668171666563, 0.014002482406795025, -0.0010059550404548645, -0.0007467711111530662, 0.0038075291085988283, 0, 0, 0, 0.0, 0.0, 0.0, 0.0
7849, 0.0956120640039444, -0.3590177297592163, 0.036023471504449844, -0.058516670018434525, -0.14575092494487762, 0.13501200079917908, -0.00022763894230592996, 0.0008359495550394058, 0.013238787651062012, -0.001034508808515966, 0.00235041044652462, -0.0002370068250456825, 0, 0, 0, 37668.0, 37480.0, 37539.0, 37609.0
7859, 0.0960715115070343, -0.35923823714256287, 0.04138130322098732, 0.37277618050575256, 0.21570000052452087, 0.4714870750904083, -0.00023227056954056025, 0.0005078716785646975, 0.013238010928034782, -0.00040511018596589565, 0.0005533292423933744, -6.897298590047285e-05, 0, 0, 0, 38072.0, 37443.0, 37135.0, 37637.0
7869, 0.11801502853631973, -0.3536831736564636, 0.030514925718307495, -0.21204788982868195, -0.6584398150444031, -1.4065523147583008, -0.00023324554786086082, 0.0005125878378748894, 0.01323765143752098, 0.00021013049990870059, 0.00038995538488961756, -2.465625129843829e-06, 0, 0, 0, 42166.0, 42686.0, 42386.0, 42432.0
7879, 0.0925552099943161, -0.35089460015296936, 0.048560820519924164, 0.7551319003105164, 0.6420450806617737, 2.926135301589966, -0.00023758479801472276, -0.00015035636897664517, 0.013240915723145008, 0.000840935274027288, -0.002963844919577241, 0.0005842451937496662, 0, 0, 0, 44346.0, 43459.0, 43149.0, 42699.0
7889, 0.1041891798377037, -0.3459415137767792, 0.031485941261053085, -0.37797290086746216, -0.4726862907409668, -3.7393293380737305, -0.0003169746487401426, 0.0007666861638426781, 0.013151085935533047, 0.0010129072470590472, 0.0013636535732075572, 0.00011146672477480024, 0, 0, 0, 44619.0, 42107.0, 43487.0, 47124.0
7899, 0.125277578830719, -0.33133789896965027, 0.04023259878158569, 2.6500303745269775, -2.5899648666381836, -0.33789199590682983, -0.0003336318186484277, 0.0004648470785468817, 0.013155432417988777, 0.00147348758764565, -0.00031218581716530025, 0.0006719137309119105, 0, 0, 0, 46697.0, 44880.0, 42545.0, 44497.0
7909, 0.1640879511833191, -0.2943887710571289, 0.042636461555957794, 3.561509132385254, -2.098205804824829, -0.8116294145584106, -0.00031591756851412356, 0.000460829702205956, 0.013165012933313847, 0.0020692413672804832, -0.0004914131131954491, 0.0012447049375623465, 0, 0, 0, 47804.0, 44251.0, 41421.0, 44926.0
7919, 0.20983539521694183, -0.24269120395183563, 0.03665333613753319, 7.000084400177002, -5.324071407318115, 3.631887197494507, -0.0002924069995060563, 0.0004548522992990911, 0.01317414827644825, 0.002633309457451105, -0.0007035991293378174, 0.0005830645095556974, 0, 0, 0, 44852.0, 48172.0, 45081.0, 40080.0
7929, 0.28073668479919434, -0.1535814106464386, 0.038990363478660583, 8.355135917663574, -6.500775337219238, 1.485695719718933, -0.0002635162672959268, 0.00044639321276918054, 0.013187048025429249, 0.0031435287091881037, -0.0009894028771668673, 0.0019974843598902225, 0, 0, 0, 43747.0, 43291.0, 45422.0, 45331.0
7939, 0.3942403793334961, -0.04813625290989876, 0.046711165457963943, 8.971717834472656, -8.761813163757324, 0.9297517538070679, -0.0005144181195646524, 0.0005607888451777399, 0.012323271483182907, 0.002168303355574608, -0.0007359487353824079, -0.0016852320404723287, 0, 0, 0, 45774.0, 46617.0, 43010.0, 41491.0
7949, 0.5465475916862488, 0.11002260446548462, 0.09471111744642258, 16.67894172668457, -15.298370361328125, 5.155099868774414, -0.0008328229887410998, -0.00014323909999802709, 0.01230684109032154, 0.0007621767581440508, -0.0046165743842720985, -0.001088402234017849, 0, 0, 0, 46310.0, 47182.0, 42450.0, 39129.0
7959, 0.6608182191848755, 0.29948949813842773, 0.1489647775888443, 18.073217391967773, -16.217939376831055, 5.877964496612549, -0.0012382911518216133, -0.0002130797947756946, 0.012305889278650284, -0.0011771792778745294, -0.005412396974861622, 0.0012236529728397727, 0, 0, 0, 44755.0, 48321.0, 43659.0, 36480.0
7969, 0.7593119740486145, 0.5320236682891846, 0.21263296902179718, 14.43616008758545, -14.226424217224121, 7.30854606628418, -0.0017631748924031854, 0.0014258554438129067, 0.012352040968835354, -0.0038742360193282366, 0.001906469464302063, 0.0038396527525037527, 0, 0, 0, 43683.0, 40651.0, 44280.0, 43963.0
7979, 0.6955236792564392, 0.5775085091590881, 0.2991446554660797, -1.7432218790054321, -0.3490874171257019, 9.019457817077637, -0.004439063370227814, 0.002628158777952194, 0.012623905204236507, -0.017268678173422813, 0.006548881996423006, 0.0073675476014614105, 0, 0, 0, 43924.0, 42405.0, 44414.0, 41667.0
7989, 0.7119014859199524, 0.6154137849807739, 0.4348272979259491, -8.027251243591309, 10.90730094909668, 13.97750473022461, -0.0059654805809259415, 0.004108705557882786, 0.012637819163501263, -0.02470983751118183, 0.012239821255207062, 0.0022789600770920515, 0, 0, 0, 42608.0, 39527.0, 45708.0, 42433.0
7999, 0.6190692782402039, 0.5366302132606506, 0.60260409116745, -6.258022785186768, 6.4865288734436035, 17.47231101989746, -0.009633831679821014, 0.0019693251233547926, 0.012541171163320541, -0.04239215329289436, 2.6052521207020618e-05, -0.001566906226798892, 0, 0, 0, 43836.0, 42281.0, 44979.0, 38798.0
8009, 0.6516150832176208, 0.6759153008460999, 0.7526570558547974, 5.469856262207031, -4.949419975280762, 14.856378555297852, -0.009491609409451485, 0.0028469935059547424, 0.01259628590196371, -0.04067656770348549, 0.003078536130487919, 0.004221102688461542, 0, 0, 0, 43775.0, 46844.0, 44606.0, 33070.0
8019, 0.710077702999115, 0.798912525177002, 0.9046645760536194, 9.459060668945312, -9.265864372253418, 15.044967651367188, -0.012536994181573391, 0.002912683878093958, 0.012481502257287502, -0.054622750729322433, 0.0021594385616481304, 0.007035238668322563, 0, 0, 0, 43763.0, 45558.0, 44377.0, 33988.0
8029, 0.7615426182746887, 0.8522992730140686, 1.0791900157928467, 6.033928394317627, -6.893060684204102, 17.471050262451172, -0.013702630065381527, 0.003968997858464718, 0.012737400829792023, -0.05882679298520088, 0.006173183675855398, 0.009166733361780643, 0, 0, 0, 42641.0, 38831.0, 45698.0, 40133.0
8039, 0.7603080868721008, 0.915372908115387, 1.3146793842315674, -3.3797311782836914, 3.0548038482666016, 24.47035789489746, -0.014042920432984829, 0.00399341806769371, 0.012857007794082165, -0.05892988666892052, 0.004753291141241789, 0.011072040535509586, 0, 0, 0, 43872.0, 39347.0, 45826.0, 38008.0
8049, 0.7124086022377014, 0.8066821694374084, 1.5654757022857666, -1.7970844507217407, 10.321901321411133, 25.70041847229004, -0.0172125194221735, 0.0031715305522084236, 0.012761992402374744, -0.07328109443187714, -0.000922602426726371, 0.010372716933488846, 0, 0, 0, 40421.0, 40279.0, 48803.0, 36096.0
8059, 0.6846590042114258, 0.8496667742729187, 1.8182216882705688, -5.490097522735596, 7.858414649963379, 26.608806610107422, -0.01720299758017063, 0.003354547778144479, 0.012937658466398716, -0.07099584490060806, -0.0012291185557842255, 0.008046477101743221, 0, 0, 0, 42704.0, 38821.0, 47010.0, 37189.0
8069, 0.6098390817642212, 0.9297770857810974, 2.085275411605835, -0.34133437275886536, -1.2022249698638916, 26.918609619140625, -0.020603159442543983, 0.0020964755676686764, 0.012011549435555935, -0.0859810933470726, -0.008802706375718117, 0.004523669369518757, 0, 0, 0, 43611.0, 43954.0, 46631.0, 30343.0
8079, 0.7157303094863892, 0.9644081592559814, 2.3767144680023193, 15.068470001220703, 0.6407151818275452, 30.056560516357422, -0.0232181828469038, 0.003974904306232929, 0.011961400508880615, -0.09643800556659698, -4.909684503218159e-05, 0.011779863387346268, 0, 0, 0, 43862.0, 42021.0, 47190.0, 32335.0
8089, 0.7818523645401001, 1.1075176000595093, 2.693272352218628, 12.963576316833496, -11.539482116699219, 31.84443473815918, -0.02449967712163925, 0.004212935920804739, 0.012046495452523232, -0.09959083795547485, 8.764005178818479e-05, 0.012287524528801441, 0, 0, 0, 44562.0, 40798.0, 46944.0, 32634.0
8099, 0.802825391292572, 1.0951505899429321, 3.0276620388031006, -3.008587121963501, 0.3768700957298279, 34.81526184082031, -0.026730109006166458, 0.0048335543833673, 0.011983913369476795, -0.1074843481183052, 0.0020832763984799385, 0.007686876691877842, 0, 0, 0, 44273.0, 41427.0, 47918.0, 30743.0
8109, 0.7647926211357117, 1.0555369853973389, 3.3696417808532715, -0.6533641815185547, 7.674065589904785, 34.63874053955078, -0.02758820354938507, 0.0038274929393082857, 0.012082520872354507, -0.10808610171079636, -0.0046427384950220585, 0.005328499246388674, 0, 0, 0, 41901.0, 34317.0, 50250.0, 38190.0
8119, 0.7249706983566284, 1.0258510112762451, 3.7019097805023193, -10.215785026550293, 15.175240516662598, 33.13520050048828, -0.02972976677119732, 0.0036676463205367327, 0.012420081533491611, -0.11549588292837143, -0.006755259353667498, 0.012205276638269424, 0, 0, 0, 42556.0, 41114.0, 49832.0, 30159.0
8129, 0.7855648398399353, 0.9362379908561707, 4.052297115325928, 3.796724319458008, 6.333767414093018, 35.87603759765625, -0.03294427692890167, 0.0021767234429717064, 0.012278897687792778, -0.12824974954128265, -0.015777457505464554, 0.016960658133029938, 0, 0, 0, 46854.0, 42641.0, 46723.0, 27066.0
8139, 0.9621024131774902, 0.8881600499153137, 4.387900352478027, 14.413484573364258, 10.574321746826172, 33.958038330078125, -0.03355686739087105, 0.0014751522103324533, 0.012576591223478317, -0.1263667494058609, -0.02010538801550865, 0.023401955142617226, 0, 0, 0, 47002.0, 43298.0, 46296.0, 26218.0
8149, 1.1104177236557007, 0.8557899594306946, 4.701147556304932, 7.045516014099121, 9.511103630065918, 30.396766662597656, -0.03563813492655754, 0.0004538030188996345, 0.012668916024267673, -0.13238470256328583, -0.026100900024175644, 0.030555633828043938, 0, 0, 0, 45715.0, 41045.0, 47538.0, 28745.0
8159, 1.2860509157180786, 0.688511312007904, 5.006567478179932, 14.084870338439941, 13.918295860290527, 29.661340713500977, -0.038057636469602585, -0.0011984911980107427, 0.009988773614168167, -0.14022068679332733, -0.035593606531620026, 0.02362547256052494, 0, 0, 0, 47431.0, 42187.0, 45814.0, 26212.0
8169, 1.618847131729126, 0.4178290069103241, 5.309453010559082, 29.537160873413086, 28.149473190307617, 28.55527114868164, -0.03867579996585846, -0.002108850283548236, 0.010363020934164524, -0.1372755616903305, -0.04085433483123779, 0.034615468233823776, 0, 0, 0, 52290.0, 40744.0, 40087.0, 28386.0
8179, 1.8814868927001953, 0.13141052424907684, 5.587182998657227, 24.64391326904297, 35.13956832885742, 27.056875228881836, -0.04016568511724472, -0.003440696746110916, 0.010638236068189144, -0.13891491293907166, -0.04829799011349678, 0.03725831210613251, 0, 0, 0, 44644.0, 40243.0, 48751.0, 28754.0
8189, 1.9421474933624268, -0.2500959038734436, 5.834264278411865, 2.355268955230713, 32.776119232177734, 25.30589485168457, -0.04240574687719345, -0.004830549471080303, 0.010791606269776821, -0.14415407180786133, -0.056178346276283264, 0.03827938437461853, 0, 0, 0, 48551.0, 35268.0, 45151.0, 34261.0
8199, 2.075576066970825, -0.7328448295593262, 6.038144111633301, -1.378951072692871, 45.179500579833984, 22.15520477294922, -0.042660366743803024, -0.0060685863718390465, 0.011324700899422169, -0.1373494565486908, -0.0632181316614151, 0.04126166179776192, 0, 0, 0, 48840.0, 37854.0, 43832.0, 32223.0
8209, 2.039663791656494, -1.2271919250488281, 6.222126007080078, -4.689639091491699, 44.2869987487793, 19.085126876831055, -0.04230032488703728, -0.009708606638014317, 0.007030319422483444, -0.12792328000068665, -0.0836128517985344, 0.018307028338313103, 0, 0, 0, 47843.0, 36969.0, 45397.0, 35263.0
8219, 1.9908324480056763, -1.7876399755477905, 6.345504283905029, -15.703072547912598, 54.65265655517578, 13.023510932922363, -0.04242042452096939, -0.010787250474095345, 0.007304786704480648, -0.1196954995393753, -0.08837918937206268, 0.02025875449180603, 0, 0, 0, 47014.0, 37255.0, 45524.0, 36210.0
8229, 1.9178740978240967, -2.291818618774414, 6.4529008865356445, -22.20446014404297, 37.71922302246094, 11.485905647277832, -0.04222854599356651, -0.013652420602738857, 0.007338368333876133, -0.10936041921377182, -0.10303162038326263, 0.021640898659825325, 0, 0, 0, 45180.0, 32020.0, 47648.0, 40852.0
8239, 1.6462372541427612, -2.7728633880615234, 6.5826520919799805, -32.689674377441406, 44.0811653137207, 11.68844223022461, -0.04059949144721031, -0.01805271953344345, 0.007107586599886417, -0.09049676358699799, -0.1256495714187622, 0.020779680460691452, 0, 0, 0, 46907.0, 35495.0, 46318.0, 37775.0
8249, 1.454455018043518, -3.125060558319092, 6.695178985595703, -40.031436920166016, 23.996559143066406, 11.250308990478516, -0.03982466086745262, -0.020168092101812363, 0.004298781044781208, -0.07735473662614822, -0.13366486132144928, 0.008005736395716667, 0, 0, 0, 45236.0, 35328.0, 48319.0, 37737.0
8259, 1.1452980041503906, -3.514051675796509, 6.786248207092285, -47.24312973022461, 24.820039749145508, 9.13857650756836, -0.037990499287843704, -0.02560252510011196, 0.003664604155346751, -0.057664450258016586, -0.15995967388153076, 0.0034311097115278244, 0, 0, 0, 46873.0, 35280.0, 47208.0, 39120.0
8269, 0.6872140169143677, -3.70866322517395, 6.907393932342529, -44.53829574584961, 13.449759483337402, 13.551825523376465, -0.0351218618452549, -0.030110085383057594, 0.0029056661296635866, -0.032407913357019424, -0.1790829598903656, -0.001168142189271748, 0, 0, 0, 45312.0, 41353.0, 49773.0, 32045.0
8279, 0.36279138922691345, -3.9417238235473633, 7.04976749420166, -42.61056137084961, 4.2285027503967285, 15.863794326782227, -0.03393549472093582, -0.03114365041255951, 0.0029675995465368032, -0.017410553991794586, -0.17589056491851807, -0.0006873543607071042, 0, 0, 0, 50137.0, 33751.0, 45807.0, 39625.0
8289, 0.044811949133872986, -4.223119735717773, 7.196571350097656, -42.69363021850586, 8.868367195129395, 15.83965015411377, -0.030224770307540894, -0.034373242408037186, 0.0020840393844991922, 0.011759652756154537, -0.18534383177757263, -0.0019957590848207474, 0, 0, 0, 48995.0, 39916.0, 47512.0, 33882.0
8299, -0.33228200674057007, -4.390124797821045, 7.3466596603393555, -35.18183898925781, 2.4132561683654785, 16.397445678710938, -0.02574552595615387, -0.03720325231552124, 0.0005153279635123909, 0.04416648671030998, -0.1914074867963791, -0.004652359522879124, 0, 0, 0, 50785.0, 37435.0, 46165.0, 36753.0
8309, -0.5526534914970398, -4.620228290557861, 7.529513835906982, -25.47452735900879, 8.667784690856934, 19.415287017822266, -0.022708982229232788, -0.037799619138240814, 0.00029612277285195887, 0.06705904752016068, -0.18283919990062714, -0.0006879880675114691, 0, 0, 0, 50082.0, 39740.0, 48011.0, 33577.0
8319, -0.8625351190567017, -4.809545993804932, 7.683835983276367, -31.24141502380371, -7.366104602813721, 17.969694137573242, -0.018510324880480766, -0.03984659165143967, -0.0005888491286896169, 0.09553644806146622, -0.18298988044261932, -0.0014018288347870111, 0, 0, 0, 51551.0, 36403.0, 46541.0, 37137.0
8329, -1.2109895944595337, -4.813685417175293, 7.842126369476318, -28.92247200012207, -6.563348293304443, 18.235998153686523, -0.012589395977556705, -0.040570229291915894, -0.0019030265975743532, 0.1330532729625702, -0.17494241893291473, -0.005116220563650131, 0, 0, 0, 50595.0, 38892.0, 48178.0, 34926.0
8339, -1.5481293201446533, -4.836812496185303, 8.01186752319336, -31.014629364013672, -20.18638038635254, 20.182424545288086, -0.009747179225087166, -0.04094252735376358, -0.001373073784634471, 0.15026545524597168, -0.16404539346694946, -0.0011553231161087751, 0, 0, 0, 50154.0, 37437.0, 49469.0, 36310.0
8349, -1.8768868446350098, -4.626049995422363, 8.173774719238281, -28.8511962890625, -27.026103973388672, 18.779762268066406, -0.003916896879673004, -0.041149161756038666, -0.0024711554870009422, 0.18441657721996307, -0.15273767709732056, -0.004277156665921211, 0, 0, 0, 52440.0, 35439.0, 46596.0, 38455.0
8359, -2.143364429473877, -4.508508682250977, 8.33848762512207, -24.951120376586914, -27.399736404418945, 18.59031867980957, -0.001515587093308568, -0.04135526344180107, -0.002547911135479808, 0.1956569254398346, -0.14096781611442566, -0.0023035374470055103, 0, 0, 0, 51016.0, 38439.0, 48873.0, 36142.0
8369, -2.443664073944092, -4.339190483093262, 8.474522590637207, -23.587451934814453, -27.076139450073242, 16.198701858520508, 0.0033471989445388317, -0.04174003005027771, -0.0036429285537451506, 0.2210964858531952, -0.13072612881660461, -0.0015710783191025257, 0, 0, 0, 50898.0, 35718.0, 48809.0, 39455.0
8379, -2.845360040664673, -4.096632957458496, 8.58541488647461, -32.817832946777344, -27.641433715820312, 14.603860855102539, 0.007465199567377567, -0.04162083938717842, -0.004449950065463781, 0.24019686877727509, -0.11743864417076111, 0.00020134176884312183, 0, 0, 0, 52026.0, 35122.0, 48076.0, 40136.0
8389, -3.291313648223877, -3.956048011779785, 8.688141822814941, -34.27298355102539, -30.377071380615234, 14.103459358215332, 0.010276046581566334, -0.04119071736931801, -0.0026780818589031696, 0.24990974366664886, -0.10147760808467865, 0.016668712720274925, 0, 0, 0, 50006.0, 34627.0, 50186.0, 40234.0
8399, -3.7947278022766113, -3.687692403793335, 8.762697219848633, -41.51023483276367, -43.24150466918945, 9.230043411254883, 0.015576697885990143, -0.03944531828165054, -0.0035475478507578373, 0.2739814519882202, -0.0788877084851265, 0.017131315544247627, 0, 0, 0, 49885.0, 34645.0, 49589.0, 41118.0
8409, -4.3136115074157715, -3.25870680809021, 8.809940338134766, -42.5661506652832, -39.771541595458984, 7.257951259613037, 0.020633989945054054, -0.03762068226933479, -0.0045312270522117615, 0.2946677505970001, -0.056584130972623825, 0.013670324347913265, 0, 0, 0, 49170.0, 32765.0, 50310.0, 42938.0
8419, -4.879378795623779, -2.7965474128723145, 8.837078094482422, -43.324283599853516, -51.94696044921875, 5.202170372009277, 0.02285153418779373, -0.03642083704471588, -0.004105076659470797, 0.29551321268081665, -0.03792234882712364, 0.020210856571793556, 0, 0, 0, 48642.0, 35284.0, 50984.0, 41902.0
8429, -5.348452568054199, -2.430196762084961, 8.881108283996582, -31.60755729675293, -51.91624450683594, 3.360663414001465, 0.02656978741288185, -0.03408125787973404, -0.0019812711980193853, 0.3046761155128479, -0.01170868705958128, 0.03712724521756172, 0, 0, 0, 49199.0, 34006.0, 50521.0, 42589.0
8439, -5.656875133514404, -1.677668571472168, 8.872394561767578, -14.510265350341797, -61.34233093261719, 2.8449790477752686, 0.03196847438812256, -0.030734220519661903, -0.0029352169949561357, 0.323782742023468, 0.018785476684570312, 0.03572345897555351, 0, 0, 0, 48847.0, 39950.0, 50328.0, 36889.0
8449, -5.725436687469482, -1.2215049266815186, 8.937760353088379, 5.492586612701416, -62.34139633178711, 0.4799483120441437, 0.03207879513502121, -0.028009595349431038, -0.0016399044543504715, 0.3064795434474945, 0.0454978309571743, 0.048970844596624374, 0, 0, 0, 51189.0, 41278.0, 47393.0, 36274.0
8459, -5.484185695648193, -0.4294017553329468, 8.956916809082031, 28.22784996032715, -73.86495208740234, -1.467360019683838, 0.03790268301963806, -0.02430572174489498, -0.003117013955488801, 0.3266349136829376, 0.07618793100118637, 0.048129837960004807, 0, 0, 0, 50948.0, 44118.0, 47785.0, 32646.0
8469, -5.237000942230225, 0.38704925775527954, 8.888313293457031, 43.86074447631836, -71.51067352294922, -1.6518598794937134, 0.03986211121082306, -0.022776152938604355, -0.002154793357476592, 0.31855788826942444, 0.09204690158367157, 0.062017153948545456, 0, 0, 0, 52068.0, 44304.0, 45942.0, 32902.0
8479, -4.8731255531311035, 1.192179799079895, 8.845793724060059, 56.22599411010742, -76.86299896240234, -2.5554556846618652, 0.041171178221702576, -0.018371231853961945, 0.0012841775314882398, 0.30463290214538574, 0.12515945732593536, 0.0857665091753006, 0, 0, 0, 49885.0, 45914.0, 48276.0, 29956.0
8489, -4.212944507598877, 2.085172176361084, 8.804410934448242, 66.0322494506836, -78.77275085449219, -5.01871919631958, 0.0428963340818882, -0.013167096301913261, 0.001415976439602673, 0.29500091075897217, 0.15961076319217682, 0.08632767200469971, 0, 0, 0, 50655.0, 43749.0, 46469.0, 33377.0
8499, -3.651235342025757, 2.8989646434783936, 8.712152481079102, 68.68160247802734, -72.78026580810547, -7.796268463134766, 0.04381443187594414, -0.012109413743019104, 0.003148048883304, 0.27785471081733704, 0.16440406441688538, 0.09666740894317627, 0, 0, 0, 47741.0, 46894.0, 49494.0, 30453.0
8509, -3.0554261207580566, 3.684927463531494, 8.607492446899414, 67.4870834350586, -73.51941680908203, -10.256303787231445, 0.044704802334308624, -0.008339977823197842, 0.0038981938268989325, 0.26115646958351135, 0.18520095944404602, 0.103293776512146, 0, 0, 0, 49223.0, 42839.0, 46939.0, 36053.0
8519, -2.6123526096343994, 4.335588455200195, 8.448532104492188, 45.857391357421875, -52.95805358886719, -12.159181594848633, 0.048108942806720734, -0.0036612586118280888, 0.008780991658568382, 0.25566205382347107, 0.20898398756980896, 0.1291714906692505, 0, 0, 0, 47753.0, 41820.0, 48418.0, 38208.0
8529, -2.170466899871826, 4.961899280548096, 8.284418106079102, 43.76981735229492, -59.744754791259766, -15.124217987060547, 0.04885102063417435, -0.0010888432152569294, 0.01024860329926014, 0.2367345690727234, 0.21647238731384277, 0.13296851515769958, 0, 0, 0, 46984.0, 40128.0, 47603.0, 39386.0
8539, -1.8184998035430908, 5.444112777709961, 8.038952827453613, 27.45482063293457, -37.621341705322266, -22.10475730895996, 0.05022934451699257, 0.0007962698000483215, 0.011823817156255245, 0.222234308719635, 0.21790285408496857, 0.1344003677368164, 0, 0, 0, 45093.0, 33919.0, 48275.0, 45883.0
8549, -1.6674731969833374, 5.819446563720703, 7.8141703605651855, 17.26698875427246, -35.206382751464844, -21.874528884887695, 0.050806157290935516, 0.0017428618157282472, 0.013830456882715225, 0.2021603137254715, 0.21197332441806793, 0.13570421934127808, 0, 0, 0, 45563.0, 38830.0, 47398.0, 42217.0
8559, -1.686880350112915, 5.949744701385498, 7.613836765289307, 10.662931442260742, -17.60212516784668, -25.691347122192383, 0.05165354907512665, 0.004734011832624674, 0.015004243701696396, 0.18517109751701355, 0.21972739696502686, 0.13517042994499207, 0, 0, 0, 45456.0, 34403.0, 47338.0, 46237.0
8569, -1.5742664337158203, 6.078368663787842, 7.339689254760742, 4.4337263107299805, -8.483583450317383, -25.24386978149414, 0.05464866757392883, 0.01028843317180872, 0.020012496039271355, 0.1797463446855545, 0.24300017952919006, 0.15590788424015045, 0, 0, 0, 44521.0, 33238.0, 46872.0, 46707.0
8579, -1.492469310760498, 6.1307692527771, 7.0785908699035645, 4.851971626281738, 2.3082022666931152, -23.94993782043457, 0.05564398318529129, 0.0117864478379488, 0.021944930776953697, 0.1636800467967987, 0.23827455937862396, 0.16099058091640472, 0, 0, 0, 44043.0, 38093.0, 47514.0, 43508.0
8589, -1.3346754312515259, 6.0888519287109375, 6.78647518157959, 10.900762557983398, 8.283890724182129, -27.098785400390625, 0.05622725933790207, 0.014205489307641983, 0.02360168658196926, 0.14652182161808014, 0.23989252746105194, 0.16045553982257843, 0, 0, 0, 47539.0, 35519.0, 43304.0, 46009.0
8599, -1.1044456958770752, 6.048835277557373, 6.464908123016357, 18.207441329956055, 13.727694511413574, -29.252336502075195, 0.057121239602565765, 0.01613873429596424, 0.025417540222406387, 0.13209828734397888, 0.23805658519268036, 0.16325604915618896, 0, 0, 0, 47204.0, 40882.0, 43631.0, 42056.0
8609, -0.734783947467804, 6.002941131591797, 6.172149658203125, 33.27067947387695, 14.168639183044434, -26.801876068115234, 0.0572548508644104, 0.018760235980153084, 0.03035597875714302, 0.11169563233852386, 0.23943935334682465, 0.1836186945438385, 0, 0, 0, 49280.0, 38546.0, 41180.0, 44527.0
8619, -0.24141694605350494, 5.881209373474121, 5.88394021987915, 42.834529876708984, 13.239615440368652, -26.51590919494629, 0.056516773998737335, 0.02137608453631401, 0.03212134167551994, 0.09014971554279327, 0.2417525202035904, 0.1786947399377823, 0, 0, 0, 45303.0, 39371.0, 45118.0, 43227.0
8629, 0.3227040767669678, 5.709324836730957, 5.579281330108643, 43.328590393066406, 17.168006896972656, -26.538667678833008, 0.05734850838780403, 0.022995460778474808, 0.0341171994805336, 0.07994917780160904, 0.2367013543844223, 0.17593622207641602, 0, 0, 0, 49605.0, 39974.0, 38992.0, 43274.0
8639, 0.8474595546722412, 5.637042999267578, 5.332220077514648, 50.50388717651367, 14.420857429504395, -24.94131851196289, 0.058066513389348984, 0.023771213367581367, 0.03633727505803108, 0.06975215673446655, 0.22572670876979828, 0.1756456345319748, 0, 0, 0, 46363.0, 46112.0, 44520.0, 37072.0
8649, 1.4417551755905151, 5.583207607269287, 5.095398902893066, 49.31060028076172, 11.528827667236328, -17.835128784179688, 0.05788704380393028, 0.02614871971309185, 0.038027405738830566, 0.05490987375378609, 0.22518476843833923, 0.17491234838962555, 0, 0, 0, 51976.0, 41148.0, 38046.0, 41954.0
8659, 2.060812473297119, 5.58787727355957, 4.904024124145508, 61.35688018798828, 9.291580200195312, -16.461814880371094, 0.05712629854679108, 0.027691084891557693, 0.04199673607945442, 0.0361359603703022, 0.21719974279403687, 0.1901218742132187, 0, 0, 0, 47915.0, 45785.0, 43451.0, 36583.0
8669, 2.649868965148926, 5.67145299911499, 4.750162601470947, 54.69993591308594, -6.360910415649414, -11.940165519714355, 0.056060370057821274, 0.029663164168596268, 0.04384706914424896, 0.018435806035995483, 0.21298755705356598, 0.18761451542377472, 0, 0, 0, 48782.0, 44385.0, 43256.0, 37835.0
8679, 3.224482774734497, 5.726235866546631, 4.5957136154174805, 48.0773811340332, 2.7408885955810547, -7.888852596282959, 0.05495329946279526, 0.031138909980654716, 0.04572264477610588, 0.0018989639356732368, 0.20501922070980072, 0.18310949206352234, 0, 0, 0, 47296.0, 44853.0, 45663.0, 37282.0
8689, 3.576162576675415, 5.857895851135254, 4.530226707458496, 36.54600524902344, -5.937418460845947, -4.8135666847229, 0.05381670966744423, 0.031458932906389236, 0.04774928465485573, -0.014035689644515514, 0.1891745775938034, 0.1816871613264084, 0, 0, 0, 45661.0, 42242.0, 48209.0, 40391.0
8699, 3.823126792907715, 5.871426582336426, 4.454910755157471, 18.491409301757812, 7.089259147644043, -2.937748432159424, 0.05156229808926582, 0.03343871980905533, 0.05035081133246422, -0.035853128880262375, 0.1836351454257965, 0.1806989461183548, 0, 0, 0, 47212.0, 41978.0, 47189.0, 40800.0
8709, 3.957888126373291, 5.805477619171143, 4.422152996063232, 8.988117218017578, 6.17955207824707, 0.7597379684448242, 0.04984843730926514, 0.03421131148934364, 0.05208791419863701, -0.053023625165224075, 0.17073971033096313, 0.17681916058063507, 0, 0, 0, 45638.0, 34888.0, 49526.0, 46376.0
8719, 3.992201328277588, 5.61086368560791, 4.421258449554443, -1.430387020111084, 25.525798797607422, 0.31792986392974854, 0.048673488199710846, 0.03457425907254219, 0.05389208346605301, -0.06608368456363678, 0.15544123947620392, 0.17630712687969208, 0, 0, 0, 48606.0, 39129.0, 46834.0, 43716.0
8729, 4.04679536819458, 5.395219326019287, 4.392701148986816, 2.94741153717041, 16.686283111572266, -1.7196602821350098, 0.04672906920313835, 0.03532489389181137, 0.055481549352407455, -0.08272525668144226, 0.143575057387352, 0.1726900339126587, 0, 0, 0, 45528.0, 42562.0, 50012.0, 41048.0
8739, 4.041928291320801, 5.027599811553955, 4.386036396026611, -2.0175604820251465, 40.11067199707031, -2.790804624557495, 0.04609391838312149, 0.0356474444270134, 0.057356711477041245, -0.09037499874830246, 0.12930414080619812, 0.17432722449302673, 0, 0, 0, 50915.0, 38483.0, 44568.0, 45530.0
8749, 4.086910724639893, 4.781787872314453, 4.386390686035156, 0.19218087196350098, 30.187644958496094, 1.2265785932540894, 0.04429570212960243, 0.035920336842536926, 0.05803768336772919, -0.10404156148433685, 0.11649397760629654, 0.1677573323249817, 0, 0, 0, 46087.0, 45680.0, 50963.0, 38249.0
8759, 4.1646294593811035, 4.3267822265625, 4.349887371063232, 4.0238938331604, 36.180843353271484, -2.0633838176727295, 0.04244018718600273, 0.03608069196343422, 0.059603702276945114, -0.11663241684436798, 0.10328678041696548, 0.16587646305561066, 0, 0, 0, 51562.0, 36988.0, 45054.0, 47596.0
8769, 4.236096382141113, 3.9040722846984863, 4.303751468658447, -2.7461366653442383, 51.077701568603516, -1.2827918529510498, 0.04216199740767479, 0.036120712757110596, 0.061474818736314774, -0.11861883103847504, 0.08982975780963898, 0.16687919199466705, 0, 0, 0, 48846.0, 43781.0, 48762.0, 41899.0
8779, 4.2639875411987305, 3.5734498500823975, 4.267416477203369, -1.8863903284072876, 34.247039794921875, -5.756955146789551, 0.040463417768478394, 0.035229429602622986, 0.0630517452955246, -0.12822864949703217, 0.07183410227298737, 0.1656864881515503, 0, 0, 0, 52402.0, 41913.0, 44510.0, 45193.0
8789, 4.276514530181885, 3.0359387397766113, 4.231714248657227, -1.2781563997268677, 53.81294631958008, -5.127047061920166, 0.037714939564466476, 0.03475262597203255, 0.06338141858577728, -0.14298348128795624, 0.05813486501574516, 0.15587489306926727, 0, 0, 0, 50040.0, 41737.0, 48286.0, 45600.0
8799, 4.324650764465332, 2.635463237762451, 4.184483528137207, -0.0860728994011879, 40.24525451660156, -2.67807674407959, 0.03703341260552406, 0.03472380340099335, 0.06506217271089554, -0.1439126580953598, 0.04689571261405945, 0.15720580518245697, 0, 0, 0, 51685.0, 42900.0, 47119.0, 45328.0
8809, 4.26278829574585, 2.1436452865600586, 4.144848346710205, -7.602423667907715, 49.98738098144531, -4.973040580749512, 0.034893881529569626, 0.03378696367144585, 0.0664532259106636, -0.1525559425354004, 0.0313018262386322, 0.15535785257816315, 0, 0, 0, 50900.0, 41841.0, 48390.0, 47096.0
8819, 4.198738098144531, 1.7440922260284424, 4.0927534103393555, -10.142522811889648, 44.95404815673828, -7.045922756195068, 0.0335216149687767, 0.03347322344779968, 0.0679921954870224, -0.15540362894535065, 0.020317887887358665, 0.15276877582073212, 0, 0, 0, 52611.0, 44082.0, 46017.0, 46185.0
