timeTick, roll, pitch, yaw, stateX, stateY, stateZ, stateVX, stateVY, stateVZ, stateROLL, statePITCH, stateYAW, whisker1, whisker2, whisker3, motor1, motor2, motor3, motor4, laserHeight, flowX, flowY, ext_pos_X,ext_pos_Y,ext_pos_Z, kalX, kalY, kalZ, kalPX, kalPY, kalPZ
222777, 0.9508155584335327, -2.373655080795288, -12.486226081848145, 0, 0, 0, 0, 0, 0, 0, 0, 0, 0, 0, 0, 0, 0, 0, 0, 0, 0, 0, 0, 0, 0, 0, 0, 0, 0, 0, 0
222788, 1.5770572423934937, -2.413886785507202, -12.39507007598877, 0, 0, 0, 0, 0, 0, 0, 0, 0, 0, 0, 0, 0.0, 0.0, 0.0, 0.0, 13.0, -1.0, -1.0, 0.0, 0.0, 0.0, -0.03679320588707924, -0.4115099012851715, 0.014930715784430504, 0.014824568293988705, -0.030223432928323746, 0.0014389196876436472
222798, 1.8603569269180298, -2.4239752292633057, -12.326802253723145, 0, 0, 0, 0, 0, 0, 0, 0, 0, 0, 0, 0, 0.0, 0.0, 0.0, 0.0, 15.0, -5.0, 14.0, 0.0, 0.0, 0.0, -0.03659775108098984, -0.4110580086708069, 0.014880633912980556, 0.03074590489268303, -0.04757828637957573, 0.0018221690552309155
222807, 2.141124725341797, -2.6104400157928467, -12.422491073608398, 0, 0, 0, 0, 0, 0, 0, 0, 0, 0, 0, 0, 0.0, 0.0, 0.0, 0.0, 15.0, 7.0, -11.0, 0.0, 0.0, 0.0, -0.03656709939241409, -0.4105503559112549, 0.014892267994582653, 0.03385557606816292, -0.04818909987807274, 0.0019950084388256073
222818, 2.34639573097229, -2.629936933517456, -12.301481246948242, 0, 0, 0, 0, 0, 0, 0, 0, 0, 0, 0, 0, 0.0, 0.0, 0.0, 0.0, 15.0, 2.0, -3.0, 0.0, 0.0, 0.0, -0.03610904887318611, -0.41061142086982727, 0.015089716762304306, 0.03817719593644142, -0.05536993592977524, 0.0035147422458976507
222827, 2.3994228839874268, -2.719129800796509, -12.257064819335938, 0, 0, 0, 0, 0, 0, 0, 0, 0, 0, 0, 0, 0.0, 0.0, 0.0, 0.0, 15.0, -2.0, 0.0, 0.0, 0.0, 0.0, -0.03621659800410271, -0.4103996157646179, 0.015109837986528873, 0.038025494664907455, -0.05766664072871208, 0.0036740435753017664
222837, 2.3669445514678955, -2.7716338634490967, -12.2315034866333, 0, 0, 0, 0, 0, 0, 0, 0, 0, 0, 0, 0, 0.0, 0.0, 0.0, 0.0, 15.0, 0.0, 0.0, 0.0, 0.0, 0.0, -0.035996757447719574, -0.4103600084781647, 0.015163509175181389, 0.04105639457702637, -0.056510765105485916, 0.004277965985238552
222847, 2.394033908843994, -2.797720193862915, -12.253682136535645, 0, 0, 0, 0, 0, 0, 0, 0, 0, 0, 0, 0, 0.0, 0.0, 0.0, 0.0, 15.0, -1.0, -2.0, 0.0, 0.0, 0.0, -0.036123208701610565, -0.41055575013160706, 0.01530616357922554, 0.03559988737106323, -0.06088542938232422, 0.005363550037145615
222858, 2.470623016357422, -2.833834648132324, -12.22563362121582, 0, 0, 0, 0, 0, 0, 0, 0, 0, 0, 0, 0, 0.0, 0.0, 0.0, 0.0, 15.0, 1.0, 6.0, 0.0, 0.0, 0.0, -0.035627931356430054, -0.41136935353279114, 0.015398726798593998, 0.04231024533510208, -0.06282304227352142, 0.0059072705917060375
222869, 2.4616193771362305, -2.8525142669677734, -12.207354545593262, 0, 0, 0, 0, 0, 0, 0, 0, 0, 0, 0, 0, 0.0, 0.0, 0.0, 0.0, 15.0, -2.0, -4.0, 0.0, 0.0, 0.0, -0.035592079162597656, -0.4116264283657074, 0.01546854991465807, 0.0412164106965065, -0.06651537865400314, 0.00616117101162672
222877, 2.4634532928466797, -2.894850730895996, -12.177058219909668, 0, 0, 0, 0, 0, 0, 0, 0, 0, 0, 0, 0, 0.0, 0.0, 0.0, 0.0, 15.0, 4.0, 2.0, 0.0, 0.0, 0.0, -0.03511210158467293, -0.4111182987689972, 0.015700742602348328, 0.05116919428110123, -0.05776839703321457, 0.007617573719471693
222887, 2.545442819595337, -2.9444680213928223, -12.180632591247559, 0, 0, 0, 0, 0, 0, 0, 0, 0, 0, 0, 0, 0.0, 0.0, 0.0, 0.0, 16.0, -6.0, -12.0, 0.0, 0.0, 0.0, -0.034721266478300095, -0.41046032309532166, 0.01604725793004036, 0.053104303777217865, -0.04125853255391121, 0.009594538249075413
222897, 2.417308807373047, -2.950253963470459, -12.171197891235352, 0, 0, 0, 0, 0, 0, 0, 0, 0, 0, 0, 0, 0.0, 0.0, 0.0, 0.0, 16.0, -21.0, -2.0, 0.0, 0.0, 0.0, -0.03470087796449661, -0.41047561168670654, 0.01616477593779564, 0.049785066395998, -0.04139019176363945, 0.009909424930810928
222907, 2.433490514755249, -2.9548723697662354, -12.16073226928711, 0, 0, 0, 0, 0, 0, 0, 0, 0, 0, 0, 0, 0.0, 0.0, 0.0, 0.0, 16.0, 1.0, 3.0, 0.0, 0.0, 0.0, -0.034427836537361145, -0.4108579456806183, 0.016222219914197922, 0.051136162132024765, -0.04477313905954361, 0.010189510881900787
222917, 2.628382682800293, -2.943667411804199, -12.140177726745605, 0, 0, 0, 0, 0, 0, 0, 0, 0, 0, 0, 0, 0.0, 0.0, 0.0, 0.0, 16.0, 2.0, -2.0, 0.0, 0.0, 0.0, -0.034421227872371674, -0.4110550582408905, 0.01640373095870018, 0.048409730195999146, -0.047467540949583054, 0.01151750236749649
222927, 2.6177024841308594, -2.941277027130127, -12.142151832580566, 0, 0, 0, 0, 0, 0, 0, 0, 0, 0, 0, 0, 0.0, 0.0, 0.0, 0.0, 14.0, -2.0, 2.0, 0.0, 0.0, 0.0, -0.033539578318595886, -0.4111079275608063, 0.01564117521047592, 0.06008453294634819, -0.04526717960834503, 0.006867554504424334
222937, 2.623455762863159, -2.9870166778564453, -12.141847610473633, 0, 0, 0, 0, 0, 0, 0, 0, 0, 0, 0, 0, 0.0, 0.0, 0.0, 0.0, 14.0, -3.0, -13.0, 0.0, 0.0, 0.0, -0.033732518553733826, -0.4117164611816406, 0.01572234369814396, 0.055928394198417664, -0.05407634750008583, 0.007534677628427744
222947, 2.5799331665039062, -2.9859845638275146, -12.136256217956543, 0, 0, 0, 0, 0, 0, 0, 0, 0, 0, 0, 0, 0.0, 0.0, 0.0, 0.0, 14.0, 7.0, 4.0, 0.0, 0.0, 0.0, -0.03353988379240036, -0.41165637969970703, 0.015879735350608826, 0.05529733747243881, -0.05115159973502159, 0.008371426723897457
222958, 2.5728681087493896, -3.003509044647217, -12.11036205291748, 0, 0, 0, 0, 0, 0, 0, 0, 0, 0, 0, 0, 0.0, 0.0, 0.0, 0.0, 14.0, -4.0, 0.0, 0.0, 0.0, 0.0, -0.033543821424245834, -0.4122869372367859, 0.01589643955230713, 0.0540204718708992, -0.05879780277609825, 0.00831636879593134
222968, 2.510514974594116, -3.040086030960083, -12.116833686828613, 0, 0, 0, 0, 0, 0, 0, 0, 0, 0, 0, 0, 0.0, 0.0, 0.0, 0.0, 14.0, 7.0, 1.0, 0.0, 0.0, 0.0, -0.033752311021089554, -0.4123477041721344, 0.01637551747262478, 0.04967775568366051, -0.05850067362189293, 0.011330096051096916
222977, 2.5591683387756348, -3.0090315341949463, -12.11838436126709, 0, 0, 0, 0, 0, 0, 0, 0, 0, 0, 0, 0, 0.0, 0.0, 0.0, 0.0, 17.0, 0.0, 4.0, 0.0, 0.0, 0.0, -0.03350185230374336, -0.4128769338130951, 0.01641654781997204, 0.051444511860609055, -0.062007203698158264, 0.011683200486004353
222987, 2.5574703216552734, -3.020585298538208, -12.125994682312012, 0, 0, 0, 0, 0, 0, 0, 0, 0, 0, 0, 0, 0.0, 0.0, 0.0, 0.0, 17.0, 0.0, 0.0, 0.0, 0.0, 0.0, -0.03319607675075531, -0.41312891244888306, 0.016453217715024948, 0.054604243487119675, -0.06306794285774231, 0.01200292818248272
222998, 2.6093475818634033, -3.031426429748535, -12.091132164001465, 0, 0, 0, 0, 0, 0, 0, 0, 0, 0, 0, 0, 0.0, 0.0, 0.0, 0.0, 17.0, 1.0, -4.0, 0.0, 0.0, 0.0, -0.032941196113824844, -0.41331687569618225, 0.01653152145445347, 0.056409627199172974, -0.06375032663345337, 0.012450406327843666
223009, 2.6016643047332764, -3.034212350845337, -12.094710350036621, 0, 0, 0, 0, 0, 0, 0, 0, 0, 0, 0, 0, 0.0, 0.0, 0.0, 0.0, 17.0, 0.0, -3.0, 0.0, 0.0, 0.0, -0.03343098238110542, -0.4133416712284088, 0.015896931290626526, 0.048735085874795914, -0.06395241618156433, 0.007696001324802637
223019, 2.6791303157806396, -3.012148141860962, -12.090906143188477, 0, 0, 0, 0, 0, 0, 0, 0, 0, 0, 0, 0, 0.0, 0.0, 0.0, 0.0, 14.0, 0.0, 7.0, 0.0, 0.0, 0.0, -0.03317457437515259, -0.41346392035484314, 0.015972699970006943, 0.05090867355465889, -0.06415838748216629, 0.008206185884773731
223027, 2.661250352859497, -3.055400848388672, -12.109007835388184, 0, 0, 0, 0, 0, 0, 0, 0, 0, 0, 0, 0, 0.0, 0.0, 0.0, 0.0, 14.0, -1.0, -3.0, 0.0, 0.0, 0.0, -0.03325490280985832, -0.4137590229511261, 0.016107572242617607, 0.0480382964015007, -0.06466394662857056, 0.008919170126318932
223037, 2.6971981525421143, -3.066472291946411, -12.094681739807129, 0, 0, 0, 0, 0, 0, 0, 0, 0, 0, 0, 0, 0.0, 0.0, 0.0, 0.0, 14.0, 0.0, 3.0, 0.0, 0.0, 0.0, -0.03300914168357849, -0.41387224197387695, 0.016168419271707535, 0.049856431782245636, -0.0647348091006279, 0.009130096063017845
223047, 2.621605157852173, -3.0497827529907227, -12.080867767333984, 0, 0, 0, 0, 0, 0, 0, 0, 0, 0, 0, 0, 0.0, 0.0, 0.0, 0.0, 14.0, 0.0, -3.0, 0.0, 0.0, 0.0, -0.032978422939777374, -0.41433456540107727, 0.016171110793948174, 0.050141822546720505, -0.0681011751294136, 0.008708562701940536
223059, 2.603255033493042, -3.0417580604553223, -12.089776992797852, 0, 0, 0, 0, 0, 0, 0, 0, 0, 0, 0, 0, 0.0, 0.0, 0.0, 0.0, 14.0, 4.0, -1.0, 0.0, 0.0, 0.0, -0.03294461593031883, -0.4142197370529175, 0.016220273450016975, 0.04948945343494415, -0.06617570668458939, 0.008584944531321526
223069, 2.701648235321045, -3.0583715438842773, -12.072025299072266, 0, 0, 0, 0, 0, 0, 0, 0, 0, 0, 0, 0, 0.0, 0.0, 0.0, 0.0, 16.0, -2.0, 0.0, 0.0, 0.0, 0.0, -0.03292135149240494, -0.41412097215652466, 0.016335269436240196, 0.04861743375658989, -0.06474421918392181, 0.009107725694775581
223077, 2.7099692821502686, -3.038581609725952, -12.074585914611816, 0, 0, 0, 0, 0, 0, 0, 0, 0, 0, 0, 0, 0.0, 0.0, 0.0, 0.0, 16.0, -2.0, 0.0, 0.0, 0.0, 0.0, -0.03318842127919197, -0.4143289029598236, 0.01651003770530224, 0.0445803627371788, -0.06582437455654144, 0.010128268972039223
223088, 2.6343908309936523, -3.0498316287994385, -12.071120262145996, 0, 0, 0, 0, 0, 0, 0, 0, 0, 0, 0, 0, 0.0, 0.0, 0.0, 0.0, 16.0, 0.0, 4.0, 0.0, 0.0, 0.0, -0.033216409385204315, -0.41441333293914795, 0.016557613387703896, 0.04431210830807686, -0.06585054844617844, 0.010314615443348885
223099, 2.619678020477295, -3.0771498680114746, -12.069032669067383, 0, 0, 0, 0, 0, 0, 0, 0, 0, 0, 0, 0, 0.0, 0.0, 0.0, 0.0, 16.0, 1.0, 0.0, 0.0, 0.0, 0.0, -0.03303559124469757, -0.41484010219573975, 0.016678545624017715, 0.04682685807347298, -0.06901143491268158, 0.011038245633244514
223109, 2.6907095909118652, -3.0769596099853516, -12.049098014831543, 0, 0, 0, 0, 0, 0, 0, 0, 0, 0, 0, 0, 0.0, 0.0, 0.0, 0.0, 17.0, 4.0, -3.0, 0.0, 0.0, 0.0, -0.033223092555999756, -0.41441091895103455, 0.016896400600671768, 0.043969929218292236, -0.06486209481954575, 0.012009029276669025
223117, 2.6413187980651855, -3.072079658508301, -12.080552101135254, 0, 0, 0, 0, 0, 0, 0, 0, 0, 0, 0, 0, 0.0, 0.0, 0.0, 0.0, 17.0, -5.0, 3.0, 0.0, 0.0, 0.0, -0.03291137143969536, -0.4147768020629883, 0.01694898121058941, 0.046087976545095444, -0.0659329891204834, 0.012088875286281109
223127, 2.6271347999572754, -3.124281406402588, -12.087606430053711, 0, 0, 0, 0, 0, 0, 0, 0, 0, 0, 0, 0, 0.0, 0.0, 0.0, 0.0, 17.0, 1.0, -3.0, 0.0, 0.0, 0.0, -0.03277822211384773, -0.4151495099067688, 0.01693612150847912, 0.0480961911380291, -0.0685405358672142, 0.012017915956676006
223137, 2.640192985534668, -3.0913267135620117, -12.088055610656738, 0, 0, 0, 0, 0, 0, 0, 0, 0, 0, 0, 0, 0.0, 0.0, 0.0, 0.0, 17.0, 0.0, 0.0, 0.0, 0.0, 0.0, -0.0325482152402401, -0.4148752987384796, 0.017107287421822548, 0.04886944219470024, -0.06465664505958557, 0.012545083649456501
223148, 2.6271376609802246, -3.0929970741271973, -12.077570915222168, 0, 0, 0, 0, 0, 0, 0, 0, 0, 0, 0, 0, 0.0, 0.0, 0.0, 0.0, 17.0, -5.0, -1.0, 0.0, 0.0, 0.0, -0.03316386044025421, -0.4157833158969879, 0.016720280051231384, 0.0446770042181015, -0.07389722019433975, 0.009764042682945728
223159, 2.5830283164978027, -3.1274466514587402, -12.099534034729004, 0, 0, 0, 0, 0, 0, 0, 0, 0, 0, 0, 0, 0.0, 0.0, 0.0, 0.0, 16.0, 9.0, 4.0, 0.0, 0.0, 0.0, -0.03306710347533226, -0.4155345857143402, 0.016832385212183, 0.04461861029267311, -0.0695432499051094, 0.010335617698729038
223167, 2.5229499340057373, -3.1335678100585938, -12.113443374633789, 0, 0, 0, 0, 0, 0, 0, 0, 0, 0, 0, 0, 0.0, 0.0, 0.0, 0.0, 16.0, -3.0, 0.0, 0.0, 0.0, 0.0, -0.033143557608127594, -0.41527944803237915, 0.016814235597848892, 0.04438724368810654, -0.06823574006557465, 0.010127788409590721
223177, 2.5690131187438965, -3.087555408477783, -12.09147834777832, 0, 0, 0, 0, 0, 0, 0, 0, 0, 0, 0, 0, 0.0, 0.0, 0.0, 0.0, 16.0, 0.0, 0.0, 0.0, 0.0, 0.0, -0.03316127136349678, -0.41525381803512573, 0.01689682900905609, 0.0433453768491745, -0.06738388538360596, 0.010391156189143658
223188, 2.6059155464172363, -3.079735040664673, -12.078088760375977, 0, 0, 0, 0, 0, 0, 0, 0, 0, 0, 0, 0, 0.0, 0.0, 0.0, 0.0, 16.0, -1.0, 0.0, 0.0, 0.0, 0.0, -0.03271181136369705, -0.41488057374954224, 0.01733194850385189, 0.046468790620565414, -0.06291300803422928, 0.013115030713379383
223198, 2.7228620052337646, -3.088061809539795, -12.072860717773438, 0, 0, 0, 0, 0, 0, 0, 0, 0, 0, 0, 0, 0.0, 0.0, 0.0, 0.0, 18.0, -5.0, -4.0, 0.0, 0.0, 0.0, -0.030256671831011772, -0.4152650237083435, 0.01712721772491932, 0.0697542354464531, -0.06198228895664215, 0.011786363087594509
223208, 2.6516523361206055, -3.104081630706787, -12.08725643157959, 0, 0, 0, 0, 0, 0, 0, 0, 0, 0, 0, 0, 0.0, 0.0, 0.0, 0.0, 18.0, -2.0, -26.0, 0.0, 0.0, 0.0, -0.030072087422013283, -0.41555801033973694, 0.01707429438829422, 0.07034722715616226, -0.06405016779899597, 0.011035245843231678
223217, 2.6923696994781494, -3.133455991744995, -12.099451065063477, 0, 0, 0, 0, 0, 0, 0, 0, 0, 0, 0, 0, 0.0, 0.0, 0.0, 0.0, 18.0, 0.0, 0.0, 0.0, 0.0, 0.0, -0.02957564778625965, -0.4157281219959259, 0.017134157940745354, 0.0725150927901268, -0.0638679787516594, 0.011412621475756168
223227, 2.7057392597198486, -3.132101058959961, -12.09689712524414, 0, 0, 0, 0, 0, 0, 0, 0, 0, 0, 0, 0, 0.0, 0.0, 0.0, 0.0, 18.0, -1.0, -4.0, 0.0, 0.0, 0.0, -0.029397202655673027, -0.416057825088501, 0.017070263624191284, 0.07318723946809769, -0.06679990887641907, 0.010979540646076202
223237, 2.672447443008423, -3.1112568378448486, -12.088699340820312, 0, 0, 0, 0, 0, 0, 0, 0, 0, 0, 0, 0, 0.0, 0.0, 0.0, 0.0, 18.0, 1.0, 4.0, 0.0, 0.0, 0.0, -0.03029472753405571, -0.4159660339355469, 0.016857421025633812, 0.06407906860113144, -0.0673770159482956, 0.009145648218691349
223248, 2.723557949066162, -3.0997848510742188, -12.082032203674316, 0, 0, 0, 0, 0, 0, 0, 0, 0, 0, 0, 0, 0.0, 0.0, 0.0, 0.0, 16.0, 4.0, 0.0, 0.0, 0.0, 0.0, -0.02996750921010971, -0.41571393609046936, 0.016904639080166817, 0.0655876025557518, -0.06563936173915863, 0.009666915982961655
223257, 2.6804864406585693, -3.1607675552368164, -12.098103523254395, 0, 0, 0, 0, 0, 0, 0, 0, 0, 0, 0, 0, 0.0, 0.0, 0.0, 0.0, 16.0, -3.0, -4.0, 0.0, 0.0, 0.0, -0.029638875275850296, -0.41625282168388367, 0.016893349587917328, 0.06774178147315979, -0.06843218207359314, 0.009635759517550468
223267, 2.642584800720215, -3.1036150455474854, -12.08615779876709, 0, 0, 0, 0, 0, 0, 0, 0, 0, 0, 0, 0, 0.0, 0.0, 0.0, 0.0, 16.0, 0.0, 0.0, 0.0, 0.0, 0.0, -0.029539743438363075, -0.4165552258491516, 0.016825629398226738, 0.06785646826028824, -0.07063651084899902, 0.009018155746161938
223277, 2.742291212081909, -3.0881588459014893, -12.068026542663574, 0, 0, 0, 0, 0, 0, 0, 0, 0, 0, 0, 0, 0.0, 0.0, 0.0, 0.0, 16.0, -1.0, 3.0, 0.0, 0.0, 0.0, -0.029978280887007713, -0.4163413345813751, 0.01697872392833233, 0.06327057629823685, -0.07091686129570007, 0.009865171276032925
223288, 2.6431210041046143, -3.103358745574951, -12.070981979370117, 0, 0, 0, 0, 0, 0, 0, 0, 0, 0, 0, 0, 0.0, 0.0, 0.0, 0.0, 17.0, 0.0, -3.0, 0.0, 0.0, 0.0, -0.028317544609308243, -0.4151409864425659, 0.017040548846125603, 0.07382605224847794, -0.05798013135790825, 0.010142592713236809
223297, 2.639763593673706, -3.1128556728363037, -12.058343887329102, 0, 0, 0, 0, 0, 0, 0, 0, 0, 0, 0, 0, 0.0, 0.0, 0.0, 0.0, 17.0, -11.0, -15.0, 0.0, 0.0, 0.0, -0.030115505680441856, -0.41619211435317993, 0.017155611887574196, 0.0604877769947052, -0.06944436579942703, 0.010544796474277973
223307, 2.568150043487549, -3.127830743789673, -12.076123237609863, 0, 0, 0, 0, 0, 0, 0, 0, 0, 0, 0, 0, 0.0, 0.0, 0.0, 0.0, 17.0, 15.0, 14.0, 0.0, 0.0, 0.0, -0.02986515872180462, -0.4167608618736267, 0.017161406576633453, 0.062085725367069244, -0.0725143626332283, 0.010563506744801998
223317, 2.6712026596069336, -3.086970090866089, -12.041459083557129, 0, 0, 0, 0, 0, 0, 0, 0, 0, 0, 0, 0, 0.0, 0.0, 0.0, 0.0, 17.0, 0.0, 1.0, 0.0, 0.0, 0.0, -0.030128182843327522, -0.4167051315307617, 0.01722854934632778, 0.05941201001405716, -0.07331971079111099, 0.010593066923320293
223327, 2.5571603775024414, -3.127403974533081, -12.050179481506348, 0, 0, 0, 0, 0, 0, 0, 0, 0, 0, 0, 0, 0.0, 0.0, 0.0, 0.0, 17.0, 1.0, -2.0, 0.0, 0.0, 0.0, -0.030128182843327522, -0.4167051315307617, 0.01722854934632778, 0.05941201001405716, -0.07331971079111099, 0.010593066923320293
223337, 2.6666812896728516, -3.0757908821105957, -12.07562255859375, 0, 0, 0, 0, 0, 0, 0, 0, 0, 0, 0, 0, 0.0, 0.0, 0.0, 0.0, 14.0, 4.0, -1.0, 0.0, 0.0, 0.0, -0.0302917268127203, -0.4159362018108368, 0.016352998092770576, 0.05677950754761696, -0.06782210618257523, 0.0047956486232578754
223348, 2.6194732189178467, -3.0756890773773193, -12.066996574401855, 0, 0, 0, 0, 0, 0, 0, 0, 0, 0, 0, 0, 0.0, 0.0, 0.0, 0.0, 14.0, -8.0, 0.0, 0.0, 0.0, 0.0, -0.030365362763404846, -0.4160864055156708, 0.016321474686264992, 0.05620119348168373, -0.06881114840507507, 0.004751002416014671
223357, 2.605344772338867, -3.0763814449310303, -12.063149452209473, 0, 0, 0, 0, 0, 0, 0, 0, 0, 0, 0, 0, 0.0, 0.0, 0.0, 0.0, 14.0, 2.0, -1.0, 0.0, 0.0, 0.0, -0.030358189716935158, -0.4164692759513855, 0.01635022833943367, 0.055504634976387024, -0.07047565281391144, 0.00508374348282814
223367, 2.6543965339660645, -3.107961654663086, -12.064624786376953, 0, 0, 0, 0, 0, 0, 0, 0, 0, 0, 0, 0, 0.0, 0.0, 0.0, 0.0, 14.0, 2.0, 0.0, 0.0, 0.0, 0.0, -0.03076157346367836, -0.41637566685676575, 0.016441520303487778, 0.05246953293681145, -0.07082507014274597, 0.005753573030233383
223377, 2.609872341156006, -3.065213441848755, -12.049657821655273, 0, 0, 0, 0, 0, 0, 0, 0, 0, 0, 0, 0, 0.0, 0.0, 0.0, 0.0, 15.0, 0.0, 3.0, 0.0, 0.0, 0.0, -0.030869007110595703, -0.4161757528781891, 0.01604286953806877, 0.05114951357245445, -0.06928892433643341, 0.003097227541729808
223388, 2.616436243057251, -3.0812363624572754, -12.064874649047852, 0, 0, 0, 0, 0, 0, 0, 0, 0, 0, 0, 0, 0.0, 0.0, 0.0, 0.0, 15.0, -1.0, 0.0, 0.0, 0.0, 0.0, -0.03107624500989914, -0.41612130403518677, 0.016071457415819168, 0.04988417029380798, -0.06934715062379837, 0.0034673172049224377
223398, 2.622868537902832, -3.075319290161133, -12.054914474487305, 0, 0, 0, 0, 0, 0, 0, 0, 0, 0, 0, 0, 0.0, 0.0, 0.0, 0.0, 15.0, 0.0, 1.0, 0.0, 0.0, 0.0, -0.03150288388133049, -0.41612833738327026, 0.016127610579133034, 0.046874549239873886, -0.07101742178201675, 0.004198720213025808
223407, 2.6224653720855713, -3.0801405906677246, -12.051456451416016, 0, 0, 0, 0, 0, 0, 0, 0, 0, 0, 0, 0, 0.0, 0.0, 0.0, 0.0, 15.0, 1.0, 3.0, 0.0, 0.0, 0.0, -0.030840536579489708, -0.41643092036247253, 0.016088027507066727, 0.05232792720198631, -0.07076586782932281, 0.004282968584448099
223417, 2.6190199851989746, -3.099464178085327, -12.070110321044922, 0, 0, 0, 0, 0, 0, 0, 0, 0, 0, 0, 0, 0.0, 0.0, 0.0, 0.0, 15.0, 0.0, -7.0, 0.0, 0.0, 0.0, -0.029488520696759224, -0.417073130607605, 0.015830552205443382, 0.06452043354511261, -0.07356663048267365, 0.003274210263043642
223427, 2.64095139503479, -3.1135990619659424, -12.091289520263672, 0, 0, 0, 0, 0, 0, 0, 0, 0, 0, 0, 0, 0.0, 0.0, 0.0, 0.0, 16.0, 4.0, -17.0, 0.0, 0.0, 0.0, -0.0314905159175396, -0.417039155960083, 0.01611456088721752, 0.048546258360147476, -0.07669837772846222, 0.005114783067256212
223437, 2.6456477642059326, -3.0804717540740967, -12.082185745239258, 0, 0, 0, 0, 0, 0, 0, 0, 0, 0, 0, 0, 0.0, 0.0, 0.0, 0.0, 16.0, 4.0, 20.0, 0.0, 0.0, 0.0, -0.03145787492394447, -0.4173894226551056, 0.01606421172618866, 0.04937227815389633, -0.07920023798942566, 0.004950871225446463
223448, 2.61854887008667, -3.078561544418335, -12.073626518249512, 0, 0, 0, 0, 0, 0, 0, 0, 0, 0, 0, 0, 0.0, 0.0, 0.0, 0.0, 16.0, 0.0, 0.0, 0.0, 0.0, 0.0, -0.03205660358071327, -0.4174171984195709, 0.016153458505868912, 0.0449625588953495, -0.07961413264274597, 0.005474558565765619
223457, 2.6473915576934814, -3.056246519088745, -12.073155403137207, 0, 0, 0, 0, 0, 0, 0, 0, 0, 0, 0, 0, 0.0, 0.0, 0.0, 0.0, 16.0, 2.0, 5.0, 0.0, 0.0, 0.0, -0.03193175792694092, -0.4180326461791992, 0.016109589487314224, 0.046445176005363464, -0.08298996835947037, 0.005208346992731094
223467, 2.6630642414093018, -3.08561110496521, -12.059441566467285, 0, 0, 0, 0, 0, 0, 0, 0, 0, 0, 0, 0, 0.0, 0.0, 0.0, 0.0, 15.0, 0.0, 0.0, 0.0, 0.0, 0.0, -0.03205195814371109, -0.4180108606815338, 0.015798449516296387, 0.04600173607468605, -0.0830003172159195, 0.0034990489948540926
223477, 2.6998095512390137, -3.067992925643921, -12.06093692779541, 0, 0, 0, 0, 0, 0, 0, 0, 0, 0, 0, 0, 0.0, 0.0, 0.0, 0.0, 15.0, 1.0, 0.0, 0.0, 0.0, 0.0, -0.03213925287127495, -0.41776010394096375, 0.015902990475296974, 0.04490504041314125, -0.08109130710363388, 0.004265305120497942
223488, 2.732959032058716, -3.0745978355407715, -12.055198669433594, 0, 0, 0, 0, 0, 0, 0, 0, 0, 0, 0, 0, 0.0, 0.0, 0.0, 0.0, 15.0, -2.0, 0.0, 0.0, 0.0, 0.0, -0.0314682312309742, -0.4178236126899719, 0.01586330495774746, 0.05055369436740875, -0.0799780860543251, 0.00409825099632144
223498, 2.6303889751434326, -3.0820670127868652, -12.064854621887207, 0, 0, 0, 0, 0, 0, 0, 0, 0, 0, 0, 0, 0.0, 0.0, 0.0, 0.0, 15.0, 0.0, -8.0, 0.0, 0.0, 0.0, -0.03166685253381729, -0.41789859533309937, 0.015925178304314613, 0.049122996628284454, -0.07976090908050537, 0.00460947398096323
223508, 2.690077304840088, -3.0815179347991943, -12.068586349487305, 0, 0, 0, 0, 0, 0, 0, 0, 0, 0, 0, 0, 0.0, 0.0, 0.0, 0.0, 15.0, 1.0, 1.0, 0.0, 0.0, 0.0, -0.03153419494628906, -0.41763752698898315, 0.015074962750077248, 0.05027702450752258, -0.07768207788467407, -0.0005157376872375607
223517, 2.680325746536255, -3.1120243072509766, -12.08459186553955, 0, 0, 0, 0, 0, 0, 0, 0, 0, 0, 0, 0, 0.0, 0.0, 0.0, 0.0, 13.0, -3.0, -2.0, 0.0, 0.0, 0.0, -0.03227118030190468, -0.4177851378917694, 0.015193451195955276, 0.04419240728020668, -0.07861054688692093, 0.0008412587339989841
223527, 2.692936420440674, -3.0796728134155273, -12.055781364440918, 0, 0, 0, 0, 0, 0, 0, 0, 0, 0, 0, 0, 0.0, 0.0, 0.0, 0.0, 13.0, 1.0, 8.0, 0.0, 0.0, 0.0, -0.031710829585790634, -0.41782358288764954, 0.015159724280238152, 0.0491020642220974, -0.07798992097377777, 0.0012235244503244758
223537, 2.6608965396881104, -3.070091962814331, -12.063776969909668, 0, 0, 0, 0, 0, 0, 0, 0, 0, 0, 0, 0, 0.0, 0.0, 0.0, 0.0, 13.0, 0.0, -7.0, 0.0, 0.0, 0.0, -0.032113827764987946, -0.41774696111679077, 0.01524833869189024, 0.04605938866734505, -0.0775996521115303, 0.0019693172071129084
223548, 2.6397621631622314, -3.0703091621398926, -12.054464340209961, 0, 0, 0, 0, 0, 0, 0, 0, 0, 0, 0, 0, 0.0, 0.0, 0.0, 0.0, 13.0, 1.0, 3.0, 0.0, 0.0, 0.0, -0.032103151082992554, -0.4178029000759125, 0.015813646838068962, 0.04638495668768883, -0.0774049386382103, 0.0058094714768230915
223557, 2.732401132583618, -3.0537753105163574, -12.059473037719727, 0, 0, 0, 0, 0, 0, 0, 0, 0, 0, 0, 0, 0.0, 0.0, 0.0, 0.0, 17.0, 1.0, -1.0, 0.0, 0.0, 0.0, -0.032827578485012054, -0.41827595233917236, 0.01591029018163681, 0.040551912039518356, -0.08178872615098953, 0.006530840415507555
223567, 2.6668739318847656, -3.09661602973938, -12.072587013244629, 0, 0, 0, 0, 0, 0, 0, 0, 0, 0, 0, 0, 0.0, 0.0, 0.0, 0.0, 17.0, 4.0, 7.0, 0.0, 0.0, 0.0, -0.03278418630361557, -0.41790884733200073, 0.01605859585106373, 0.04099336639046669, -0.07763337343931198, 0.007446233183145523
223577, 2.7163848876953125, -3.1045355796813965, -12.07629108428955, 0, 0, 0, 0, 0, 0, 0, 0, 0, 0, 0, 0, 0.0, 0.0, 0.0, 0.0, 17.0, -4.0, 0.0, 0.0, 0.0, 0.0, -0.032397039234638214, -0.41795286536216736, 0.016075430437922478, 0.0449136346578598, -0.07756178826093674, 0.0075058951042592525
223587, 2.5969789028167725, -3.130694627761841, -12.075021743774414, 0, 0, 0, 0, 0, 0, 0, 0, 0, 0, 0, 0, 0.0, 0.0, 0.0, 0.0, 17.0, 0.0, -5.0, 0.0, 0.0, 0.0, -0.032429877668619156, -0.4177175462245941, 0.016181563958525658, 0.04473336040973663, -0.07483460009098053, 0.007937530986964703
223598, 2.6202683448791504, -3.09289288520813, -12.05955696105957, 0, 0, 0, 0, 0, 0, 0, 0, 0, 0, 0, 0, 0.0, 0.0, 0.0, 0.0, 17.0, -1.0, 0.0, 0.0, 0.0, 0.0, -0.034685373306274414, -0.4167175590991974, 0.01685739867389202, 0.02470315992832184, -0.07067492604255676, 0.011621748097240925
223608, 2.6109840869903564, -3.058633327484131, -12.067354202270508, 0, 0, 0, 0, 0, 0, 0, 0, 0, 0, 0, 0, 0.0, 0.0, 0.0, 0.0, 17.0, -5.0, 25.0, 0.0, 0.0, 0.0, -0.03555336222052574, -0.4168734848499298, 0.01691165380179882, 0.01950383186340332, -0.0738234668970108, 0.011431877501308918
223617, 2.650970935821533, -3.0841586589813232, -12.06582260131836, 0, 0, 0, 0, 0, 0, 0, 0, 0, 0, 0, 0, 0.0, 0.0, 0.0, 0.0, 17.0, 4.0, 8.0, 0.0, 0.0, 0.0, -0.03551426902413368, -0.41746392846107483, 0.01694379933178425, 0.02182595245540142, -0.07698845118284225, 0.011175873689353466
223627, 2.5965468883514404, -3.0665931701660156, -12.069226264953613, 0, 0, 0, 0, 0, 0, 0, 0, 0, 0, 0, 0, 0.0, 0.0, 0.0, 0.0, 17.0, 0.0, 0.0, 0.0, 0.0, 0.0, -0.03536214679479599, -0.4173862934112549, 0.017010461539030075, 0.02410382404923439, -0.07561331242322922, 0.011106327176094055
223637, 2.527524709701538, -3.1232802867889404, -12.097082138061523, 0, 0, 0, 0, 0, 0, 0, 0, 0, 0, 0, 0, 0.0, 0.0, 0.0, 0.0, 17.0, 0.0, -2.0, 0.0, 0.0, 0.0, -0.035682354122400284, -0.4175795316696167, 0.017054319381713867, 0.02336343564093113, -0.07651898264884949, 0.011003571562469006
223648, 2.5702781677246094, -3.1032748222351074, -12.084081649780273, 0, 0, 0, 0, 0, 0, 0, 0, 0, 0, 0, 0, 0.0, 0.0, 0.0, 0.0, 13.0, 2.0, 3.0, 0.0, 0.0, 0.0, -0.035817719995975494, -0.4169747233390808, 0.015836449339985847, 0.02294411137700081, -0.07238272577524185, 0.0032618276309221983
223659, 2.598456382751465, -3.0765540599823, -12.076570510864258, 0, 0, 0, 0, 0, 0, 0, 0, 0, 0, 0, 0, 0.0, 0.0, 0.0, 0.0, 13.0, -5.0, 2.0, 0.0, 0.0, 0.0, -0.03611812740564346, -0.4172724485397339, 0.015799598768353462, 0.02194467931985855, -0.07635839283466339, 0.003386972937732935
223667, 2.6493327617645264, -3.072885036468506, -12.06981086730957, 0, 0, 0, 0, 0, 0, 0, 0, 0, 0, 0, 0, 0.0, 0.0, 0.0, 0.0, 13.0, 4.0, 2.0, 0.0, 0.0, 0.0, -0.035889048129320145, -0.4167124032974243, 0.015843750908970833, 0.023258395493030548, -0.07227494567632675, 0.0036228212993592024
223677, 2.6080944538116455, -3.071134090423584, -12.07520866394043, 0, 0, 0, 0, 0, 0, 0, 0, 0, 0, 0, 0, 0.0, 0.0, 0.0, 0.0, 13.0, 0.0, -3.0, 0.0, 0.0, 0.0, -0.03574702888727188, -0.416765421628952, 0.015850858762860298, 0.02553805708885193, -0.07279172539710999, 0.003781443927437067
223687, 2.629007577896118, -3.080075263977051, -12.080658912658691, 0, 0, 0, 0, 0, 0, 0, 0, 0, 0, 0, 0, 0.0, 0.0, 0.0, 0.0, 13.0, 1.0, -2.0, 0.0, 0.0, 0.0, -0.03656533360481262, -0.41700130701065063, 0.015289665199816227, 0.020318133756518364, -0.07628577202558517, -7.575711788376793e-05
223698, 2.6183712482452393, -3.0896871089935303, -12.071438789367676, 0, 0, 0, 0, 0, 0, 0, 0, 0, 0, 0, 0, 0.0, 0.0, 0.0, 0.0, 14.0, 6.0, 8.0, 0.0, 0.0, 0.0, -0.035409536212682724, -0.41726890206336975, 0.015328426845371723, 0.0310025867074728, -0.07371386885643005, 0.0011681584874168038
223708, 2.7311365604400635, -3.086369037628174, -12.082959175109863, 0, 0, 0, 0, 0, 0, 0, 0, 0, 0, 0, 0, 0.0, 0.0, 0.0, 0.0, 14.0, -7.0, -10.0, 0.0, 0.0, 0.0, -0.035325922071933746, -0.41758695244789124, 0.015282838605344296, 0.033203449100255966, -0.07655219733715057, 0.0012535637943074107
223717, 2.6352624893188477, -3.0834097862243652, -12.080825805664062, 0, 0, 0, 0, 0, 0, 0, 0, 0, 0, 0, 0, 0.0, 0.0, 0.0, 0.0, 14.0, 0.0, 0.0, 0.0, 0.0, 0.0, -0.03536713495850563, -0.41730424761772156, 0.015283077955245972, 0.03277936205267906, -0.07533450424671173, 0.0011745913652703166
223727, 2.640057325363159, -3.0758392810821533, -12.115784645080566, 0, 0, 0, 0, 0, 0, 0, 0, 0, 0, 0, 0, 0.0, 0.0, 0.0, 0.0, 14.0, 0.0, 0.0, 0.0, 0.0, 0.0, -0.035310979932546616, -0.41729676723480225, 0.015313946641981602, 0.03360549733042717, -0.07517240941524506, 0.0019773647654801607
223737, 2.6209006309509277, -3.083984375, -12.08924674987793, 0, 0, 0, 0, 0, 0, 0, 0, 0, 0, 0, 0, 0.0, 0.0, 0.0, 0.0, 14.0, 1.0, -1.0, 0.0, 0.0, 0.0, -0.03527459874749184, -0.41706374287605286, 0.01528096478432417, 0.03379777446389198, -0.0730740875005722, 0.0020763666834682226
223748, 2.624008893966675, -3.067962646484375, -12.093976020812988, 0, 0, 0, 0, 0, 0, 0, 0, 0, 0, 0, 0, 0.0, 0.0, 0.0, 0.0, 15.0, -1.0, 0.0, 0.0, 0.0, 0.0, -0.03499156981706619, -0.41815125942230225, 0.015224399045109749, 0.03748475760221481, -0.0786789134144783, 0.00218731677159667
223759, 2.6247596740722656, -3.072693347930908, -12.098236083984375, 0, 0, 0, 0, 0, 0, 0, 0, 0, 0, 0, 0, 0.0, 0.0, 0.0, 0.0, 15.0, 0.0, 0.0, 0.0, 0.0, 0.0, -0.03528996556997299, -0.4179461598396301, 0.015327618457376957, 0.035259347409009933, -0.0772029459476471, 0.0029103339184075594
223767, 2.609416961669922, -3.1294937133789062, -12.089174270629883, 0, 0, 0, 0, 0, 0, 0, 0, 0, 0, 0, 0, 0.0, 0.0, 0.0, 0.0, 15.0, 0.0, 3.0, 0.0, 0.0, 0.0, -0.03530211001634598, -0.41765379905700684, 0.015354989096522331, 0.03533516824245453, -0.07630619406700134, 0.00308603560552001
223777, 2.5739333629608154, -3.092024087905884, -12.088391304016113, 0, 0, 0, 0, 0, 0, 0, 0, 0, 0, 0, 0, 0.0, 0.0, 0.0, 0.0, 15.0, 0.0, 0.0, 0.0, 0.0, 0.0, -0.03595779463648796, -0.4179329574108124, 0.01492986362427473, 0.03026588074862957, -0.07982788234949112, 0.00011015640484401956
223787, 2.647820472717285, -3.087613582611084, -12.080021858215332, 0, 0, 0, 0, 0, 0, 0, 0, 0, 0, 0, 0, 0.0, 0.0, 0.0, 0.0, 15.0, 6.0, 5.0, 0.0, 0.0, 0.0, -0.0352511964738369, -0.4169776439666748, 0.015121223405003548, 0.03489972651004791, -0.07041196525096893, 0.0017665113555267453
223798, 2.625765085220337, -3.1109964847564697, -12.105846405029297, 0, 0, 0, 0, 0, 0, 0, 0, 0, 0, 0, 0, 0.0, 0.0, 0.0, 0.0, 14.0, -9.0, -5.0, 0.0, 0.0, 0.0, -0.034885209053754807, -0.417886346578598, 0.015065065585076809, 0.03933865576982498, -0.07523129880428314, 0.0023070555180311203
223809, 2.5868782997131348, -3.094472646713257, -12.12058162689209, 0, 0, 0, 0, 0, 0, 0, 0, 0, 0, 0, 0, 0.0, 0.0, 0.0, 0.0, 14.0, 2.0, -2.0, 0.0, 0.0, 0.0, -0.0351903922855854, -0.41765090823173523, 0.015207934193313122, 0.03654460236430168, -0.07352671027183533, 0.003464562352746725
223817, 2.600515365600586, -3.091567277908325, -12.093828201293945, 0, 0, 0, 0, 0, 0, 0, 0, 0, 0, 0, 0, 0.0, 0.0, 0.0, 0.0, 14.0, 0.0, 3.0, 0.0, 0.0, 0.0, -0.035356588661670685, -0.41718000173568726, 0.01526240911334753, 0.03467804566025734, -0.07145526260137558, 0.0037401330191642046
223827, 2.5340945720672607, -3.1378233432769775, -12.07666301727295, 0, 0, 0, 0, 0, 0, 0, 0, 0, 0, 0, 0, 0.0, 0.0, 0.0, 0.0, 16.0, 2.0, 0.0, 0.0, 0.0, 0.0, -0.035192616283893585, -0.41693314909935, 0.015579312108457088, 0.03611576557159424, -0.068795345723629, 0.006007712334394455
223837, 2.661135196685791, -3.1286935806274414, -12.093474388122559, 0, 0, 0, 0, 0, 0, 0, 0, 0, 0, 0, 0, 0.0, 0.0, 0.0, 0.0, 16.0, -1.0, -1.0, 0.0, 0.0, 0.0, -0.03490973636507988, -0.4169129431247711, 0.01563785970211029, 0.03860190510749817, -0.06948912143707275, 0.006745674181729555
223849, 2.6089413166046143, -3.121295213699341, -12.087255477905273, 0, 0, 0, 0, 0, 0, 0, 0, 0, 0, 0, 0, 0.0, 0.0, 0.0, 0.0, 16.0, 0.0, -3.0, 0.0, 0.0, 0.0, -0.03489169850945473, -0.4175828695297241, 0.015720929950475693, 0.03925284743309021, -0.07236390560865402, 0.007418694440275431
223859, 2.596409797668457, -3.133650064468384, -12.102437019348145, 0, 0, 0, 0, 0, 0, 0, 0, 0, 0, 0, 0, 0.0, 0.0, 0.0, 0.0, 16.0, 1.0, 2.0, 0.0, 0.0, 0.0, -0.034625157713890076, -0.4175707697868347, 0.015815535560250282, 0.04141458868980408, -0.07165015488862991, 0.007987076416611671
223867, 2.5512728691101074, -3.1318366527557373, -12.081583023071289, 0, 0, 0, 0, 0, 0, 0, 0, 0, 0, 0, 0, 0.0, 0.0, 0.0, 0.0, 16.0, 0.0, -2.0, 0.0, 0.0, 0.0, -0.03555215522646904, -0.41677287220954895, 0.01633080095052719, 0.032784800976514816, -0.06789810210466385, 0.011055819690227509
223877, 2.663908004760742, -3.1115550994873047, -12.066987991333008, 0, 0, 0, 0, 0, 0, 0, 0, 0, 0, 0, 0, 0.0, 0.0, 0.0, 0.0, 17.0, 0.0, 8.0, 0.0, 0.0, 0.0, -0.03476116433739662, -0.416739821434021, 0.01635902374982834, 0.039341095834970474, -0.06788677722215652, 0.011143216863274574
223887, 2.6088743209838867, -3.1162750720977783, -12.058395385742188, 0, 0, 0, 0, 0, 0, 0, 0, 0, 0, 0, 0, 0.0, 0.0, 0.0, 0.0, 17.0, -1.0, -8.0, 0.0, 0.0, 0.0, -0.03471071273088455, -0.4164802134037018, 0.016445942223072052, 0.03945772722363472, -0.06553275883197784, 0.011018022894859314
223898, 2.5616366863250732, -3.1084866523742676, -12.06422233581543, 0, 0, 0, 0, 0, 0, 0, 0, 0, 0, 0, 0, 0.0, 0.0, 0.0, 0.0, 17.0, -1.0, 0.0, 0.0, 0.0, 0.0, -0.03502450883388519, -0.41650286316871643, 0.016537798568606377, 0.03696713596582413, -0.06685490161180496, 0.010916730388998985
223909, 2.5435643196105957, -3.1043670177459717, -12.067168235778809, 0, 0, 0, 0, 0, 0, 0, 0, 0, 0, 0, 0, 0.0, 0.0, 0.0, 0.0, 17.0, 2.0, 3.0, 0.0, 0.0, 0.0, -0.034696973860263824, -0.4164840877056122, 0.01700415275990963, 0.0396605059504509, -0.0667416974902153, 0.013547930866479874
223917, 2.6563076972961426, -3.0908477306365967, -12.070328712463379, 0, 0, 0, 0, 0, 0, 0, 0, 0, 0, 0, 0, 0.0, 0.0, 0.0, 0.0, 18.0, 0.0, -3.0, 0.0, 0.0, 0.0, -0.03453322872519493, -0.4170307517051697, 0.01706344448029995, 0.041422270238399506, -0.0709720253944397, 0.013685080222785473
223927, 2.6610183715820312, -3.144662857055664, -12.082197189331055, 0, 0, 0, 0, 0, 0, 0, 0, 0, 0, 0, 0, 0.0, 0.0, 0.0, 0.0, 18.0, -1.0, 0.0, 0.0, 0.0, 0.0, -0.03447249159216881, -0.41686511039733887, 0.017160356044769287, 0.04239089787006378, -0.07002393156290054, 0.013725243508815765
223937, 2.5632107257843018, -3.1474719047546387, -12.099039077758789, 0, 0, 0, 0, 0, 0, 0, 0, 0, 0, 0, 0, 0.0, 0.0, 0.0, 0.0, 18.0, 0.0, 0.0, 0.0, 0.0, 0.0, -0.034326087683439255, -0.4170686900615692, 0.017135728150606155, 0.04400741681456566, -0.07102495431900024, 0.012934793718159199
223948, 2.5484068393707275, -3.1186320781707764, -12.087475776672363, 0, 0, 0, 0, 0, 0, 0, 0, 0, 0, 0, 0, 0.0, 0.0, 0.0, 0.0, 18.0, -3.0, 0.0, 0.0, 0.0, 0.0, -0.034666307270526886, -0.41667887568473816, 0.017311418429017067, 0.040333397686481476, -0.06989271193742752, 0.013685079291462898
223958, 2.618056535720825, -3.082876443862915, -12.080577850341797, 0, 0, 0, 0, 0, 0, 0, 0, 0, 0, 0, 0, 0.0, 0.0, 0.0, 0.0, 18.0, 4.0, 2.0, 0.0, 0.0, 0.0, -0.034493882209062576, -0.41624656319618225, 0.017320355400443077, 0.04073772579431534, -0.06679964065551758, 0.013113348744809628
223967, 2.6915454864501953, -3.0767645835876465, -12.075235366821289, 0, 0, 0, 0, 0, 0, 0, 0, 0, 0, 0, 0, 0.0, 0.0, 0.0, 0.0, 17.0, -4.0, -1.0, 0.0, 0.0, 0.0, -0.03455035760998726, -0.41658416390419006, 0.017405200749635696, 0.04033026471734047, -0.06884276866912842, 0.013265411369502544
223977, 2.611851930618286, -3.106132984161377, -12.069790840148926, 0, 0, 0, 0, 0, 0, 0, 0, 0, 0, 0, 0, 0.0, 0.0, 0.0, 0.0, 17.0, 2.0, 1.0, 0.0, 0.0, 0.0, -0.03440661355853081, -0.416491836309433, 0.017441891133785248, 0.041645392775535583, -0.06778024882078171, 0.013101179152727127
223987, 2.5203495025634766, -3.136157989501953, -12.066654205322266, 0, 0, 0, 0, 0, 0, 0, 0, 0, 0, 0, 0, 0.0, 0.0, 0.0, 0.0, 17.0, 0.0, -1.0, 0.0, 0.0, 0.0, -0.034433383494615555, -0.4165617823600769, 0.017465004697442055, 0.04179741442203522, -0.06857292354106903, 0.01284695789217949
223998, 2.58439302444458, -3.079878568649292, -12.077682495117188, 0, 0, 0, 0, 0, 0, 0, 0, 0, 0, 0, 0, 0.0, 0.0, 0.0, 0.0, 17.0, 2.0, 0.0, 0.0, 0.0, 0.0, -0.034651581197977066, -0.4163763225078583, 0.01646764576435089, 0.040113724768161774, -0.06831033527851105, 0.006235533859580755
224007, 2.56697416305542, -3.0986759662628174, -12.080635070800781, 0, 0, 0, 0, 0, 0, 0, 0, 0, 0, 0, 0, 0.0, 0.0, 0.0, 0.0, 14.0, 0.0, 2.0, 0.0, 0.0, 0.0, -0.03435549512505531, -0.4165011942386627, 0.016537247225642204, 0.0423685722053051, -0.06795523315668106, 0.0067661236971616745
224017, 2.556121826171875, -3.086121082305908, -12.071659088134766, 0, 0, 0, 0, 0, 0, 0, 0, 0, 0, 0, 0, 0.0, 0.0, 0.0, 0.0, 14.0, -1.0, -2.0, 0.0, 0.0, 0.0, -0.03437739983201027, -0.4161405563354492, 0.016633348539471626, 0.0414426326751709, -0.06549890339374542, 0.007359570823609829
224027, 2.5627193450927734, -3.0664515495300293, -12.083786010742188, 0, 0, 0, 0, 0, 0, 0, 0, 0, 0, 0, 0, 0.0, 0.0, 0.0, 0.0, 14.0, -3.0, 1.0, 0.0, 0.0, 0.0, -0.03431692719459534, -0.4162934124469757, 0.01662851870059967, 0.04189087077975273, -0.06703212112188339, 0.007458456791937351
224038, 2.579564094543457, -3.0688235759735107, -12.081204414367676, 0, 0, 0, 0, 0, 0, 0, 0, 0, 0, 0, 0, 0.0, 0.0, 0.0, 0.0, 14.0, 2.0, -1.0, 0.0, 0.0, 0.0, -0.03423561155796051, -0.4163374900817871, 0.016637681052088737, 0.04264657944440842, -0.06790019571781158, 0.007709267549216747
224048, 2.586991786956787, -3.0818049907684326, -12.060434341430664, 0, 0, 0, 0, 0, 0, 0, 0, 0, 0, 0, 0, 0.0, 0.0, 0.0, 0.0, 14.0, 1.0, -1.0, 0.0, 0.0, 0.0, -0.034566428512334824, -0.41622382402420044, 0.015881352126598358, 0.04026465490460396, -0.06779779493808746, 0.002813558094203472
224057, 2.5385680198669434, -3.090344190597534, -12.064984321594238, 0, 0, 0, 0, 0, 0, 0, 0, 0, 0, 0, 0, 0.0, 0.0, 0.0, 0.0, 14.0, 1.0, 4.0, 0.0, 0.0, 0.0, -0.034473057836294174, -0.4163122773170471, 0.015926416963338852, 0.04051772505044937, -0.06760101020336151, 0.0033431430347263813
224067, 2.5707719326019287, -3.0964434146881104, -12.100493431091309, 0, 0, 0, 0, 0, 0, 0, 0, 0, 0, 0, 0, 0.0, 0.0, 0.0, 0.0, 14.0, -1.0, 0.0, 0.0, 0.0, 0.0, -0.03413330763578415, -0.4163781404495239, 0.015900293365120888, 0.04345997795462608, -0.06796909868717194, 0.0034967842511832714
224077, 2.632219076156616, -3.0751826763153076, -12.083427429199219, 0, 0, 0, 0, 0, 0, 0, 0, 0, 0, 0, 0, 0.0, 0.0, 0.0, 0.0, 14.0, 0.0, -4.0, 0.0, 0.0, 0.0, -0.03483426570892334, -0.41628190875053406, 0.016049614176154137, 0.03746386244893074, -0.06929269433021545, 0.0045272004790604115
224088, 2.6287381649017334, -3.0663228034973145, -12.0719633102417, 0, 0, 0, 0, 0, 0, 0, 0, 0, 0, 0, 0, 0.0, 0.0, 0.0, 0.0, 14.0, 1.0, 8.0, 0.0, 0.0, 0.0, -0.0343928262591362, -0.41632020473480225, 0.016018100082874298, 0.04118761792778969, -0.06917430460453033, 0.004554232116788626
224098, 2.637136697769165, -3.065971612930298, -12.075425148010254, 0, 0, 0, 0, 0, 0, 0, 0, 0, 0, 0, 0, 0.0, 0.0, 0.0, 0.0, 17.0, 0.0, -5.0, 0.0, 0.0, 0.0, -0.034157902002334595, -0.41624143719673157, 0.016359342262148857, 0.04267382249236107, -0.06817208975553513, 0.006772785447537899
224108, 2.6307899951934814, -3.0678632259368896, -12.088772773742676, 0, 0, 0, 0, 0, 0, 0, 0, 0, 0, 0, 0, 0.0, 0.0, 0.0, 0.0, 17.0, -1.0, -2.0, 0.0, 0.0, 0.0, -0.03405221924185753, -0.41654661297798157, 0.016315439715981483, 0.043897274881601334, -0.07078501582145691, 0.006709555629640818
224117, 2.614182710647583, -3.0580718517303467, -12.086385726928711, 0, 0, 0, 0, 0, 0, 0, 0, 0, 0, 0, 0, 0.0, 0.0, 0.0, 0.0, 17.0, 0.0, 0.0, 0.0, 0.0, 0.0, -0.034241560846567154, -0.41667667031288147, 0.0164394062012434, 0.04167706146836281, -0.07105004042387009, 0.007556289434432983
224127, 2.640101432800293, -3.075269937515259, -12.072874069213867, 0, 0, 0, 0, 0, 0, 0, 0, 0, 0, 0, 0, 0.0, 0.0, 0.0, 0.0, 17.0, 0.0, 3.0, 0.0, 0.0, 0.0, -0.03421145677566528, -0.4168061912059784, 0.016487063840031624, 0.04193833842873573, -0.07220470905303955, 0.007741630543023348
224137, 2.664935827255249, -3.0939061641693115, -12.087684631347656, 0, 0, 0, 0, 0, 0, 0, 0, 0, 0, 0, 0, 0.0, 0.0, 0.0, 0.0, 17.0, 1.0, 0.0, 0.0, 0.0, 0.0, -0.03447385132312775, -0.41634878516197205, 0.015530739910900593, 0.03955117240548134, -0.0690457820892334, 0.0013795256381854415
224149, 2.613927125930786, -3.07078218460083, -12.083131790161133, 0, 0, 0, 0, 0, 0, 0, 0, 0, 0, 0, 0, 0.0, 0.0, 0.0, 0.0, 13.0, -4.0, 4.0, 0.0, 0.0, 0.0, -0.03393940255045891, -0.4167085886001587, 0.015446932055056095, 0.04474826157093048, -0.07164537906646729, 0.0013038382166996598
224159, 2.642376184463501, -3.08512282371521, -12.088790893554688, 0, 0, 0, 0, 0, 0, 0, 0, 0, 0, 0, 0, 0.0, 0.0, 0.0, 0.0, 13.0, 3.0, -7.0, 0.0, 0.0, 0.0, -0.03394767642021179, -0.4167129695415497, 0.01546753291040659, 0.04455770179629326, -0.07159379124641418, 0.0017690639942884445
224167, 2.659971237182617, -3.087405204772949, -12.082779884338379, 0, 0, 0, 0, 0, 0, 0, 0, 0, 0, 0, 0, 0.0, 0.0, 0.0, 0.0, 13.0, 1.0, 0.0, 0.0, 0.0, 0.0, -0.03404721990227699, -0.41688525676727295, 0.015566063113510609, 0.043330930173397064, -0.07253120839595795, 0.0027686848770827055
224177, 2.6200788021087646, -3.0769052505493164, -12.076664924621582, 0, 0, 0, 0, 0, 0, 0, 0, 0, 0, 0, 0, 0.0, 0.0, 0.0, 0.0, 13.0, 0.0, 2.0, 0.0, 0.0, 0.0, -0.031722985208034515, -0.4168400764465332, 0.015363157726824284, 0.062038667500019073, -0.06809665262699127, 0.0021204217337071896
224187, 2.607616901397705, -3.0891551971435547, -12.08878231048584, 0, 0, 0, 0, 0, 0, 0, 0, 0, 0, 0, 0, 0.0, 0.0, 0.0, 0.0, 14.0, -5.0, -25.0, 0.0, 0.0, 0.0, -0.03266832232475281, -0.4168570637702942, 0.015099335461854935, 0.053463805466890335, -0.0701766237616539, 0.0007376811699941754
224198, 2.6010520458221436, -3.0929605960845947, -12.06665325164795, 0, 0, 0, 0, 0, 0, 0, 0, 0, 0, 0, 0, 0.0, 0.0, 0.0, 0.0, 14.0, 3.0, 10.0, 0.0, 0.0, 0.0, -0.03307786583900452, -0.416917085647583, 0.015207254327833652, 0.049400098621845245, -0.07200399786233902, 0.0019357885466888547
224208, 2.581124782562256, -3.081216335296631, -12.078861236572266, 0, 0, 0, 0, 0, 0, 0, 0, 0, 0, 0, 0, 0.0, 0.0, 0.0, 0.0, 14.0, 1.0, 5.0, 0.0, 0.0, 0.0, -0.0329507477581501, -0.4171734154224396, 0.015167362056672573, 0.050619520246982574, -0.07308204472064972, 0.0020303449127823114
224217, 2.5586652755737305, -3.1285855770111084, -12.066067695617676, 0, 0, 0, 0, 0, 0, 0, 0, 0, 0, 0, 0, 0.0, 0.0, 0.0, 0.0, 14.0, 0.0, 0.0, 0.0, 0.0, 0.0, -0.03319736197590828, -0.41726651787757874, 0.015347319655120373, 0.04812360182404518, -0.07286446541547775, 0.003591718152165413
224227, 2.563394546508789, -3.1281518936157227, -12.07946491241455, 0, 0, 0, 0, 0, 0, 0, 0, 0, 0, 0, 0, 0.0, 0.0, 0.0, 0.0, 14.0, 0.0, 4.0, 0.0, 0.0, 0.0, -0.03251389041543007, -0.41704830527305603, 0.015910189598798752, 0.05320257321000099, -0.07053184509277344, 0.00755369383841753
224238, 2.536381721496582, -3.1801576614379883, -12.104741096496582, 0, 0, 0, 0, 0, 0, 0, 0, 0, 0, 0, 0, 0.0, 0.0, 0.0, 0.0, 17.0, -4.0, -7.0, 0.0, 0.0, 0.0, -0.033232539892196655, -0.417197048664093, 0.016031529754400253, 0.04723792150616646, -0.0730857253074646, 0.008137238211929798
224248, 2.512300491333008, -3.167429208755493, -12.114168167114258, 0, 0, 0, 0, 0, 0, 0, 0, 0, 0, 0, 0, 0.0, 0.0, 0.0, 0.0, 17.0, 4.0, 7.0, 0.0, 0.0, 0.0, -0.033039458096027374, -0.4171393811702728, 0.01608240231871605, 0.048683200031518936, -0.0715760737657547, 0.008463045582175255
224258, 2.5647573471069336, -3.1238186359405518, -12.079239845275879, 0, 0, 0, 0, 0, 0, 0, 0, 0, 0, 0, 0, 0.0, 0.0, 0.0, 0.0, 17.0, 0.0, -2.0, 0.0, 0.0, 0.0, -0.0329410657286644, -0.41742444038391113, 0.016059882938861847, 0.04974029213190079, -0.07386533170938492, 0.00834664423018694
224268, 2.59808349609375, -3.098390817642212, -12.077411651611328, 0, 0, 0, 0, 0, 0, 0, 0, 0, 0, 0, 0, 0.0, 0.0, 0.0, 0.0, 17.0, 0.0, 0.0, 0.0, 0.0, 0.0, -0.033307597041130066, -0.41956183314323425, 0.015787692740559578, 0.049593303352594376, -0.09134209156036377, 0.0067269341088831425
224277, 2.5292463302612305, -3.1172215938568115, -12.081687927246094, 0, 0, 0, 0, 0, 0, 0, 0, 0, 0, 0, 0, 0.0, 0.0, 0.0, 0.0, 16.0, 21.0, 0.0, 0.0, 0.0, 0.0, -0.03380351886153221, -0.41940635442733765, 0.015936892479658127, 0.04494622349739075, -0.08944422751665115, 0.007646788842976093
224288, 2.537156581878662, -3.1060385704040527, -12.05980396270752, 0, 0, 0, 0, 0, 0, 0, 0, 0, 0, 0, 0, 0.0, 0.0, 0.0, 0.0, 16.0, 1.0, 5.0, 0.0, 0.0, 0.0, -0.03481891378760338, -0.4192958474159241, 0.016117386519908905, 0.036035921424627304, -0.08972498029470444, 0.008746011182665825
224299, 2.5666463375091553, -3.105457305908203, -12.10161304473877, 0, 0, 0, 0, 0, 0, 0, 0, 0, 0, 0, 0, 0.0, 0.0, 0.0, 0.0, 16.0, 2.0, 10.0, 0.0, 0.0, 0.0, -0.034945275634527206, -0.41967371106147766, 0.016105547547340393, 0.036193568259477615, -0.09249386191368103, 0.008695606142282486
224309, 2.6171460151672363, -3.0972537994384766, -12.070769309997559, 0, 0, 0, 0, 0, 0, 0, 0, 0, 0, 0, 0, 0.0, 0.0, 0.0, 0.0, 16.0, 5.0, 0.0, 0.0, 0.0, 0.0, -0.03453661873936653, -0.41909173130989075, 0.016317754983901978, 0.039108917117118835, -0.08519354462623596, 0.00986420176923275
224317, 2.5487663745880127, -3.1082427501678467, -12.080839157104492, 0, 0, 0, 0, 0, 0, 0, 0, 0, 0, 0, 0, 0.0, 0.0, 0.0, 0.0, 16.0, -5.0, -3.0, 0.0, 0.0, 0.0, -0.03341533988714218, -0.41964030265808105, 0.014909761026501656, 0.04924570396542549, -0.08562545478343964, 0.0012178708566352725
224327, 2.570822238922119, -3.109100103378296, -12.094635009765625, 0, 0, 0, 0, 0, 0, 0, 0, 0, 0, 0, 0, 0.0, 0.0, 0.0, 0.0, 12.0, 1.0, -12.0, 0.0, 0.0, 0.0, -0.035479336977005005, -0.4194398820400238, 0.015208914875984192, 0.03193250298500061, -0.08667472004890442, 0.0032900392543524504
224337, 2.580923080444336, -3.1190319061279297, -12.077787399291992, 0, 0, 0, 0, 0, 0, 0, 0, 0, 0, 0, 0, 0.0, 0.0, 0.0, 0.0, 12.0, 4.0, 21.0, 0.0, 0.0, 0.0, -0.03586002066731453, -0.4192486107349396, 0.015323720872402191, 0.02907930500805378, -0.08574884384870529, 0.004250842612236738
224348, 2.561851739883423, -3.083526611328125, -12.080831527709961, 0, 0, 0, 0, 0, 0, 0, 0, 0, 0, 0, 0, 0.0, 0.0, 0.0, 0.0, 12.0, 0.0, 4.0, 0.0, 0.0, 0.0, -0.035478897392749786, -0.4191698729991913, 0.015402373857796192, 0.03228026255965233, -0.08396545052528381, 0.00472644530236721
224359, 2.65655517578125, -3.0845515727996826, -12.050482749938965, 0, 0, 0, 0, 0, 0, 0, 0, 0, 0, 0, 0, 0.0, 0.0, 0.0, 0.0, 12.0, 0.0, -4.0, 0.0, 0.0, 0.0, -0.03503210470080376, -0.4191625714302063, 0.014310774393379688, 0.03720594942569733, -0.08274774998426437, -0.0024032292421907187
224369, 2.4975948333740234, -3.115169048309326, -12.078330039978027, 0, 0, 0, 0, 0, 0, 0, 0, 0, 0, 0, 0, 0.0, 0.0, 0.0, 0.0, 12.0, 0.0, -5.0, 0.0, 0.0, 0.0, -0.03562145307660103, -0.41904520988464355, 0.014391869306564331, 0.032477110624313354, -0.08210571110248566, -0.0014057981316000223
224377, 2.5293796062469482, -3.0894346237182617, -12.07291316986084, 0, 0, 0, 0, 0, 0, 0, 0, 0, 0, 0, 0, 0.0, 0.0, 0.0, 0.0, 12.0, 2.0, 6.0, 0.0, 0.0, 0.0, -0.035784363746643066, -0.4189614951610565, 0.014538918621838093, 0.0307470615953207, -0.07905002683401108, 0.00023432548914570361
224388, 2.5099973678588867, -3.1533102989196777, -12.0836820602417, 0, 0, 0, 0, 0, 0, 0, 0, 0, 0, 0, 0, 0.0, 0.0, 0.0, 0.0, 12.0, -3.0, 3.0, 0.0, 0.0, 0.0, -0.03501981124281883, -0.41914093494415283, 0.014533278532326221, 0.03816045820713043, -0.07812406867742538, 0.0008942157728597522
224398, 2.531445026397705, -3.17940354347229, -12.113150596618652, 0, 0, 0, 0, 0, 0, 0, 0, 0, 0, 0, 0, 0.0, 0.0, 0.0, 0.0, 12.0, 0.0, -7.0, 0.0, 0.0, 0.0, -0.03565685451030731, -0.41894376277923584, 0.014716511592268944, 0.032577816396951675, -0.07691622525453568, 0.0021702961530536413
224407, 2.5179760456085205, -3.1180639266967773, -12.087032318115234, 0, 0, 0, 0, 0, 0, 0, 0, 0, 0, 0, 0, 0.0, 0.0, 0.0, 0.0, 12.0, 0.0, 7.0, 0.0, 0.0, 0.0, -0.035692472010850906, -0.41863107681274414, 0.014491242356598377, 0.03209692984819412, -0.07635237276554108, 0.0006445969338528812
224417, 2.6265392303466797, -3.1031177043914795, -12.092182159423828, 0, 0, 0, 0, 0, 0, 0, 0, 0, 0, 0, 0, 0.0, 0.0, 0.0, 0.0, 14.0, 6.0, -24.0, 0.0, 0.0, 0.0, -0.03321290388703346, -0.41887643933296204, 0.014398281462490559, 0.05383724346756935, -0.0740385502576828, 0.0011535899247974157
224427, 2.63254451751709, -3.0914146900177, -12.075942039489746, 0, 0, 0, 0, 0, 0, 0, 0, 0, 0, 0, 0, 0.0, 0.0, 0.0, 0.0, 14.0, -5.0, -4.0, 0.0, 0.0, 0.0, -0.03304710611701012, -0.41909778118133545, 0.014380178414285183, 0.05497022718191147, -0.07597517967224121, 0.0014345593517646194
224437, 2.610741376876831, -3.1088526248931885, -12.060916900634766, 0, 0, 0, 0, 0, 0, 0, 0, 0, 0, 0, 0, 0.0, 0.0, 0.0, 0.0, 14.0, 0.0, 6.0, 0.0, 0.0, 0.0, -0.03398514539003372, -0.41974663734436035, 0.014399844221770763, 0.047726891934871674, -0.08294858038425446, 0.0016713296063244343
224448, 2.610145092010498, -3.1111979484558105, -12.078079223632812, 0, 0, 0, 0, 0, 0, 0, 0, 0, 0, 0, 0, 0.0, 0.0, 0.0, 0.0, 14.0, 15.0, 0.0, 0.0, 0.0, 0.0, -0.03360161557793617, -0.4191746413707733, 0.015058127231895924, 0.04925128072500229, -0.07689585536718369, 0.0065410262905061245
224459, 2.6415255069732666, -3.121065378189087, -12.06318187713623, 0, 0, 0, 0, 0, 0, 0, 0, 0, 0, 0, 0, 0.0, 0.0, 0.0, 0.0, 16.0, -6.0, -3.0, 0.0, 0.0, 0.0, -0.03297572210431099, -0.4199085533618927, 0.015142510645091534, 0.053341031074523926, -0.07972262799739838, 0.007253766059875488
224467, 2.6286630630493164, -3.116948366165161, -12.089018821716309, 0, 0, 0, 0, 0, 0, 0, 0, 0, 0, 0, 0, 0.0, 0.0, 0.0, 0.0, 16.0, -1.0, -3.0, 0.0, 0.0, 0.0, -0.033069442957639694, -0.4195631146430969, 0.015138393267989159, 0.052695173770189285, -0.07826216518878937, 0.00711993919685483
224477, 2.597860336303711, -3.1063594818115234, -12.067959785461426, 0, 0, 0, 0, 0, 0, 0, 0, 0, 0, 0, 0, 0.0, 0.0, 0.0, 0.0, 16.0, -23.0, 6.0, 0.0, 0.0, 0.0, -0.033140912652015686, -0.41716277599334717, 0.01578446850180626, 0.047197211533784866, -0.0591391921043396, 0.010955828242003918
224488, 2.573791980743408, -3.1144044399261475, -12.087031364440918, 0, 0, 0, 0, 0, 0, 0, 0, 0, 0, 0, 0, 0.0, 0.0, 0.0, 0.0, 16.0, 0.0, 0.0, 0.0, 0.0, 0.0, -0.03301352635025978, -0.4173160195350647, 0.01579158939421177, 0.0485529862344265, -0.06092236936092377, 0.01069689728319645
224499, 2.5912506580352783, -3.1110923290252686, -12.06627082824707, 0, 0, 0, 0, 0, 0, 0, 0, 0, 0, 0, 0, 0.0, 0.0, 0.0, 0.0, 16.0, 0.0, 0.0, 0.0, 0.0, 0.0, -0.031547293066978455, -0.4175702929496765, 0.01594221405684948, 0.05839243158698082, -0.05998104438185692, 0.011447761207818985
224507, 2.5730788707733154, -3.0960991382598877, -12.083014488220215, 0, 0, 0, 0, 0, 0, 0, 0, 0, 0, 0, 0, 0.0, 0.0, 0.0, 0.0, 16.0, -5.0, -10.0, 0.0, 0.0, 0.0, -0.03168478608131409, -0.4172910749912262, 0.01592692919075489, 0.05764419585466385, -0.05905797705054283, 0.011276016011834145
224517, 2.5997841358184814, -3.089137315750122, -12.074064254760742, 0, 0, 0, 0, 0, 0, 0, 0, 0, 0, 0, 0, 0.0, 0.0, 0.0, 0.0, 16.0, 0.0, 7.0, 0.0, 0.0, 0.0, -0.032410405576229095, -0.4170045256614685, 0.016142258420586586, 0.051066938787698746, -0.059174954891204834, 0.012030581943690777
224527, 2.5931856632232666, -3.096137046813965, -12.100881576538086, 0, 0, 0, 0, 0, 0, 0, 0, 0, 0, 0, 0, 0.0, 0.0, 0.0, 0.0, 16.0, 4.0, 3.0, 0.0, 0.0, 0.0, -0.03278275206685066, -0.41685950756073, 0.01628541387617588, 0.04822917282581329, -0.05894020199775696, 0.012325647287070751
224538, 2.574723482131958, -3.1163723468780518, -12.099864959716797, 0, 0, 0, 0, 0, 0, 0, 0, 0, 0, 0, 0, 0.0, 0.0, 0.0, 0.0, 16.0, 0.0, -2.0, 0.0, 0.0, 0.0, -0.03302612900733948, -0.4167070686817169, 0.016579948365688324, 0.04601933807134628, -0.05943983420729637, 0.01377038937062025
224547, 2.635786294937134, -3.086789608001709, -12.09119987487793, 0, 0, 0, 0, 0, 0, 0, 0, 0, 0, 0, 0, 0.0, 0.0, 0.0, 0.0, 17.0, 0.0, 2.0, 0.0, 0.0, 0.0, -0.032809507101774216, -0.4171750843524933, 0.01664482057094574, 0.0474899522960186, -0.06328368186950684, 0.013792118988931179
224557, 2.5414092540740967, -3.107302188873291, -12.110861778259277, 0, 0, 0, 0, 0, 0, 0, 0, 0, 0, 0, 0, 0.0, 0.0, 0.0, 0.0, 17.0, -5.0, -8.0, 0.0, 0.0, 0.0, -0.032966502010822296, -0.4166892468929291, 0.016832726076245308, 0.04533708095550537, -0.06006857380270958, 0.014489056542515755
224567, 2.604121685028076, -3.089662551879883, -12.084892272949219, 0, 0, 0, 0, 0, 0, 0, 0, 0, 0, 0, 0, 0.0, 0.0, 0.0, 0.0, 17.0, 5.0, 8.0, 0.0, 0.0, 0.0, -0.032848965376615524, -0.41691070795059204, 0.016856687143445015, 0.04654586315155029, -0.06310566514730453, 0.014280958101153374
224577, 2.5834367275238037, -3.081376552581787, -12.073065757751465, 0, 0, 0, 0, 0, 0, 0, 0, 0, 0, 0, 0, 0.0, 0.0, 0.0, 0.0, 17.0, 0.0, 0.0, 0.0, 0.0, 0.0, -0.03273092955350876, -0.4169010818004608, 0.016897281631827354, 0.047666288912296295, -0.06322858482599258, 0.014087855815887451
224588, 2.5378384590148926, -3.0786144733428955, -12.085176467895508, 0, 0, 0, 0, 0, 0, 0, 0, 0, 0, 0, 0, 0.0, 0.0, 0.0, 0.0, 17.0, 1.0, -2.0, 0.0, 0.0, 0.0, -0.030291752889752388, -0.41512683033943176, 0.016727834939956665, 0.06396210938692093, -0.046031322330236435, 0.012809098698198795
224598, 2.480077028274536, -3.1155521869659424, -12.077363967895508, 0, 0, 0, 0, 0, 0, 0, 0, 0, 0, 0, 0, 0.0, 0.0, 0.0, 0.0, 16.0, -22.0, -22.0, 0.0, 0.0, 0.0, -0.030286826193332672, -0.4135684669017792, 0.017027275636792183, 0.061133429408073425, -0.03448351100087166, 0.01421795878559351
224608, 2.483229160308838, -3.111708641052246, -12.091833114624023, 0, 0, 0, 0, 0, 0, 0, 0, 0, 0, 0, 0, 0.0, 0.0, 0.0, 0.0, 16.0, -15.0, 3.0, 0.0, 0.0, 0.0, -0.030034391209483147, -0.413589209318161, 0.017039690166711807, 0.06202526018023491, -0.03654731810092926, 0.013909167610108852
224617, 2.5865044593811035, -3.082585573196411, -12.086870193481445, 0, 0, 0, 0, 0, 0, 0, 0, 0, 0, 0, 0, 0.0, 0.0, 0.0, 0.0, 16.0, 0.0, -4.0, 0.0, 0.0, 0.0, -0.030223514884710312, -0.41367006301879883, 0.017226655036211014, 0.059050656855106354, -0.03931412473320961, 0.014623577706515789
224627, 2.6303601264953613, -3.0764358043670654, -12.075342178344727, 0, 0, 0, 0, 0, 0, 0, 0, 0, 0, 0, 0, 0.0, 0.0, 0.0, 0.0, 16.0, 0.0, 3.0, 0.0, 0.0, 0.0, -0.030089206993579865, -0.4138568341732025, 0.017206991091370583, 0.06007940322160721, -0.042689669877290726, 0.01402849517762661
224637, 2.4858694076538086, -3.105516195297241, -12.077827453613281, 0, 0, 0, 0, 0, 0, 0, 0, 0, 0, 0, 0, 0.0, 0.0, 0.0, 0.0, 16.0, 0.0, 0.0, 0.0, 0.0, 0.0, -0.03261154145002365, -0.4151468276977539, 0.017025960609316826, 0.04237735643982887, -0.05776839703321457, 0.012262209318578243
224648, 2.6069295406341553, -3.047369956970215, -12.051861763000488, 0, 0, 0, 0, 0, 0, 0, 0, 0, 0, 0, 0, 0.0, 0.0, 0.0, 0.0, 16.0, 20.0, 22.0, 0.0, 0.0, 0.0, -0.03331251069903374, -0.41611742973327637, 0.016947263851761818, 0.039039142429828644, -0.06746485084295273, 0.011411260813474655
224657, 2.6399128437042236, -3.0587587356567383, -12.085443496704102, 0, 0, 0, 0, 0, 0, 0, 0, 0, 0, 0, 0, 0.0, 0.0, 0.0, 0.0, 16.0, 12.0, 4.0, 0.0, 0.0, 0.0, -0.03337832912802696, -0.4166748523712158, 0.016988154500722885, 0.039215583354234695, -0.07183758169412613, 0.011501705273985863
224667, 2.6873247623443604, -3.0625548362731934, -12.07166576385498, 0, 0, 0, 0, 0, 0, 0, 0, 0, 0, 0, 0, 0.0, 0.0, 0.0, 0.0, 16.0, 4.0, 0.0, 0.0, 0.0, 0.0, -0.03336837887763977, -0.41635188460350037, 0.017132390290498734, 0.03909870609641075, -0.06992478668689728, 0.01216970756649971
224677, 2.640286684036255, -3.062138319015503, -12.070277214050293, 0, 0, 0, 0, 0, 0, 0, 0, 0, 0, 0, 0, 0.0, 0.0, 0.0, 0.0, 16.0, -3.0, 0.0, 0.0, 0.0, 0.0, -0.03391793370246887, -0.41631513833999634, 0.016833817586302757, 0.0351187102496624, -0.07043532282114029, 0.009863280691206455
224688, 2.608562707901001, -3.076629638671875, -12.087778091430664, 0, 0, 0, 0, 0, 0, 0, 0, 0, 0, 0, 0, 0.0, 0.0, 0.0, 0.0, 16.0, 2.0, 5.0, 0.0, 0.0, 0.0, -0.03322026878595352, -0.41624143719673157, 0.01685294508934021, 0.04100752994418144, -0.06913504749536514, 0.009897498413920403
224697, 2.6559362411499023, -3.081946611404419, -12.092028617858887, 0, 0, 0, 0, 0, 0, 0, 0, 0, 0, 0, 0, 0.0, 0.0, 0.0, 0.0, 16.0, -2.0, -8.0, 0.0, 0.0, 0.0, -0.033445317298173904, -0.4163733422756195, 0.016964195296168327, 0.03922830522060394, -0.06962187588214874, 0.010380513034760952
224708, 2.6278607845306396, -3.0801076889038086, -12.07023811340332, 0, 0, 0, 0, 0, 0, 0, 0, 0, 0, 0, 0, 0.0, 0.0, 0.0, 0.0, 16.0, 0.0, 3.0, 0.0, 0.0, 0.0, -0.0335354208946228, -0.41598019003868103, 0.017010129988193512, 0.038914863020181656, -0.06764484196901321, 0.010166293941438198
224717, 2.5998616218566895, -3.078526496887207, -12.066275596618652, 0, 0, 0, 0, 0, 0, 0, 0, 0, 0, 0, 0, 0.0, 0.0, 0.0, 0.0, 16.0, -1.0, 0.0, 0.0, 0.0, 0.0, -0.03364599123597145, -0.4161207675933838, 0.017131388187408447, 0.037782277911901474, -0.0680297240614891, 0.010514331050217152
224727, 2.579859733581543, -3.076525926589966, -12.055450439453125, 0, 0, 0, 0, 0, 0, 0, 0, 0, 0, 0, 0, 0.0, 0.0, 0.0, 0.0, 17.0, 0.0, 2.0, 0.0, 0.0, 0.0, -0.031575947999954224, -0.41593247652053833, 0.017046287655830383, 0.054063305258750916, -0.06276548653841019, 0.010167859494686127
224737, 2.64568829536438, -3.086061477661133, -12.060358047485352, 0, 0, 0, 0, 0, 0, 0, 0, 0, 0, 0, 0, 0.0, 0.0, 0.0, 0.0, 17.0, -7.0, -22.0, 0.0, 0.0, 0.0, -0.031050333753228188, -0.4159734845161438, 0.017054470255970955, 0.057840775698423386, -0.06365079432725906, 0.010291844606399536
224747, 2.64955997467041, -3.1113500595092773, -12.066228866577148, 0, 0, 0, 0, 0, 0, 0, 0, 0, 0, 0, 0, 0.0, 0.0, 0.0, 0.0, 17.0, -2.0, -6.0, 0.0, 0.0, 0.0, -0.032792143523693085, -0.4155477285385132, 0.01754475198686123, 0.041884660720825195, -0.062425654381513596, 0.012751157395541668
224757, 2.599578619003296, -3.1043004989624023, -12.070517539978027, 0, 0, 0, 0, 0, 0, 0, 0, 0, 0, 0, 0, 0.0, 0.0, 0.0, 0.0, 17.0, -2.0, 21.0, 0.0, 0.0, 0.0, -0.032759808003902435, -0.4152216613292694, 0.017661120742559433, 0.041846588253974915, -0.060041770339012146, 0.013176565058529377
224767, 2.5392491817474365, -3.138434410095215, -12.096041679382324, 0, 0, 0, 0, 0, 0, 0, 0, 0, 0, 0, 0, 0.0, 0.0, 0.0, 0.0, 17.0, -3.0, 0.0, 0.0, 0.0, 0.0, -0.03166243061423302, -0.4137610197067261, 0.017924977466464043, 0.048918336629867554, -0.046538129448890686, 0.014448787085711956
224778, 2.6311681270599365, -3.1071860790252686, -12.081905364990234, 0, 0, 0, 0, 0, 0, 0, 0, 0, 0, 0, 0, 0.0, 0.0, 0.0, 0.0, 18.0, -18.0, -9.0, 0.0, 0.0, 0.0, -0.03180345892906189, -0.41402629017829895, 0.01794194057583809, 0.04871441796422005, -0.0507887601852417, 0.014168995432555676
224787, 2.5799286365509033, -3.1351699829101562, -12.077561378479004, 0, 0, 0, 0, 0, 0, 0, 0, 0, 0, 0, 0, 0.0, 0.0, 0.0, 0.0, 18.0, 3.0, 0.0, 0.0, 0.0, 0.0, -0.03208597004413605, -0.41403600573539734, 0.018021035939455032, 0.046152982860803604, -0.0523621067404747, 0.01405151467770338
224798, 2.534266233444214, -3.1607301235198975, -12.107769012451172, 0, 0, 0, 0, 0, 0, 0, 0, 0, 0, 0, 0, 0.0, 0.0, 0.0, 0.0, 18.0, 0.0, 3.0, 0.0, 0.0, 0.0, -0.031854841858148575, -0.414206862449646, 0.01799570955336094, 0.04837612807750702, -0.0536019466817379, 0.013087485916912556
224807, 2.5802395343780518, -3.0930936336517334, -12.092955589294434, 0, 0, 0, 0, 0, 0, 0, 0, 0, 0, 0, 0, 0.0, 0.0, 0.0, 0.0, 18.0, 1.0, -3.0, 0.0, 0.0, 0.0, -0.0315934494137764, -0.4147558808326721, 0.01801704429090023, 0.05007125809788704, -0.05749400332570076, 0.01287439651787281
224817, 2.575291633605957, -3.1312103271484375, -12.061904907226562, 0, 0, 0, 0, 0, 0, 0, 0, 0, 0, 0, 0, 0.0, 0.0, 0.0, 0.0, 15.0, 0.0, 0.0, 0.0, 0.0, 0.0, -0.031670212745666504, -0.41414523124694824, 0.017217546701431274, 0.04852038621902466, -0.05343945696949959, 0.007892298512160778
224827, 2.5268714427948, -3.14251446723938, -12.091811180114746, 0, 0, 0, 0, 0, 0, 0, 0, 0, 0, 0, 0, 0.0, 0.0, 0.0, 0.0, 15.0, -6.0, 2.0, 0.0, 0.0, 0.0, -0.03140026703476906, -0.4141499996185303, 0.017219722270965576, 0.05054813250899315, -0.05302003398537636, 0.0076803951524198055
224837, 2.616874933242798, -3.1284000873565674, -12.078655242919922, 0, 0, 0, 0, 0, 0, 0, 0, 0, 0, 0, 0, 0.0, 0.0, 0.0, 0.0, 15.0, -1.0, -3.0, 0.0, 0.0, 0.0, -0.0317981019616127, -0.4139430522918701, 0.01731213927268982, 0.046664200723171234, -0.053794339299201965, 0.007809835486114025
224849, 2.7203545570373535, -3.0914266109466553, -12.080275535583496, 0, 0, 0, 0, 0, 0, 0, 0, 0, 0, 0, 0, 0.0, 0.0, 0.0, 0.0, 15.0, -3.0, 4.0, 0.0, 0.0, 0.0, -0.03148766979575157, -0.4142824113368988, 0.017215754836797714, 0.049638476222753525, -0.056669265031814575, 0.007280572783201933
224857, 2.708543539047241, -3.105276584625244, -12.062959671020508, 0, 0, 0, 0, 0, 0, 0, 0, 0, 0, 0, 0, 0.0, 0.0, 0.0, 0.0, 15.0, 2.0, -4.0, 0.0, 0.0, 0.0, -0.030637556686997414, -0.4135977029800415, 0.016791924834251404, 0.05669429525732994, -0.05066808685660362, 0.004648109432309866
