timeTick, roll, pitch, yaw, gyroX, gyroY, gyroZ, stateX, stateY, stateZ, stateVX, stateVY, stateVZ, whisker1, whisker2, whisker3, motor1, motor2, motor3, motor4, otX, otY, otZ, otRoll, otPitch, otYaw, otq0, otq1, otq2, otq3
260050, -1.2174290418624878, 1.253976583480835, -0.2344493269920349, 0, 0, 0, 0, 0, 0, 0, 0, 0, 0, 0, 0, 0, 0, 0, 0, 0, 0, 0, 0, 0, 0, 0, 0, 0, 0
260058, -1.219746470451355, 1.2237073183059692, -0.9974399209022522, 0.14903442561626434, -0.08480923622846603, 0.17431031167507172, 0.03767867758870125, -1.2471473217010498, 0.015573442913591862, 0.046952154487371445, -0.028836891055107117, -0.006068272050470114, 0, 0, 0, 0.0, 0.0, 0.0, 0.0, 0, 0, 0, 0, 0, 0, 0, 0, 0, 0
260069, -1.179492473602295, 1.1534662246704102, -1.264357328414917, -0.02910318225622177, 0.032576240599155426, -0.0523918978869915, 0.037049200385808945, -1.2475472688674927, 0.015393314883112907, 0.0523698590695858, -0.030703425407409668, -0.006752572953701019, 0, 0, 0, 0.0, 0.0, 0.0, 0.0, 0, 0, 0, 0, 0, 0, 0, 0, 0, 0
260078, -1.2686926126480103, 1.2623302936553955, -1.3984063863754272, -0.16697321832180023, -0.06354043632745743, 0.1065080314874649, 0.03674110025167465, -1.2475851774215698, 0.01624058373272419, 0.056143809109926224, -0.035866979509592056, -0.0017345958622172475, 0, 0, 0, 0.0, 0.0, 0.0, 0.0, 0, 0, 0, 0, 0, 0, 0, 0, 0, 0
260088, -1.271371841430664, 1.2587885856628418, -1.4497679471969604, 0.06446625292301178, -0.05614634230732918, -0.06561935693025589, 0.036121394485235214, -1.2474796772003174, 0.016335492953658104, 0.04225058853626251, -0.022908909246325493, -0.0009495503036305308, 0, 0, 0, 0.0, 0.0, 0.0, 0.0, 0, 0, 0, 0, 0, 0, 0, 0, 0, 0
260099, -1.273893117904663, 1.249629259109497, -1.5398640632629395, 0.15216612815856934, 0.0620630644261837, -0.003924071788787842, 0.036189157515764236, -1.2475171089172363, 0.01626800186932087, 0.04303700476884842, -0.023208169266581535, -0.0014721816405653954, 0, 0, 0, 0.0, 0.0, 0.0, 0.0, 0, 0, 0, 0, 0, 0, 0, 0, 0, 0
260108, -1.241647720336914, 1.2632174491882324, -1.6047723293304443, -0.08168387413024902, -0.18070265650749207, 0.10606525093317032, 0.03645100072026253, -1.2476813793182373, 0.016219401732087135, 0.04363417252898216, -0.02361728437244892, -0.0016924297669902444, 0, 0, 0, 0.0, 0.0, 0.0, 0.0, 0, 0, 0, 0, 0, 0, 0, 0, 0, 0
260118, -1.2055736780166626, 1.1882933378219604, -1.6576478481292725, -0.03579401969909668, 0.061140384525060654, 0.05210632458329201, 0.03674011304974556, -1.2481118440628052, 0.016054123640060425, 0.050436049699783325, -0.033120907843112946, -0.002771807601675391, 0, 0, 0, 0.0, 0.0, 0.0, 0.0, 0, 0, 0, 0, 0, 0, 0, 0, 0, 0
260129, -1.354060411453247, 1.1097902059555054, -1.688416600227356, -0.25949713587760925, -0.13231748342514038, -0.000725418736692518, 0.037362147122621536, -1.2474344968795776, 0.01662728749215603, 0.06282714009284973, -0.012483220547437668, 0.0004596259677782655, 0, 0, 0, 0.0, 0.0, 0.0, 0.0, 0, 0, 0, 0, 0, 0, 0, 0, 0, 0
260140, -1.3986543416976929, 1.1760072708129883, -1.7274583578109741, 0.01100207306444645, -0.02655680663883686, 0.09801439940929413, 0.037094391882419586, -1.2472487688064575, 0.016638431698083878, 0.05341319739818573, -0.006895527243614197, 0.0005787240224890411, 0, 0, 0, 0.0, 0.0, 0.0, 0.0, 0, 0, 0, 0, 0, 0, 0, 0, 0, 0
260149, -1.3611294031143188, 1.1949752569198608, -1.7562469244003296, 0.041220832616090775, 0.07721637189388275, 0.03586829826235771, 0.03748559206724167, -1.247290015220642, 0.016609396785497665, 0.053943194448947906, -0.007073091808706522, 0.00032050226582214236, 0, 0, 0, 0.0, 0.0, 0.0, 0.0, 0, 0, 0, 0, 0, 0, 0, 0, 0, 0
260158, -1.3227043151855469, 1.1815648078918457, -1.7850075960159302, -0.09193506091833115, 0.012649535201489925, 0.08842172473669052, 0.03736559674143791, -1.2477376461029053, 0.016505872830748558, 0.05129750072956085, -0.016561228781938553, -0.0003248932771384716, 0, 0, 0, 0.0, 0.0, 0.0, 0.0, 0, 0, 0, 0, 0, 0, 0, 0, 0, 0
260168, -1.3286874294281006, 1.1719557046890259, -1.8055843114852905, -0.007500466890633106, -0.12407445162534714, -0.212490513920784, 0.03777353838086128, -1.2478026151657104, 0.016638457775115967, 0.05252448469400406, -0.01589367911219597, 0.00033423848799429834, 0, 0, 0, 0.0, 0.0, 0.0, 0.0, 0, 0, 0, 0, 0, 0, 0, 0, 0, 0
260178, -1.3171577453613281, 1.4483119249343872, -1.8064346313476562, -0.12205154448747635, 0.016749905422329903, 0.1323801726102829, 0.037612900137901306, -1.2471786737442017, 0.016622355207800865, 0.04636918008327484, -0.0034684622660279274, 0.0004031651478726417, 0, 0, 0, 0.0, 0.0, 0.0, 0.0, 0, 0, 0, 0, 0, 0, 0, 0, 0, 0
260189, -1.3218185901641846, 1.443278193473816, -1.817337155342102, -0.22410733997821808, 0.3332826495170593, 0.08370349556207657, 0.03572659194469452, -1.2478530406951904, 0.01670096255838871, 0.013727222569286823, -0.01403050310909748, 0.00143513735383749, 0, 0, 0, 0.0, 0.0, 0.0, 0.0, 0, 0, 0, 0, 0, 0, 0, 0, 0, 0
260198, -1.3106154203414917, 1.4271392822265625, -1.834793210029602, 0.0017187446355819702, 0.01828554831445217, -0.05296170338988304, 0.035828571766614914, -1.2479751110076904, 0.016655346378684044, 0.014438196085393429, -0.015824265778064728, 0.001219840720295906, 0, 0, 0, 0.0, 0.0, 0.0, 0.0, 0, 0, 0, 0, 0, 0, 0, 0, 0, 0
260208, -1.3151195049285889, 1.4004966020584106, -1.8496044874191284, -0.04548162221908569, -0.0260944627225399, 0.05092940479516983, 0.03610062971711159, -1.2480295896530151, 0.01662454940378666, 0.017523955553770065, -0.015236345119774342, 0.0008253760752268136, 0, 0, 0, 0.0, 0.0, 0.0, 0.0, 0, 0, 0, 0, 0, 0, 0, 0, 0, 0
260219, -1.3234877586364746, 1.4099351167678833, -1.8564029932022095, -0.05266718566417694, -0.007355402689427137, -0.14928093552589417, 0.03609379008412361, -1.247611403465271, 0.016365978866815567, 0.01693141646683216, -0.008734765462577343, -0.0009226637776009738, 0, 0, 0, 0.0, 0.0, 0.0, 0.0, 0, 0, 0, 0, 0, 0, 0, 0, 0, 0
260229, -1.322814702987671, 1.4051856994628906, -1.8642460107803345, 0.051067110151052475, -0.27587422728538513, 0.11051265150308609, 0.03598159924149513, -1.2479976415634155, 0.016256118193268776, 0.01580069400370121, -0.013750875368714333, -0.0016077598556876183, 0, 0, 0, 0.0, 0.0, 0.0, 0.0, 0, 0, 0, 0, 0, 0, 0, 0, 0, 0
260239, -1.3276690244674683, 1.443124771118164, -1.8761740922927856, -0.17530058324337006, 0.007996964268386364, 0.012878874316811562, 0.0355643704533577, -1.2479544878005981, 0.016201382502913475, 0.009368284605443478, -0.012834679335355759, -0.0018648785771802068, 0, 0, 0, 0.0, 0.0, 0.0, 0.0, 0, 0, 0, 0, 0, 0, 0, 0, 0, 0
260250, -1.3272511959075928, 1.4395571947097778, -1.8734718561172485, -0.03894677758216858, 0.06618615239858627, 0.054915186017751694, 0.03553937375545502, -1.2480378150939941, 0.016109565272927284, 0.009136781096458435, -0.013305806554853916, -0.002453776076436043, 0, 0, 0, 0.0, 0.0, 0.0, 0.0, 0, 0, 0, 0, 0, 0, 0, 0, 0, 0
260258, -1.363640546798706, 1.4191069602966309, -1.8852111101150513, -0.124580517411232, -0.0576871894299984, 0.019278351217508316, 0.03558584675192833, -1.2481328248977661, 0.016049593687057495, 0.00942243356257677, -0.013430878520011902, -0.002806008094921708, 0, 0, 0, 0.0, 0.0, 0.0, 0.0, 0, 0, 0, 0, 0, 0, 0, 0, 0, 0
260268, -1.324446678161621, 1.4162182807922363, -1.8860357999801636, 0.023260587826371193, 0.3827282786369324, 0.13965116441249847, 0.035711437463760376, -1.2479771375656128, 0.01630215160548687, 0.010775117203593254, -0.011316806077957153, -0.001086812000721693, 0, 0, 0, 0.0, 0.0, 0.0, 0.0, 0, 0, 0, 0, 0, 0, 0, 0, 0, 0
260279, -1.327765941619873, 1.4082691669464111, -1.8921229839324951, 0.03287966921925545, 0.20942458510398865, 0.01718856580555439, 0.03565720468759537, -1.2480902671813965, 0.01617276854813099, 0.010675911791622639, -0.01204835344105959, -0.0020916941575706005, 0, 0, 0, 0.0, 0.0, 0.0, 0.0, 0, 0, 0, 0, 0, 0, 0, 0, 0, 0
260289, -1.3276811838150024, 1.4070738554000854, -1.8896692991256714, -0.19706015288829803, 0.09770073741674423, 0.042403463274240494, 0.03566937521100044, -1.2481385469436646, 0.01610954850912094, 0.010384277440607548, -0.012318983674049377, -0.0025914055295288563, 0, 0, 0, 0.0, 0.0, 0.0, 0.0, 0, 0, 0, 0, 0, 0, 0, 0, 0, 0
260298, -1.3413387537002563, 1.3798125982284546, -1.8961844444274902, -0.26985377073287964, -0.047003455460071564, 0.06987402588129044, 0.0359630286693573, -1.2480294704437256, 0.016025526449084282, 0.013504495844244957, -0.010605935007333755, -0.003038361668586731, 0, 0, 0, 0.0, 0.0, 0.0, 0.0, 0, 0, 0, 0, 0, 0, 0, 0, 0, 0
260308, -1.5535959005355835, 1.4535586833953857, -1.896314024925232, -0.14293284714221954, 0.1088021919131279, 0.04072336107492447, 0.03521429002285004, -1.2453608512878418, 0.01666858233511448, 0.004724586382508278, 0.01864996738731861, 0.0011038696393370628, 0, 0, 0, 0.0, 0.0, 0.0, 0.0, 0, 0, 0, 0, 0, 0, 0, 0, 0, 0
260318, -1.4703699350357056, 1.4302955865859985, -1.893042802810669, -0.018882250413298607, -0.3953399956226349, 0.07253814488649368, 0.03547464683651924, -1.2463215589523315, 0.016670387238264084, 0.007612620014697313, 0.007197453174740076, 0.0010389137314632535, 0, 0, 0, 0.0, 0.0, 0.0, 0.0, 0, 0, 0, 0, 0, 0, 0, 0, 0, 0
260328, -1.4182360172271729, 1.4166659116744995, -1.8923693895339966, -0.009933527559041977, -0.1659785509109497, -0.12247267365455627, 0.035634446889162064, -1.2469666004180908, 0.01662256382405758, 0.009295939467847347, -0.0001414505677530542, 0.0006452882080338895, 0, 0, 0, 0.0, 0.0, 0.0, 0.0, 0, 0, 0, 0, 0, 0, 0, 0, 0, 0
260338, -1.4082154035568237, 1.3763025999069214, -1.8950049877166748, 0.011618543416261673, -0.405373215675354, 0.1082037091255188, 0.03612509369850159, -1.2470945119857788, 0.016524581238627434, 0.014253496192395687, -0.001697454834356904, 4.4518214963318314e-06, 0, 0, 0, 0.0, 0.0, 0.0, 0.0, 0, 0, 0, 0, 0, 0, 0, 0, 0, 0
260348, -1.396519660949707, 1.4190322160720825, -1.8954168558120728, -0.05097062885761261, 0.19991149008274078, -0.11279003322124481, 0.03622129559516907, -1.2471020221710205, 0.016478752717375755, 0.014601881615817547, -0.001998342340812087, -0.0003026621707249433, 0, 0, 0, 0.0, 0.0, 0.0, 0.0, 0, 0, 0, 0, 0, 0, 0, 0, 0, 0
260358, -1.4039427042007446, 1.4023196697235107, -1.896577000617981, 0.11324430257081985, -0.05481680855154991, 0.04448958486318588, 0.03558753803372383, -1.2470943927764893, 0.01726253516972065, 0.00851153489202261, -0.002150583080947399, 0.004466545302420855, 0, 0, 0, 0.0, 0.0, 0.0, 0.0, 0, 0, 0, 0, 0, 0, 0, 0, 0, 0
260368, -1.385025143623352, 1.3810982704162598, -1.8973681926727295, 0.11342521011829376, -0.09002451598644257, -0.02330658957362175, 0.035806722939014435, -1.2469813823699951, 0.01721308007836342, 0.010363011620938778, -0.0012334700440987945, 0.003860178869217634, 0, 0, 0, 0.0, 0.0, 0.0, 0.0, 0, 0, 0, 0, 0, 0, 0, 0, 0, 0
260378, -1.385025143623352, 1.3810982704162598, -1.8973681926727295, 0.19912149012088776, 0.052192218601703644, -0.050824735313653946, 0.03608257696032524, -1.2471355199813843, 0.017115091904997826, 0.01292317733168602, -0.002748014172539115, 0.003205479821190238, 0, 0, 0, 0.0, 0.0, 0.0, 0.0, 0, 0, 0, 0, 0, 0, 0, 0, 0, 0
260389, -1.3845216035842896, 1.3741358518600464, -1.890817403793335, -0.27625375986099243, 0.1847812980413437, 0.34937891364097595, 0.0360209122300148, -1.2470412254333496, 0.01699218340218067, 0.012283637188374996, -0.0020589318592101336, 0.0024468889459967613, 0, 0, 0, 0.0, 0.0, 0.0, 0.0, 0, 0, 0, 0, 0, 0, 0, 0, 0, 0
260398, -1.3723243474960327, 1.3610109090805054, -1.8867988586425781, -0.27223148941993713, 0.14856548607349396, 0.013418647460639477, 0.0361354760825634, -1.2470675706863403, 0.015345349907875061, 0.012673120945692062, -0.0024913575034588575, -0.0072287037037312984, 0, 0, 0, 0.0, 0.0, 0.0, 0.0, 0, 0, 0, 0, 0, 0, 0, 0, 0, 0
260408, -1.3677154779434204, 1.393441915512085, -1.8981579542160034, 0.0663922056555748, -0.28048548102378845, 0.13697217404842377, 0.035696834325790405, -1.2472422122955322, 0.015267560258507729, 0.008287331089377403, -0.004266986157745123, -0.007141438312828541, 0, 0, 0, 0.0, 0.0, 0.0, 0.0, 0, 0, 0, 0, 0, 0, 0, 0, 0, 0
260418, -1.3780674934387207, 1.377852439880371, -1.8975690603256226, -0.40454432368278503, 0.10538476705551147, -0.1407804638147354, 0.03589123487472534, -1.2471429109573364, 0.015181999653577805, 0.010045505128800869, -0.0033949525095522404, -0.007102371659129858, 0, 0, 0, 0.0, 0.0, 0.0, 0.0, 0, 0, 0, 0, 0, 0, 0, 0, 0, 0
260429, -1.3793158531188965, 1.4065784215927124, -1.897191047668457, -0.09928761422634125, 0.01761227287352085, 0.06545034795999527, 0.035515911877155304, -1.2471364736557007, 0.015102049335837364, 0.00668973196297884, -0.0033985183108597994, -0.00701938709244132, 0, 0, 0, 0.0, 0.0, 0.0, 0.0, 0, 0, 0, 0, 0, 0, 0, 0, 0, 0
260439, -1.3464704751968384, 1.3732078075408936, -1.895012617111206, -0.08426528424024582, -0.3411010205745697, 0.009161673486232758, 0.035912930965423584, -1.2476025819778442, 0.01502002403140068, 0.010459192097187042, -0.007483329623937607, -0.007216100115329027, 0, 0, 0, 0.0, 0.0, 0.0, 0.0, 0, 0, 0, 0, 0, 0, 0, 0, 0, 0
260448, -1.339020848274231, 1.4373409748077393, -1.8953968286514282, -0.29651522636413574, -0.0691600888967514, -0.036132704466581345, 0.0359748899936676, -1.247644066810608, 0.015955211594700813, 0.010886729694902897, -0.007427416276186705, -0.0013552168384194374, 0, 0, 0, 0.0, 0.0, 0.0, 0.0, 0, 0, 0, 0, 0, 0, 0, 0, 0, 0
260460, -1.3688244819641113, 1.3772462606430054, -1.897896409034729, 0.14332833886146545, 0.15982329845428467, 0.04136580973863602, 0.03551993891596794, -1.2470512390136719, 0.015875983983278275, 0.00757571728900075, -0.0019510778365656734, -0.0016730576753616333, 0, 0, 0, 0.0, 0.0, 0.0, 0.0, 0, 0, 0, 0, 0, 0, 0, 0, 0, 0
260468, -1.3673808574676514, 1.3763529062271118, -1.8958725929260254, 0.15873126685619354, -0.19013120234012604, 0.007356250658631325, 0.03567951172590256, -1.2470968961715698, 0.015775170177221298, 0.00925419945269823, -0.002573866629973054, -0.001995141850784421, 0, 0, 0, 0.0, 0.0, 0.0, 0.0, 0, 0, 0, 0, 0, 0, 0, 0, 0, 0
260479, -1.3896838426589966, 1.411270260810852, -1.8954503536224365, -0.17345988750457764, -0.039008788764476776, -0.08427857607603073, 0.0358041487634182, -1.2470638751983643, 0.01574639417231083, 0.010351191274821758, -0.002634771168231964, -0.002134867012500763, 0, 0, 0, 0.0, 0.0, 0.0, 0.0, 0, 0, 0, 0, 0, 0, 0, 0, 0, 0
260488, -1.382042407989502, 1.4110779762268066, -1.8961541652679443, -0.08705011755228043, -0.5032827258110046, -0.08752913028001785, 0.03530352562665939, -1.2466256618499756, 0.01606290228664875, 0.006231578532606363, 0.0011517469538375735, -0.0002808319986797869, 0, 0, 0, 0.0, 0.0, 0.0, 0.0, 0, 0, 0, 0, 0, 0, 0, 0, 0, 0
260499, -1.3083194494247437, 1.3772245645523071, -1.8943359851837158, -0.24139724671840668, 0.3695904612541199, -0.04518492892384529, 0.03570733219385147, -1.2476961612701416, 0.016031339764595032, 0.009905921295285225, -0.008270391263067722, -0.0004881711211055517, 0, 0, 0, 0.0, 0.0, 0.0, 0.0, 0, 0, 0, 0, 0, 0, 0, 0, 0, 0
260508, -1.3440611362457275, 1.4066308736801147, -1.8935562372207642, -0.11013305187225342, -0.0337352529168129, -0.030301492661237717, 0.035780973732471466, -1.2477047443389893, 0.016000956296920776, 0.010427035391330719, -0.00829000398516655, -0.0006826600874774158, 0, 0, 0, 0.0, 0.0, 0.0, 0.0, 0, 0, 0, 0, 0, 0, 0, 0, 0, 0
260519, -1.3376927375793457, 1.3993003368377686, -1.895643711090088, 0.09959720075130463, 0.09635130316019058, 0.034179672598838806, 0.035704825073480606, -1.2472230195999146, 0.015932194888591766, 0.010099304839968681, -0.004448431544005871, -0.000868335657287389, 0, 0, 0, 0.0, 0.0, 0.0, 0.0, 0, 0, 0, 0, 0, 0, 0, 0, 0, 0
260529, -1.3376927375793457, 1.3993003368377686, -1.895643711090088, -0.0671674832701683, -0.25059130787849426, -0.03293345868587494, 0.035350117832422256, -1.24721097946167, 0.015878532081842422, 0.006888186559081078, -0.004362819250673056, -0.0010327232303097844, 0, 0, 0, 0.0, 0.0, 0.0, 0.0, 0, 0, 0, 0, 0, 0, 0, 0, 0, 0
260539, -1.3241077661514282, 1.3753528594970703, -1.896710753440857, 0.03829237073659897, 0.06503435224294662, 0.20913445949554443, 0.03459268808364868, -1.246077299118042, 0.01586807146668434, 0.00027683054213412106, 0.005641871131956577, -0.0010150013258680701, 0, 0, 0, 0.0, 0.0, 0.0, 0.0, 0, 0, 0, 0, 0, 0, 0, 0, 0, 0
260548, -1.323265552520752, 1.3753942251205444, -1.8964236974716187, 0.04885689169168472, -0.3013422191143036, -0.11098900437355042, 0.03551911190152168, -1.247259497642517, 0.01583985798060894, 0.00878208503127098, -0.00526423379778862, -0.0011094609508290887, 0, 0, 0, 0.0, 0.0, 0.0, 0.0, 0, 0, 0, 0, 0, 0, 0, 0, 0, 0
260558, -1.3653820753097534, 1.3950568437576294, -1.8962284326553345, 0.03358588367700577, -0.08195672184228897, 0.209276020526886, 0.03532806411385536, -1.2466905117034912, 0.0158147681504488, 0.006776126101613045, -0.00013138219946995378, -0.001223311061039567, 0, 0, 0, 0.0, 0.0, 0.0, 0.0, 0, 0, 0, 0, 0, 0, 0, 0, 0, 0
260568, -1.281663417816162, 1.3702245950698853, -1.8916077613830566, -0.15248116850852966, 0.03430406004190445, 0.10216210037469864, 0.03562275692820549, -1.247726559638977, 0.015764188021421432, 0.009638777002692223, -0.009590079076588154, -0.0013618351658806205, 0, 0, 0, 0.0, 0.0, 0.0, 0.0, 0, 0, 0, 0, 0, 0, 0, 0, 0, 0
260579, -1.1975191831588745, 1.3340650796890259, -1.892005443572998, 0.01844685524702072, 0.27693530917167664, -0.03153973072767258, 0.036102548241615295, -1.2490047216415405, 0.015757976099848747, 0.014041348360478878, -0.020800014957785606, -0.0012553358683362603, 0, 0, 0, 0.0, 0.0, 0.0, 0.0, 0, 0, 0, 0, 0, 0, 0, 0, 0, 0
260589, -1.1516616344451904, 1.2563889026641846, -1.8894379138946533, 0.04495195299386978, -0.3757609724998474, 0.3087635934352875, 0.03716462105512619, -1.2497867345809937, 0.015675947070121765, 0.023067941889166832, -0.02712836302816868, -0.0016628336161375046, 0, 0, 0, 0.0, 0.0, 0.0, 0.0, 0, 0, 0, 0, 0, 0, 0, 0, 0, 0
260598, -1.1150158643722534, 1.3971234560012817, -1.8885847330093384, -0.017890669405460358, 0.01165976282209158, 0.24888339638710022, 0.037320658564567566, -1.2499728202819824, 0.015644824132323265, 0.023300427943468094, -0.02756601572036743, -0.0016603709664195776, 0, 0, 0, 0.0, 0.0, 0.0, 0.0, 0, 0, 0, 0, 0, 0, 0, 0, 0, 0
260608, -1.118600845336914, 1.3659193515777588, -1.887069582939148, 0.032763510942459106, 0.05610678344964981, -0.09676098078489304, 0.035663504153490067, -1.2505145072937012, 0.015671825036406517, 0.009010149165987968, -0.031427815556526184, -0.0014123482396826148, 0, 0, 0, 0.0, 0.0, 0.0, 0.0, 0, 0, 0, 0, 0, 0, 0, 0, 0, 0
260618, -1.1306257247924805, 1.4016482830047607, -1.8867191076278687, -0.13845132291316986, 0.1408776491880417, -0.10543737560510635, 0.03518492355942726, -1.2504525184631348, 0.015624369494616985, 0.005006537772715092, -0.029883619397878647, -0.0015077063580974936, 0, 0, 0, 0.0, 0.0, 0.0, 0.0, 0, 0, 0, 0, 0, 0, 0, 0, 0, 0
260629, -1.173406720161438, 1.3615111112594604, -1.8850826025009155, 0.013899563811719418, -0.06840171664953232, 0.13663415610790253, 0.03574781119823456, -1.24997878074646, 0.016407059505581856, 0.010262848809361458, -0.024813758209347725, 0.0033610747195780277, 0, 0, 0, 0.0, 0.0, 0.0, 0.0, 0, 0, 0, 0, 0, 0, 0, 0, 0, 0
260639, -1.1517105102539062, 1.3998031616210938, -1.8855291604995728, -0.05536583065986633, 0.003782054875046015, 0.06886705756187439, 0.035708870738744736, -1.249896764755249, 0.016367657110095024, 0.01019617822021246, -0.024556651711463928, 0.003109757089987397, 0, 0, 0, 0.0, 0.0, 0.0, 0.0, 0, 0, 0, 0, 0, 0, 0, 0, 0, 0
260649, -1.1510337591171265, 1.3979339599609375, -1.883566975593567, 0.049447886645793915, 0.10811112076044083, 0.2208598554134369, 0.035154517740011215, -1.250425934791565, 0.016312332823872566, 0.005399954039603472, -0.02704661339521408, 0.0024676404427736998, 0, 0, 0, 0.0, 0.0, 0.0, 0.0, 0, 0, 0, 0, 0, 0, 0, 0, 0, 0
260659, -1.0970052480697632, 1.3268275260925293, -1.884857416152954, -0.10652634501457214, 0.18854589760303497, -0.15665924549102783, 0.03513079881668091, -1.250333547592163, 0.016276603564620018, 0.005380954127758741, -0.026767302304506302, 0.002240691101178527, 0, 0, 0, 0.0, 0.0, 0.0, 0.0, 0, 0, 0, 0, 0, 0, 0, 0, 0, 0
260668, -1.0968753099441528, 1.324660301208496, -1.8839974403381348, 0.02710278518497944, -0.34137219190597534, -0.006028967443853617, 0.036014776676893234, -1.2512251138687134, 0.017048073932528496, 0.013574945740401745, -0.0343448631465435, 0.006975116673856974, 0, 0, 0, 0.0, 0.0, 0.0, 0.0, 0, 0, 0, 0, 0, 0, 0, 0, 0, 0
260678, -1.1715917587280273, 1.3670015335083008, -1.8841720819473267, 0.020748179405927658, -0.18853428959846497, -0.0013989548897370696, 0.035505201667547226, -1.2503083944320679, 0.017113106325268745, 0.00827918853610754, -0.024920271709561348, 0.0068129501305520535, 0, 0, 0, 0.0, 0.0, 0.0, 0.0, 0, 0, 0, 0, 0, 0, 0, 0, 0, 0
260689, -1.1970597505569458, 1.3973629474639893, -1.88212251663208, 0.05110486224293709, 0.006461821962147951, 0.28492358326911926, 0.03504374995827675, -1.2500030994415283, 0.01708582043647766, 0.003948565572500229, -0.02166072465479374, 0.0062652588821947575, 0, 0, 0, 0.0, 0.0, 0.0, 0.0, 0, 0, 0, 0, 0, 0, 0, 0, 0, 0
260700, -1.1979066133499146, 1.3619139194488525, -1.883018136024475, 0.10580451786518097, 0.0950273796916008, -0.04129275679588318, 0.035540588200092316, -1.250152826309204, 0.017091242596507072, 0.00846764724701643, -0.02128981240093708, 0.005665164440870285, 0, 0, 0, 0.0, 0.0, 0.0, 0.0, 0, 0, 0, 0, 0, 0, 0, 0, 0, 0
260708, -1.2305171489715576, 1.3893170356750488, -1.8843646049499512, 0.09074732661247253, 0.04598446935415268, -0.1382230818271637, 0.035468291491270065, -1.2501022815704346, 0.01699257455766201, 0.008253342472016811, -0.021265480667352676, 0.00502155302092433, 0, 0, 0, 0.0, 0.0, 0.0, 0.0, 0, 0, 0, 0, 0, 0, 0, 0, 0, 0
260719, -1.3233307600021362, 1.3599932193756104, -1.8821710348129272, -0.19797702133655548, -0.19322046637535095, 0.17269958555698395, 0.03550773859024048, -1.2483665943145752, 0.01670951023697853, 0.00874506775289774, -0.004780952353030443, 0.002949455985799432, 0, 0, 0, 0.0, 0.0, 0.0, 0.0, 0, 0, 0, 0, 0, 0, 0, 0, 0, 0
260729, -1.3220655918121338, 1.318485140800476, -1.8827306032180786, 0.03237723186612129, 0.058373868465423584, 0.08861018717288971, 0.03603179752826691, -1.2483247518539429, 0.016638541594147682, 0.01390896923840046, -0.004978393204510212, 0.00228661997243762, 0, 0, 0, 0.0, 0.0, 0.0, 0.0, 0, 0, 0, 0, 0, 0, 0, 0, 0, 0
260739, -1.3527953624725342, 1.3945982456207275, -1.880471110343933, 0.09226581454277039, 0.0546099878847599, 0.1280525177717209, 0.036128025501966476, -1.2483383417129517, 0.01661691628396511, 0.014240412041544914, -0.0054283891804516315, 0.0021377853117883205, 0, 0, 0, 0.0, 0.0, 0.0, 0.0, 0, 0, 0, 0, 0, 0, 0, 0, 0, 0
260748, -1.3513354063034058, 1.3939557075500488, -1.8786835670471191, 0.06124579533934593, -0.2588498294353485, -0.08568406850099564, 0.03493161499500275, -1.247666835784912, 0.016513409093022346, 0.0033582723699510098, 2.9694996555917896e-05, 0.001318931463174522, 0, 0, 0, 0.0, 0.0, 0.0, 0.0, 0, 0, 0, 0, 0, 0, 0, 0, 0, 0
260758, -1.350293755531311, 1.345618486404419, -1.8777731657028198, 0.05352381244301796, -0.23327670991420746, 0.07622332870960236, 0.03560944274067879, -1.2476543188095093, 0.017969196662306786, 0.009709601290524006, -0.00023152682115323842, 0.010925459675490856, 0, 0, 0, 0.0, 0.0, 0.0, 0.0, 0, 0, 0, 0, 0, 0, 0, 0, 0, 0
260768, -1.2839933633804321, 1.3062056303024292, -1.875611424446106, -0.10746807605028152, 0.2398645281791687, 0.07635930180549622, 0.03613856062293053, -1.2485586404800415, 0.01795523427426815, 0.014590267091989517, -0.009042407386004925, 0.01013975776731968, 0, 0, 0, 0.0, 0.0, 0.0, 0.0, 0, 0, 0, 0, 0, 0, 0, 0, 0, 0
260780, -1.2947498559951782, 1.3099428415298462, -1.8737941980361938, -0.009348202496767044, -0.12406422942876816, 0.18997666239738464, 0.036119524389505386, -1.248403549194336, 0.017921501770615578, 0.014163349755108356, -0.007789044175297022, 0.009203760884702206, 0, 0, 0, 0.0, 0.0, 0.0, 0.0, 0, 0, 0, 0, 0, 0, 0, 0, 0, 0
260789, -1.269023060798645, 1.28215754032135, -1.8738274574279785, -0.035880062729120255, 0.025216437876224518, -0.046011000871658325, 0.03623179346323013, -1.2484474182128906, 0.017938638105988503, 0.01456464733928442, -0.008254299871623516, 0.00867553148418665, 0, 0, 0, 0.0, 0.0, 0.0, 0.0, 0, 0, 0, 0, 0, 0, 0, 0, 0, 0
260798, -1.2743037939071655, 1.2952145338058472, -1.8711280822753906, 0.04519941285252571, 0.021356025710701942, 0.22257408499717712, 0.03636114299297333, -1.2485018968582153, 0.017717063426971436, 0.015836823731660843, -0.009160990826785564, 0.006618421524763107, 0, 0, 0, 0.0, 0.0, 0.0, 0.0, 0, 0, 0, 0, 0, 0, 0, 0, 0, 0
260808, -1.0767267942428589, 1.2809727191925049, -1.8757253885269165, 0.00013169751036912203, -0.16568125784397125, 0.011879491619765759, 0.036558233201503754, -1.2514281272888184, 0.016803521662950516, 0.016535986214876175, -0.03614102676510811, 0.0004572808393277228, 0, 0, 0, 0.0, 0.0, 0.0, 0.0, 0, 0, 0, 0, 0, 0, 0, 0, 0, 0
260818, -1.253327488899231, 1.3264780044555664, -1.8710346221923828, -0.11747194081544876, 0.02747410535812378, -0.02010895498096943, 0.03597376123070717, -1.249004602432251, 0.016905901953577995, 0.01100968662649393, -0.012877888977527618, 0.0011226969072595239, 0, 0, 0, 0.0, 0.0, 0.0, 0.0, 0, 0, 0, 0, 0, 0, 0, 0, 0, 0
260829, -1.2394046783447266, 1.3023759126663208, -1.8730599880218506, 0.04959637299180031, 0.02315489761531353, 0.09128432720899582, 0.03630007430911064, -1.2490602731704712, 0.016814768314361572, 0.013938316144049168, -0.01337478682398796, 0.0002820999070536345, 0, 0, 0, 0.0, 0.0, 0.0, 0.0, 0, 0, 0, 0, 0, 0, 0, 0, 0, 0
260839, -1.263221025466919, 1.3351974487304688, -1.8715739250183105, -0.01929984800517559, 0.13114392757415771, 0.08993925154209137, 0.03578576818108559, -1.2487767934799194, 0.01670430414378643, 0.009058021008968353, -0.010684884153306484, -0.00043531236588023603, 0, 0, 0, 0.0, 0.0, 0.0, 0.0, 0, 0, 0, 0, 0, 0, 0, 0, 0, 0
260850, -1.3558169603347778, 1.1632380485534668, -1.8720853328704834, 0.1293652206659317, 0.1798343062400818, 0.20026282966136932, 0.038210537284612656, -1.247528314590454, 0.016737183555960655, 0.03154566511511803, 0.0007649195613339543, -0.00026269996305927634, 0, 0, 0, 0.0, 0.0, 0.0, 0.0, 0, 0, 0, 0, 0, 0, 0, 0, 0, 0
260858, -1.3551582098007202, 1.2544612884521484, -1.868927001953125, -0.2741104066371918, -0.2234269678592682, 0.02996245212852955, 0.03841450437903404, -1.247504472732544, 0.016691667959094048, 0.031874530017375946, 0.00045933036017231643, -0.0005207571084611118, 0, 0, 0, 0.0, 0.0, 0.0, 0.0, 0, 0, 0, 0, 0, 0, 0, 0, 0, 0
260868, -1.3532934188842773, 1.2999531030654907, -1.8654645681381226, 0.05331483110785484, 0.2817782163619995, 0.0576120987534523, 0.03643922880291939, -1.2474104166030884, 0.016699807718396187, 0.01357528567314148, 0.0006108087254688144, -0.00043704433483071625, 0, 0, 0, 0.0, 0.0, 0.0, 0.0, 0, 0, 0, 0, 0, 0, 0, 0, 0, 0
260878, -1.326526165008545, 1.3092013597488403, -1.865693211555481, -0.07741019874811172, -0.13187499344348907, 0.06463627517223358, 0.03626054525375366, -1.2477225065231323, 0.016606518998742104, 0.011913846246898174, -0.002833570120856166, -0.0011636362178251147, 0, 0, 0, 0.0, 0.0, 0.0, 0.0, 0, 0, 0, 0, 0, 0, 0, 0, 0, 0
260890, -1.3098384141921997, 1.2703346014022827, -1.8676594495773315, -0.1963319033384323, -0.08184096217155457, -0.27939528226852417, 0.03677130118012428, -1.2479393482208252, 0.016492901369929314, 0.016296803951263428, -0.005301568191498518, -0.002040761522948742, 0, 0, 0, 0.0, 0.0, 0.0, 0.0, 0, 0, 0, 0, 0, 0, 0, 0, 0, 0
260898, -1.3753128051757812, 1.1841322183609009, -1.867142677307129, -0.1444355994462967, 0.18070103228092194, -0.0068063922226428986, 0.036859191954135895, -1.2479594945907593, 0.016606900840997696, 0.016467072069644928, -0.005620309617370367, -0.0011437960201874375, 0, 0, 0, 0.0, 0.0, 0.0, 0.0, 0, 0, 0, 0, 0, 0, 0, 0, 0, 0
260908, -1.3537355661392212, 1.2159349918365479, -1.8651262521743774, -0.08786484599113464, -0.0037952852435410023, 0.17847298085689545, 0.037633273750543594, -1.2470200061798096, 0.016519328579306602, 0.022851385176181793, 0.0020900461822748184, -0.00152498297393322, 0, 0, 0, 0.0, 0.0, 0.0, 0.0, 0, 0, 0, 0, 0, 0, 0, 0, 0, 0
260918, -1.348933458328247, 1.2070783376693726, -1.8664782047271729, -0.03516363725066185, -0.103946752846241, 0.13073964416980743, 0.03776570037007332, -1.2470403909683228, 0.016405103728175163, 0.023762986063957214, 0.001310351537540555, -0.0021969699300825596, 0, 0, 0, 0.0, 0.0, 0.0, 0.0, 0, 0, 0, 0, 0, 0, 0, 0, 0, 0
260928, -1.3071801662445068, 1.175062656402588, -1.8662816286087036, -0.07127626985311508, 0.13696084916591644, -0.03141609951853752, 0.038196105509996414, -1.2475132942199707, 0.01624700427055359, 0.027262596413493156, -0.0034576915204524994, -0.003082223469391465, 0, 0, 0, 0.0, 0.0, 0.0, 0.0, 0, 0, 0, 0, 0, 0, 0, 0, 0, 0
260939, -1.3852908611297607, 1.2536859512329102, -1.8646684885025024, -0.05405319109559059, 0.22798793017864227, 0.07935411483049393, 0.03714509308338165, -1.2464580535888672, 0.016137996688485146, 0.01765635423362255, 0.0052788895554840565, -0.0035895342007279396, 0, 0, 0, 0.0, 0.0, 0.0, 0.0, 0, 0, 0, 0, 0, 0, 0, 0, 0, 0
260948, -1.3405612707138062, 1.1840543746948242, -1.8637851476669312, -0.05492492392659187, 0.12236065417528152, 0.23039215803146362, 0.03725628927350044, -1.246414065361023, 0.016079286113381386, 0.01803155057132244, 0.005150303244590759, -0.0036232364363968372, 0, 0, 0, 0.0, 0.0, 0.0, 0.0, 0, 0, 0, 0, 0, 0, 0, 0, 0, 0
260958, -1.3379154205322266, 1.23220956325531, -1.8637495040893555, 0.00441090390086174, -0.006815436761826277, -0.18308520317077637, 0.03821248933672905, -1.2470353841781616, 0.01599663496017456, 0.02588597871363163, -0.0005467106238938868, -0.003808491164818406, 0, 0, 0, 0.0, 0.0, 0.0, 0.0, 0, 0, 0, 0, 0, 0, 0, 0, 0, 0
260968, -1.3197028636932373, 1.23026704788208, -1.8629783391952515, -0.1062823086977005, 0.10819089412689209, 0.1814512312412262, 0.037535615265369415, -1.2471213340759277, 0.015933023765683174, 0.019969938322901726, -0.0016788715729489923, -0.003956138156354427, 0, 0, 0, 0.0, 0.0, 0.0, 0.0, 0, 0, 0, 0, 0, 0, 0, 0, 0, 0
260978, -1.3175127506256104, 1.2075960636138916, -1.8630539178848267, 0.23431025445461273, -0.3008824586868286, -0.25600236654281616, 0.03786945343017578, -1.2471555471420288, 0.01580636203289032, 0.022855784744024277, -0.0022314994130283594, -0.0048117684200406075, 0, 0, 0, 0.0, 0.0, 0.0, 0.0, 0, 0, 0, 0, 0, 0, 0, 0, 0, 0
260989, -1.321043610572815, 1.2510887384414673, -1.8635811805725098, -0.1114840880036354, -0.42182159423828125, -0.02671322599053383, 0.036285433918237686, -1.2464262247085571, 0.01617632992565632, 0.00892449077218771, 0.0035984946880489588, -0.0026690042577683926, 0, 0, 0, 0.0, 0.0, 0.0, 0.0, 0, 0, 0, 0, 0, 0, 0, 0, 0, 0
260998, -1.3195942640304565, 1.2505913972854614, -1.8610913753509521, 0.06572794169187546, -0.21476618945598602, 0.07760705053806305, 0.03738338127732277, -1.2470219135284424, 0.01612459495663643, 0.018275074660778046, -0.0020924669224768877, -0.002993938745930791, 0, 0, 0, 0.0, 0.0, 0.0, 0.0, 0, 0, 0, 0, 0, 0, 0, 0, 0, 0
261008, -1.3221193552017212, 1.2268370389938354, -1.858974814414978, -0.2819521129131317, 0.4017677307128906, 0.04670572653412819, 0.037203140556812286, -1.2470208406448364, 0.01604565791785717, 0.01676994562149048, -0.002329717157408595, -0.003348889062181115, 0, 0, 0, 0.0, 0.0, 0.0, 0.0, 0, 0, 0, 0, 0, 0, 0, 0, 0, 0
261018, -1.3102680444717407, 1.2276731729507446, -1.8596245050430298, 0.10795033723115921, -0.23953640460968018, -0.21178889274597168, 0.03767763078212738, -1.2470413446426392, 0.015934357419610023, 0.02092370204627514, -0.002737406874075532, -0.003826250322163105, 0, 0, 0, 0.0, 0.0, 0.0, 0.0, 0, 0, 0, 0, 0, 0, 0, 0, 0, 0
261028, -1.3094815015792847, 1.255568504333496, -1.8563151359558105, 0.08610213547945023, 0.4112289547920227, 0.056398581713438034, 0.03724350035190582, -1.2470386028289795, 0.017175523564219475, 0.01731576956808567, -0.0029046775307506323, 0.004208867903798819, 0, 0, 0, 0.0, 0.0, 0.0, 0.0, 0, 0, 0, 0, 0, 0, 0, 0, 0, 0
261039, -1.3188886642456055, 1.2580327987670898, -1.8503854274749756, -0.05236859619617462, -0.010506382212042809, 0.06381350010633469, 0.037199195474386215, -1.246909260749817, 0.017133988440036774, 0.01693923957645893, -0.0018701035296544433, 0.003750046482309699, 0, 0, 0, 0.0, 0.0, 0.0, 0.0, 0, 0, 0, 0, 0, 0, 0, 0, 0, 0
261048, -1.3103301525115967, 1.2599766254425049, -1.8511608839035034, -0.13487352430820465, 0.04117549583315849, -0.062073204666376114, 0.03729315102100372, -1.2469292879104614, 0.017119519412517548, 0.01733228750526905, -0.001960469176992774, 0.00327217485755682, 0, 0, 0, 0.0, 0.0, 0.0, 0.0, 0, 0, 0, 0, 0, 0, 0, 0, 0, 0
261058, -1.2663534879684448, 1.2377504110336304, -1.8501030206680298, -0.07788356393575668, 0.40173661708831787, -0.012833359651267529, 0.03719868138432503, -1.2470604181289673, 0.017033256590366364, 0.016581619158387184, -0.0030708450358361006, 0.0022904262878000736, 0, 0, 0, 0.0, 0.0, 0.0, 0.0, 0, 0, 0, 0, 0, 0, 0, 0, 0, 0
261068, -1.2562953233718872, 1.2372550964355469, -1.8495761156082153, 0.09847137331962585, -0.050706811249256134, 0.04537957161664963, 0.037414927035570145, -1.2475603818893433, 0.016924582421779633, 0.018534649163484573, -0.007340161595493555, 0.001347698736935854, 0, 0, 0, 0.0, 0.0, 0.0, 0.0, 0, 0, 0, 0, 0, 0, 0, 0, 0, 0
261078, -1.0776808261871338, 1.2240986824035645, -1.8484697341918945, -0.10412287712097168, 0.22437749803066254, 0.09158048033714294, 0.03745178133249283, -1.2499581575393677, 0.016836898401379585, 0.018923940137028694, -0.027681486681103706, 0.0006648353883065283, 0, 0, 0, 0.0, 0.0, 0.0, 0.0, 0, 0, 0, 0, 0, 0, 0, 0, 0, 0
261089, -0.9893329739570618, 1.1440165042877197, -1.8481953144073486, -0.0552312396466732, 0.07839154452085495, 0.2080773413181305, 0.03848408907651901, -1.2511640787124634, 0.016689274460077286, 0.027478821575641632, -0.037362053990364075, -0.00030328970751725137, 0, 0, 0, 0.0, 0.0, 0.0, 0.0, 0, 0, 0, 0, 0, 0, 0, 0, 0, 0
261099, -1.0089983940124512, 1.1794315576553345, -1.848416805267334, 0.031140247359871864, -0.08013365417718887, 0.027391303330659866, 0.03864345699548721, -1.2514952421188354, 0.016606565564870834, 0.02802172675728798, -0.03828626871109009, -0.0009536487050354481, 0, 0, 0, 0.0, 0.0, 0.0, 0.0, 0, 0, 0, 0, 0, 0, 0, 0, 0, 0
261108, -1.0016264915466309, 1.1605947017669678, -1.8463737964630127, 0.020328212529420853, 0.04401875287294388, 0.3416500687599182, 0.038210660219192505, -1.2513779401779175, 0.016584761440753937, 0.02425467222929001, -0.036360498517751694, -0.0012982608750462532, 0, 0, 0, 0.0, 0.0, 0.0, 0.0, 0, 0, 0, 0, 0, 0, 0, 0, 0, 0
261118, -0.9984464049339294, 1.1261608600616455, -1.844811201095581, 0.05632147938013077, 0.10922108590602875, -0.036068253219127655, 0.03886832296848297, -1.25167715549469, 0.01629486307501793, 0.02951144613325596, -0.03797497600317001, -0.0030494132079184055, 0, 0, 0, 0.0, 0.0, 0.0, 0.0, 0, 0, 0, 0, 0, 0, 0, 0, 0, 0
261129, -0.6540215015411377, 1.1293339729309082, -1.845440149307251, -0.021234193816781044, -0.15707027912139893, -0.10921170562505722, 0.038713373243808746, -1.2563104629516602, 0.015917479991912842, 0.027854323387145996, -0.07629306614398956, -0.005587909370660782, 0, 0, 0, 0.0, 0.0, 0.0, 0.0, 0, 0, 0, 0, 0, 0, 0, 0, 0, 0
261138, -0.6918874382972717, 1.164380669593811, -1.8449114561080933, -0.0168453399091959, 0.16849519312381744, -0.001439324114471674, 0.03887033089995384, -1.256820559501648, 0.015840020030736923, 0.0282362699508667, -0.07709216326475143, -0.005589285399764776, 0, 0, 0, 0.0, 0.0, 0.0, 0.0, 0, 0, 0, 0, 0, 0, 0, 0, 0, 0
261148, -0.7205007076263428, 1.1490815877914429, -1.8431366682052612, 0.04722928628325462, -0.11770527809858322, 0.0844179093837738, 0.03860357031226158, -1.2561981678009033, 0.015890643000602722, 0.02589709497988224, -0.06987595558166504, -0.004641921259462833, 0, 0, 0, 0.0, 0.0, 0.0, 0.0, 0, 0, 0, 0, 0, 0, 0, 0, 0, 0
261158, -0.7232473492622375, 1.1215364933013916, -1.843584656715393, -0.14301897585391998, 0.34114378690719604, 0.0936364233493805, 0.03889301419258118, -1.2566176652908325, 0.015712779015302658, 0.028312882408499718, -0.07153509557247162, -0.005366400349885225, 0, 0, 0, 0.0, 0.0, 0.0, 0.0, 0, 0, 0, 0, 0, 0, 0, 0, 0, 0
261169, -0.8786062002182007, 1.0305123329162598, -1.8424205780029297, -0.14632052183151245, 0.1287127435207367, -0.05979037657380104, 0.04019986838102341, -1.254732370376587, 0.015302836894989014, 0.03888815641403198, -0.053603582084178925, -0.007050469983369112, 0, 0, 0, 0.0, 0.0, 0.0, 0.0, 0, 0, 0, 0, 0, 0, 0, 0, 0, 0
261179, -0.9410540461540222, 1.2564157247543335, -1.840211272239685, 0.04165978357195854, 0.03899042308330536, -0.07842696458101273, 0.037263013422489166, -1.2540253400802612, 0.015477444045245647, 0.013664079830050468, -0.04642823711037636, -0.005128857679665089, 0, 0, 0, 0.0, 0.0, 0.0, 0.0, 0, 0, 0, 0, 0, 0, 0, 0, 0, 0
261189, -0.9643440246582031, 1.27226984500885, -1.8400871753692627, 0.14986179769039154, -0.40986815094947815, 0.015216674655675888, 0.03733867034316063, -1.2542849779129028, 0.01542002335190773, 0.014205935411155224, -0.046936772763729095, -0.005086682271212339, 0, 0, 0, 0.0, 0.0, 0.0, 0.0, 0, 0, 0, 0, 0, 0, 0, 0, 0, 0
261200, -0.9638758301734924, 1.271166443824768, -1.837459921836853, -0.0360814668238163, 0.0695643499493599, 0.1947425752878189, 0.03704875707626343, -1.2538714408874512, 0.015346560627222061, 0.012529050000011921, -0.04369446635246277, -0.005070742219686508, 0, 0, 0, 0.0, 0.0, 0.0, 0.0, 0, 0, 0, 0, 0, 0, 0, 0, 0, 0
261208, -0.9678841829299927, 1.2827742099761963, -1.8371660709381104, -0.13438014686107635, 0.06458739191293716, -0.20991180837154388, 0.03709746524691582, -1.2541018724441528, 0.016463356092572212, 0.012794961221516132, -0.043806131929159164, 0.002079867757856846, 0, 0, 0, 0.0, 0.0, 0.0, 0.0, 0, 0, 0, 0, 0, 0, 0, 0, 0, 0
261219, -1.0195646286010742, 1.3129239082336426, -1.8326860666275024, 0.007679011672735214, -0.04977327957749367, 0.24901051819324493, 0.03647517040371895, -1.2533934116363525, 0.016453754156827927, 0.007886659353971481, -0.03699987754225731, 0.0018954103579744697, 0, 0, 0, 0.0, 0.0, 0.0, 0.0, 0, 0, 0, 0, 0, 0, 0, 0, 0, 0
261229, -1.0301411151885986, 1.2791883945465088, -1.8349976539611816, 0.016910966485738754, 0.1786048859357834, -0.09458445012569427, 0.03685864806175232, -1.2532061338424683, 0.016418980434536934, 0.011759568937122822, -0.03505321964621544, 0.0015815934166312218, 0, 0, 0, 0.0, 0.0, 0.0, 0.0, 0, 0, 0, 0, 0, 0, 0, 0, 0, 0
261240, -1.0194412469863892, 1.279155969619751, -1.834732174873352, -0.2065412700176239, 0.30673956871032715, 0.16647933423519135, 0.03686825931072235, -1.2534209489822388, 0.016367390751838684, 0.011872958391904831, -0.035355255007743835, 0.0013710868079215288, 0, 0, 0, 0.0, 0.0, 0.0, 0.0, 0, 0, 0, 0, 0, 0, 0, 0, 0, 0
261248, -1.0584919452667236, 1.2793834209442139, -1.8340873718261719, -0.012462181970477104, 0.015321982093155384, 0.07545893639326096, 0.03675394877791405, -1.2536948919296265, 0.016275722533464432, 0.011199559085071087, -0.037116363644599915, 0.0009463699534535408, 0, 0, 0, 0.0, 0.0, 0.0, 0.0, 0, 0, 0, 0, 0, 0, 0, 0, 0, 0
261258, -1.0897775888442993, 1.2861367464065552, -1.8320223093032837, 0.05607779696583748, -0.03405224159359932, 0.018029168248176575, 0.03587742894887924, -1.2525503635406494, 0.016209974884986877, 0.0036333431489765644, -0.026564307510852814, 0.0007185327704064548, 0, 0, 0, 0.0, 0.0, 0.0, 0.0, 0, 0, 0, 0, 0, 0, 0, 0, 0, 0
261268, -1.082943081855774, 1.2864975929260254, -1.8332663774490356, -0.060937318950891495, -0.14291304349899292, 0.1315959095954895, 0.0366121307015419, -1.2527722120285034, 0.016167020425200462, 0.010840331204235554, -0.028324853628873825, 0.00048476600204594433, 0, 0, 0, 0.0, 0.0, 0.0, 0.0, 0, 0, 0, 0, 0, 0, 0, 0, 0, 0
261280, -1.098646640777588, 1.3107020854949951, -1.8322913646697998, -0.13095174729824066, 0.1763419508934021, 0.1408279687166214, 0.03620011359453201, -1.2526463270187378, 0.016099704429507256, 0.007731000892817974, -0.026905857026576996, 0.00017858219507616013, 0, 0, 0, 0.0, 0.0, 0.0, 0.0, 0, 0, 0, 0, 0, 0, 0, 0, 0, 0
261290, -1.1117712259292603, 1.2835737466812134, -1.8324788808822632, -0.08792812377214432, -0.13691657781600952, 0.07606788724660873, 0.036114420741796494, -1.2525097131729126, 0.01603655330836773, 0.007475489284843206, -0.026564115658402443, -0.00021750594896730036, 0, 0, 0, 0.0, 0.0, 0.0, 0.0, 0, 0, 0, 0, 0, 0, 0, 0, 0, 0
261298, -0.6301925182342529, 1.1204581260681152, -1.8390251398086548, 0.1083519458770752, 0.15925179421901703, 0.0768197700381279, 0.03641275316476822, -1.2524051666259766, 0.01630639098584652, 0.010458678007125854, -0.025914723053574562, 0.0016023943899199367, 0, 0, 0, 0.0, 0.0, 0.0, 0.0, 0, 0, 0, 0, 0, 0, 0, 0, 0, 0
261308, -0.640423595905304, 1.115059733390808, -1.8377186059951782, 0.14361436665058136, 0.3512413799762726, 0.14202304184436798, 0.03835347294807434, -1.2590649127960205, 0.015994403511285782, 0.02876335382461548, -0.08781737089157104, -0.0009525545756332576, 0, 0, 0, 0.0, 0.0, 0.0, 0.0, 0, 0, 0, 0, 0, 0, 0, 0, 0, 0
261318, -0.6869389414787292, 1.1482656002044678, -1.8378106355667114, -0.09333661943674088, -0.020129365846514702, 0.08299899846315384, 0.038099490106105804, -1.2592339515686035, 0.01601709984242916, 0.025011096149683, -0.08253372460603714, -0.00017626136832404882, 0, 0, 0, 0.0, 0.0, 0.0, 0.0, 0, 0, 0, 0, 0, 0, 0, 0, 0, 0
261330, -0.708365797996521, 1.1544185876846313, -1.8380622863769531, -0.004854459781199694, -0.0361817441880703, 0.1539609581232071, 0.03786323592066765, -1.258793830871582, 0.01601426862180233, 0.02344002202153206, -0.08042677491903305, -0.00013624898565467447, 0, 0, 0, 0.0, 0.0, 0.0, 0.0, 0, 0, 0, 0, 0, 0, 0, 0, 0, 0
261339, -0.7462225556373596, 1.1087374687194824, -1.8402321338653564, -0.0029975075740367174, -0.22243528068065643, 0.09281979501247406, 0.03799668326973915, -1.2592493295669556, 0.015974441543221474, 0.02378229610621929, -0.08076319098472595, -0.00027822324773296714, 0, 0, 0, 0.0, 0.0, 0.0, 0.0, 0, 0, 0, 0, 0, 0, 0, 0, 0, 0
261350, -0.7602586150169373, 1.1076278686523438, -1.8402348756790161, 0.1951972395181656, 0.1709817349910736, -0.020322004333138466, 0.03872275725007057, -1.259135365486145, 0.016611970961093903, 0.03000105544924736, -0.07699842005968094, 0.004198628943413496, 0, 0, 0, 0.0, 0.0, 0.0, 0.0, 0, 0, 0, 0, 0, 0, 0, 0, 0, 0
261358, -0.7975042462348938, 1.1342540979385376, -1.8397749662399292, -0.24981404840946198, -0.04760463908314705, 0.026747018098831177, 0.03877986595034599, -1.2592103481292725, 0.016569659113883972, 0.030211545526981354, -0.0757998451590538, 0.0038680164143443108, 0, 0, 0, 0.0, 0.0, 0.0, 0.0, 0, 0, 0, 0, 0, 0, 0, 0, 0, 0
261369, -0.8419884443283081, 1.1309148073196411, -1.841246247291565, -0.05894887074828148, -0.10662593692541122, -0.04750291630625725, 0.03846331313252449, -1.2583601474761963, 0.016629550606012344, 0.027194427326321602, -0.06634673476219177, 0.004130407702177763, 0, 0, 0, 0.0, 0.0, 0.0, 0.0, 0, 0, 0, 0, 0, 0, 0, 0, 0, 0
261379, -0.8667770624160767, 1.1392080783843994, -1.8430191278457642, -0.005318866111338139, 0.0314209908246994, -0.017669599503278732, 0.03836566209793091, -1.2582011222839355, 0.016616808250546455, 0.0258320402354002, -0.06379631161689758, 0.0038454411551356316, 0, 0, 0, 0.0, 0.0, 0.0, 0.0, 0, 0, 0, 0, 0, 0, 0, 0, 0, 0
261390, -0.8796491622924805, 1.1362996101379395, -1.8435481786727905, -0.12384238839149475, 0.03520481288433075, -0.1282234489917755, 0.03839264437556267, -1.2581843137741089, 0.017004750669002533, 0.025679538026452065, -0.06263047456741333, 0.006333428900688887, 0, 0, 0, 0.0, 0.0, 0.0, 0.0, 0, 0, 0, 0, 0, 0, 0, 0, 0, 0
261398, -0.9513051509857178, 1.1468298435211182, -1.8455880880355835, 0.24669471383094788, -0.06087978556752205, -0.055614013224840164, 0.038533344864845276, -1.2584712505340576, 0.017018893733620644, 0.02595619112253189, -0.06255875527858734, 0.006027978844940662, 0, 0, 0, 0.0, 0.0, 0.0, 0.0, 0, 0, 0, 0, 0, 0, 0, 0, 0, 0
261408, -0.9771926403045654, 1.213526964187622, -1.8425647020339966, -0.05082973092794418, -0.09164067357778549, 0.18516568839550018, 0.037509918212890625, -1.2574247121810913, 0.017129315063357353, 0.0155950291082263, -0.050214607268571854, 0.005915352609008551, 0, 0, 0, 0.0, 0.0, 0.0, 0.0, 0, 0, 0, 0, 0, 0, 0, 0, 0, 0
261418, -0.9982073307037354, 1.2075859308242798, -1.843171238899231, 0.1816006600856781, -0.03243710473179817, 0.04075763374567032, 0.03740426152944565, -1.257003903388977, 0.01704021729528904, 0.015390575863420963, -0.04795914515852928, 0.005344315432012081, 0, 0, 0, 0.0, 0.0, 0.0, 0.0, 0, 0, 0, 0, 0, 0, 0, 0, 0, 0
261429, -1.0171115398406982, 1.193918228149414, -1.8432931900024414, -0.19750282168388367, -0.16647830605506897, 0.045763544738292694, 0.03751792013645172, -1.2567518949508667, 0.016966113820672035, 0.016799267381429672, -0.045586515218019485, 0.004367820918560028, 0, 0, 0, 0.0, 0.0, 0.0, 0.0, 0, 0, 0, 0, 0, 0, 0, 0, 0, 0
261438, -1.030206561088562, 1.2381879091262817, -1.8441354036331177, -0.02524973452091217, -0.5073360204696655, 0.02625894360244274, 0.03680606931447983, -1.2565003633499146, 0.01757843792438507, 0.010491710156202316, -0.04328720644116402, 0.00804675929248333, 0, 0, 0, 0.0, 0.0, 0.0, 0.0, 0, 0, 0, 0, 0, 0, 0, 0, 0, 0
261448, -1.063068151473999, 1.198374629020691, -1.8435710668563843, -0.023016536608338356, 0.3208842873573303, 0.19115154445171356, 0.03686749190092087, -1.2566332817077637, 0.017612265422940254, 0.010977464728057384, -0.043103788048028946, 0.007547663990408182, 0, 0, 0, 0.0, 0.0, 0.0, 0.0, 0, 0, 0, 0, 0, 0, 0, 0, 0, 0
261458, -1.1121304035186768, 1.2259085178375244, -1.8421292304992676, -0.10707902163267136, -0.07707590609788895, 0.011874128133058548, 0.03695231303572655, -1.255570888519287, 0.0175935048609972, 0.012133484706282616, -0.033322542905807495, 0.006987396162003279, 0, 0, 0, 0.0, 0.0, 0.0, 0.0, 0, 0, 0, 0, 0, 0, 0, 0, 0, 0
261468, -1.0911797285079956, 1.1876145601272583, -1.8427326679229736, -0.04214385896921158, 0.019926823675632477, 0.10783892124891281, 0.03743018954992294, -1.255877137184143, 0.017491724342107773, 0.017111003398895264, -0.036459073424339294, 0.005788045935332775, 0, 0, 0, 0.0, 0.0, 0.0, 0.0, 0, 0, 0, 0, 0, 0, 0, 0, 0, 0
261479, -1.109021782875061, 1.1777328252792358, -1.8424859046936035, 0.019089389592409134, -0.3520183563232422, 0.13147614896297455, 0.037567563354969025, -1.2555114030838013, 0.017595306038856506, 0.01849689707159996, -0.03360648825764656, 0.006127859931439161, 0, 0, 0, 0.0, 0.0, 0.0, 0.0, 0, 0, 0, 0, 0, 0, 0, 0, 0, 0
261490, -1.1412372589111328, 1.1815117597579956, -1.8405437469482422, -0.11288551986217499, 0.22871005535125732, 0.22744901478290558, 0.03747418895363808, -1.2549399137496948, 0.017550144344568253, 0.01780908927321434, -0.028773047029972076, 0.005726692732423544, 0, 0, 0, 0.0, 0.0, 0.0, 0.0, 0, 0, 0, 0, 0, 0, 0, 0, 0, 0
261498, -1.1635373830795288, 1.2110774517059326, -1.8387165069580078, -0.26134204864501953, -0.20633356273174286, 0.10699525475502014, 0.03756256401538849, -1.2549922466278076, 0.01753767766058445, 0.01825948804616928, -0.028441574424505234, 0.005456855054944754, 0, 0, 0, 0.0, 0.0, 0.0, 0.0, 0, 0, 0, 0, 0, 0, 0, 0, 0, 0
261509, -1.163649082183838, 1.2115015983581543, -1.834992527961731, -0.1424380987882614, -0.05445413663983345, 0.22470159828662872, 0.03711280599236488, -1.254518985748291, 0.017472868785262108, 0.01447767298668623, -0.024823898449540138, 0.0045565105974674225, 0, 0, 0, 0.0, 0.0, 0.0, 0.0, 0, 0, 0, 0, 0, 0, 0, 0, 0, 0
261518, -1.1546194553375244, 1.1866945028305054, -1.8345402479171753, -0.17042165994644165, 0.09933482110500336, 0.10218172520399094, 0.03733805567026138, -1.254582405090332, 0.017330268397927284, 0.016956128180027008, -0.0260482020676136, 0.0033922470174729824, 0, 0, 0, 0.0, 0.0, 0.0, 0.0, 0, 0, 0, 0, 0, 0, 0, 0, 0, 0
261529, -0.9529366493225098, 1.1920453310012817, -1.8332990407943726, -0.05232750251889229, -0.011790293268859386, 0.18166138231754303, 0.037170346826314926, -1.2573069334030151, 0.017429139465093613, 0.015368147753179073, -0.05085928365588188, 0.003664450952783227, 0, 0, 0, 0.0, 0.0, 0.0, 0.0, 0, 0, 0, 0, 0, 0, 0, 0, 0, 0
261538, -1.0997350215911865, 1.14519464969635, -1.8369981050491333, -0.12176234275102615, -0.037669211626052856, -0.17883802950382233, 0.03719151020050049, -1.257537603378296, 0.01737337000668049, 0.015574969351291656, -0.05111503601074219, 0.003064933232963085, 0, 0, 0, 0.0, 0.0, 0.0, 0.0, 0, 0, 0, 0, 0, 0, 0, 0, 0, 0
261548, -1.134421467781067, 1.1750496625900269, -1.8358826637268066, -0.07272998243570328, 0.14810585975646973, -0.017321079969406128, 0.03788726404309273, -1.255428671836853, 0.017426511272788048, 0.021594000980257988, -0.03325124457478523, 0.003368221689015627, 0, 0, 0, 0.0, 0.0, 0.0, 0.0, 0, 0, 0, 0, 0, 0, 0, 0, 0, 0
261558, -1.1421860456466675, 1.1212533712387085, -1.8385931253433228, 0.03420598804950714, 0.13440877199172974, -0.15980111062526703, 0.03813241049647331, -1.2548086643218994, 0.01734090968966484, 0.023801283910870552, -0.02843269519507885, 0.0024962727911770344, 0, 0, 0, 0.0, 0.0, 0.0, 0.0, 0, 0, 0, 0, 0, 0, 0, 0, 0, 0
261568, -1.177567958831787, 1.1868644952774048, -1.8333038091659546, -0.0585368312895298, 0.055716924369335175, 0.12256760895252228, 0.038177862763404846, -1.2546312808990479, 0.01723257265985012, 0.02406352199614048, -0.02748473733663559, 0.0017709058010950685, 0, 0, 0, 0.0, 0.0, 0.0, 0.0, 0, 0, 0, 0, 0, 0, 0, 0, 0, 0
261578, -1.1705543994903564, 1.167422890663147, -1.8306946754455566, 0.08878083527088165, -0.1986590176820755, 0.02905292622745037, 0.03744598478078842, -1.2540682554244995, 0.01642957143485546, 0.018210820853710175, -0.023330921307206154, -0.0031603961251676083, 0, 0, 0, 0.0, 0.0, 0.0, 0.0, 0, 0, 0, 0, 0, 0, 0, 0, 0, 0
261588, -1.1825220584869385, 1.2046717405319214, -1.8309597969055176, -0.042310625314712524, 0.09505297243595123, -0.05263008177280426, 0.03757095709443092, -1.2540558576583862, 0.016379209235310555, 0.018593329936265945, -0.023044785484671593, -0.0032620010897517204, 0, 0, 0, 0.0, 0.0, 0.0, 0.0, 0, 0, 0, 0, 0, 0, 0, 0, 0, 0
261598, -1.1921308040618896, 1.1995795965194702, -1.8268259763717651, -0.1642763465642929, 0.06730013340711594, 0.0949016585946083, 0.036962416023015976, -1.2537705898284912, 0.016266347840428352, 0.013801527209579945, -0.021377865225076675, -0.003799151862040162, 0, 0, 0, 0.0, 0.0, 0.0, 0.0, 0, 0, 0, 0, 0, 0, 0, 0, 0, 0
261608, -1.206645131111145, 1.1584219932556152, -1.8291484117507935, -0.04249653220176697, 0.08305381238460541, 0.05805422365665436, 0.03747228905558586, -1.2534784078598022, 0.016152342781424522, 0.018549719825387, -0.019688241183757782, -0.004158901050686836, 0, 0, 0, 0.0, 0.0, 0.0, 0.0, 0, 0, 0, 0, 0, 0, 0, 0, 0, 0
261618, -1.2060068845748901, 1.1586607694625854, -1.8279094696044922, -0.029208948835730553, -0.17879930138587952, 0.039004821330308914, 0.03750145062804222, -1.2532882690429688, 0.01603538915514946, 0.01896078884601593, -0.01891603320837021, -0.004523651208728552, 0, 0, 0, 0.0, 0.0, 0.0, 0.0, 0, 0, 0, 0, 0, 0, 0, 0, 0, 0
261628, -1.2079799175262451, 1.2089885473251343, -1.8251397609710693, -0.09576775133609772, 0.007888192310929298, 0.08080343902111053, 0.036795295774936676, -1.2530934810638428, 0.015963787212967873, 0.013097943738102913, -0.018218206241726875, -0.00468378746882081, 0, 0, 0, 0.0, 0.0, 0.0, 0.0, 0, 0, 0, 0, 0, 0, 0, 0, 0, 0
261638, -1.220106840133667, 1.21138334274292, -1.8257761001586914, 0.190708190202713, -0.04701167717576027, 0.022455068305134773, 0.0366625040769577, -1.2527331113815308, 0.015832655131816864, 0.01259261928498745, -0.016049345955252647, -0.005207765381783247, 0, 0, 0, 0.0, 0.0, 0.0, 0.0, 0, 0, 0, 0, 0, 0, 0, 0, 0, 0
261648, -1.2159308195114136, 1.216903567314148, -1.8229836225509644, 0.05366186052560806, -0.14166122674942017, -0.01568438485264778, 0.036659106612205505, -1.2527379989624023, 0.015768062323331833, 0.012457209639251232, -0.016130227595567703, -0.005416803527623415, 0, 0, 0, 0.0, 0.0, 0.0, 0.0, 0, 0, 0, 0, 0, 0, 0, 0, 0, 0
261658, -1.254760503768921, 1.219812035560608, -1.8208473920822144, 0.19575808942317963, 0.2180197685956955, -0.035647664219141006, 0.036626849323511124, -1.2519848346710205, 0.015797708183526993, 0.012240441516041756, -0.010701394639909267, -0.0051779597997665405, 0, 0, 0, 0.0, 0.0, 0.0, 0.0, 0, 0, 0, 0, 0, 0, 0, 0, 0, 0
261668, -1.3097517490386963, 1.101838231086731, -1.8206720352172852, 0.07049062103033066, -0.03291890770196915, 0.2736104726791382, 0.03817932307720184, -1.2511259317398071, 0.015663884580135345, 0.025790784507989883, -0.004361188504844904, -0.0059550912119448185, 0, 0, 0, 0.0, 0.0, 0.0, 0.0, 0, 0, 0, 0, 0, 0, 0, 0, 0, 0
261678, -1.308721661567688, 1.2246997356414795, -1.816333532333374, 0.14157283306121826, -0.3389131426811218, -0.13880310952663422, 0.03659452870488167, -1.2508517503738403, 0.01565524749457836, 0.012104774825274944, -0.003284129314124584, -0.00572954909875989, 0, 0, 0, 0.0, 0.0, 0.0, 0.0, 0, 0, 0, 0, 0, 0, 0, 0, 0, 0
261688, -1.2996994256973267, 1.222902774810791, -1.8160253763198853, 0.10107283294200897, 0.21948803961277008, -0.04051373526453972, 0.036549486219882965, -1.2506922483444214, 0.015538032166659832, 0.012122854590415955, -0.003260389668866992, -0.0062390840612351894, 0, 0, 0, 0.0, 0.0, 0.0, 0.0, 0, 0, 0, 0, 0, 0, 0, 0, 0, 0
261698, -1.3365567922592163, 1.2720848321914673, -1.8120646476745605, -0.1353708654642105, -0.14048677682876587, -0.11019832640886307, 0.03596249967813492, -1.250080943107605, 0.015474602580070496, 0.006938680540770292, 0.0012103309854865074, -0.006323596462607384, 0, 0, 0, 0.0, 0.0, 0.0, 0.0, 0, 0, 0, 0, 0, 0, 0, 0, 0, 0
261708, -1.2116854190826416, 1.1479933261871338, -1.8142892122268677, -0.04323903098702431, 0.24169722199440002, -0.10213247686624527, 0.0375191792845726, -1.2515968084335327, 0.016882069408893585, 0.02047206088900566, -0.012803290970623493, 0.002644731430336833, 0, 0, 0, 0.0, 0.0, 0.0, 0.0, 0, 0, 0, 0, 0, 0, 0, 0, 0, 0
261718, -1.29364812374115, 1.2672232389450073, -1.8077400922775269, -0.07147154957056046, 0.23563742637634277, -0.08097457885742188, 0.03595748171210289, -1.2502914667129517, 0.016884714365005493, 0.007554769981652498, -0.00269018835388124, 0.0025939883198589087, 0, 0, 0, 0.0, 0.0, 0.0, 0.0, 0, 0, 0, 0, 0, 0, 0, 0, 0, 0
261728, -1.2933820486068726, 1.242034912109375, -1.8060485124588013, -0.07505405694246292, 0.23856718838214874, -0.033854927867650986, 0.036261044442653656, -1.2501169443130493, 0.016828805208206177, 0.010510080493986607, -0.0025304334703832865, 0.002195245586335659, 0, 0, 0, 0.0, 0.0, 0.0, 0.0, 0, 0, 0, 0, 0, 0, 0, 0, 0, 0
261738, -1.2926280498504639, 1.2419195175170898, -1.8038837909698486, -0.0819893628358841, -0.07285112887620926, -0.19560231268405914, 0.03625401854515076, -1.249966025352478, 0.016743285581469536, 0.010721413418650627, -0.00245643244124949, 0.0016357721760869026, 0, 0, 0, 0.0, 0.0, 0.0, 0.0, 0, 0, 0, 0, 0, 0, 0, 0, 0, 0
261748, -1.3109022378921509, 1.2719424962997437, -1.8005224466323853, -0.11181730031967163, -0.02499508298933506, 0.057694341987371445, 0.03589135780930519, -1.2496401071548462, 0.015581149607896805, 0.007680171635001898, -0.00023710198001936078, -0.005563799757510424, 0, 0, 0, 0.0, 0.0, 0.0, 0.0, 0, 0, 0, 0, 0, 0, 0, 0, 0, 0
261758, -1.2820501327514648, 1.2485527992248535, -1.8006887435913086, 0.0609622560441494, -0.1803649365901947, -0.15771590173244476, 0.03618711978197098, -1.249854564666748, 0.01550669688731432, 0.010382204316556454, -0.0030026899185031652, -0.005767764989286661, 0, 0, 0, 0.0, 0.0, 0.0, 0.0, 0, 0, 0, 0, 0, 0, 0, 0, 0, 0
261768, -1.3168779611587524, 1.279173493385315, -1.797593593597412, -0.05017625167965889, -0.001810873975045979, 0.05417540669441223, 0.03579708933830261, -1.249218463897705, 0.0154274245724082, 0.007211912889033556, 0.0012501799501478672, -0.005844480358064175, 0, 0, 0, 0.0, 0.0, 0.0, 0.0, 0, 0, 0, 0, 0, 0, 0, 0, 0, 0
261779, -1.2989083528518677, 1.26886785030365, -1.7979291677474976, 0.006240391172468662, -0.11222867667675018, -0.14752843976020813, 0.0358612947165966, -1.2493171691894531, 0.015354069881141186, 0.008043905720114708, -0.000886029505636543, -0.005758726503700018, 0, 0, 0, 0.0, 0.0, 0.0, 0.0, 0, 0, 0, 0, 0, 0, 0, 0, 0, 0
261788, -1.2893285751342773, 1.2587345838546753, -1.7979950904846191, -0.04354368522763252, 0.060625024139881134, -0.07527594268321991, 0.035895366221666336, -1.2492600679397583, 0.015282190404832363, 0.008518306538462639, -0.001135082682594657, -0.005748767405748367, 0, 0, 0, 0.0, 0.0, 0.0, 0.0, 0, 0, 0, 0, 0, 0, 0, 0, 0, 0
261798, -1.3319193124771118, 1.2187981605529785, -1.7967727184295654, -0.020455509424209595, -0.06140068918466568, -0.030198082327842712, 0.03650546818971634, -1.2486876249313354, 0.01575983501970768, 0.014092161320149899, 0.002733806148171425, -0.002402924234047532, 0, 0, 0, 0.0, 0.0, 0.0, 0.0, 0, 0, 0, 0, 0, 0, 0, 0, 0, 0
261808, -1.311783790588379, 1.2497477531433105, -1.7952687740325928, 0.11935535818338394, -0.05000479519367218, -0.019307224079966545, 0.03609123453497887, -1.2487941980361938, 0.015712125226855278, 0.010786467231810093, 0.0005917095113545656, -0.0024937274865806103, 0, 0, 0, 0.0, 0.0, 0.0, 0.0, 0, 0, 0, 0, 0, 0, 0, 0, 0, 0
261819, -1.302910566329956, 1.2506897449493408, -1.7935501337051392, -0.12548480927944183, 0.30232012271881104, 0.04440940544009209, 0.036042314022779465, -1.2488008737564087, 0.015658531337976456, 0.010572835803031921, -0.000591475807595998, -0.0027234749868512154, 0, 0, 0, 0.0, 0.0, 0.0, 0.0, 0, 0, 0, 0, 0, 0, 0, 0, 0, 0
261829, -1.2596588134765625, 1.2241050004959106, -1.7946336269378662, -0.013462983071804047, 0.21596385538578033, 0.10193602740764618, 0.03632589057087898, -1.2492657899856567, 0.015596919693052769, 0.013139896094799042, -0.005523933097720146, -0.002955546835437417, 0, 0, 0, 0.0, 0.0, 0.0, 0.0, 0, 0, 0, 0, 0, 0, 0, 0, 0, 0
261839, -1.2617450952529907, 1.224182367324829, -1.7952752113342285, -0.22452813386917114, 0.14280548691749573, -0.11458338797092438, 0.036401186138391495, -1.2492551803588867, 0.015550551936030388, 0.013753143139183521, -0.005790336988866329, -0.003106657648459077, 0, 0, 0, 0.0, 0.0, 0.0, 0.0, 0, 0, 0, 0, 0, 0, 0, 0, 0, 0
261848, -1.2747459411621094, 1.2573643922805786, -1.794760823249817, -0.13656561076641083, -0.27943623065948486, -0.13471108675003052, 0.03630908206105232, -1.2490723133087158, 0.01560917217284441, 0.013301175087690353, -0.00507754972204566, -0.002499521942809224, 0, 0, 0, 0.0, 0.0, 0.0, 0.0, 0, 0, 0, 0, 0, 0, 0, 0, 0, 0
261858, -1.2768914699554443, 1.2276289463043213, -1.795619249343872, -0.04412310570478439, -0.17975881695747375, -0.035863447934389114, 0.03622403368353844, -1.2487099170684814, 0.0155763179063797, 0.012731995433568954, -0.0026861459482461214, -0.00254400004632771, 0, 0, 0, 0.0, 0.0, 0.0, 0.0, 0, 0, 0, 0, 0, 0, 0, 0, 0, 0
261868, -1.2775226831436157, 1.256548285484314, -1.7931807041168213, -0.06158483400940895, 0.04747752845287323, 0.043092064559459686, 0.03578375279903412, -1.2486655712127686, 0.015475493855774403, 0.009288719855248928, -0.0028760579880326986, -0.0030736830085515976, 0, 0, 0, 0.0, 0.0, 0.0, 0.0, 0, 0, 0, 0, 0, 0, 0, 0, 0, 0
261879, -1.269192099571228, 1.254800796508789, -1.7928886413574219, -0.03015276789665222, -0.00015279793296940625, -0.008992158807814121, 0.03579346463084221, -1.2486591339111328, 0.015446317382156849, 0.009384898468852043, -0.0036469949409365654, -0.003098056884482503, 0, 0, 0, 0.0, 0.0, 0.0, 0.0, 0, 0, 0, 0, 0, 0, 0, 0, 0, 0
261888, -1.2982219457626343, 1.2929060459136963, -1.7929458618164062, 0.16659453511238098, 0.11615432798862457, 0.06990500539541245, 0.035825859755277634, -1.2486859560012817, 0.015549215488135815, 0.009894602000713348, -0.004458690527826548, -0.0022483409848064184, 0, 0, 0, 0.0, 0.0, 0.0, 0.0, 0, 0, 0, 0, 0, 0, 0, 0, 0, 0
