timeTick, roll, pitch, yaw, gyroX, gyroY, gyroZ, stateX, stateY, stateZ, stateVX, stateVY, stateVZ, stateROLL, statePITCH, stateYAW, whisker1, whisker2, whisker3, motor1, motor2, motor3, motor4, laserHeight, flowX, flowY, ext_pos_X,ext_pos_Y,ext_pos_Z, kalX, kalY, kalZ, kalPX, kalPY, kalPZ
127931, 1.3312801122665405, -2.84479022026062, -0.08859007805585861, 0, 0, 0, 0, 0, 0, 0, 0, 0, 0, 0, 0, 0, 0, 0, 0, 0, 0, 0, 0, 0, 0, 0, 0, 0, 0, 0, 0, 0, 0, 0
127942, 1.7473301887512207, -3.823504686355591, -6.310327529907227, -0.24821218848228455, 0.059829771518707275, -0.2359486073255539, 0, 0, 0, 0, 0, 0, 0, 0, 0, 0, 0, 0, 0.0, 0.0, 0.0, 0.0, 7.0, 6.0, 4.0, 0, 0, 0, 0, 0, 0, 0, 0, 0
127951, 1.9140626192092896, -3.936330795288086, -6.902559757232666, 0.06289856135845184, 0.33980828523635864, -0.0974830687046051, 0, 0, 0, 0, 0, 0, 0, 0, 0, 0, 0, 0, 0.0, 0.0, 0.0, 0.0, 7.0, -16.0, -3.0, 0.0, 0.0, 0.0, -0.046535152941942215, -0.2977258563041687, 0.011913507245481014, 0.023780671879649162, -0.020739449188113213, -0.008992942050099373
127961, 2.1851251125335693, -3.8783369064331055, -7.1734185218811035, -0.006530050653964281, 0.0682697668671608, 0.02775038219988346, 0, 0, 0, 0, 0, 0, 0, 0, 0, 0, 0, 0, 0.0, 0.0, 0.0, 0.0, 7.0, 5.0, 2.0, 0.0, 0.0, 0.0, -0.04638294130563736, -0.29700255393981934, 0.012237008661031723, 0.030756451189517975, -0.013162790797650814, -0.006556815933436155
127971, 2.354438543319702, -4.0408148765563965, -7.142652988433838, 0.0645245909690857, 0.28297847509384155, -0.08664092421531677, 0, 0, 0, 0, 0, 0, 0, 0, 0, 0, 0, 0, 0.0, 0.0, 0.0, 0.0, 7.0, -4.0, 5.0, 0.0, 0.0, 0.0, -0.046304091811180115, -0.2971869707107544, 0.012317381799221039, 0.028606582432985306, -0.022075725719332695, -0.005540323909372091
127981, 2.301137924194336, -4.041179656982422, -7.167264461517334, 0.0018738270737230778, -0.039250537753105164, -0.06275775283575058, 0, 0, 0, 0, 0, 0, 0, 0, 0, 0, 0, 0, 0.0, 0.0, 0.0, 0.0, 18.0, -1.0, -4.0, 0.0, 0.0, 0.0, -0.046205416321754456, -0.29705631732940674, 0.012650400400161743, 0.029063738882541656, -0.024341396987438202, -0.002981324214488268
127991, 2.435359001159668, -4.0688982009887695, -7.191254138946533, -0.05552418902516365, -0.08061392605304718, -0.17149323225021362, 0, 0, 0, 0, 0, 0, 0, 0, 0, 0, 0, 0, 0.0, 0.0, 0.0, 0.0, 18.0, 8.0, -3.0, 0.0, 0.0, 0.0, -0.04615531489253044, -0.2971874177455902, 0.014661205932497978, 0.03343065455555916, -0.02234630100429058, 0.008374478667974472
128001, 2.4457175731658936, -4.063188076019287, -7.195077896118164, -0.11845238506793976, 0.23257724940776825, 0.010706440545618534, 0, 0, 0, 0, 0, 0, 0, 0, 0, 0, 0, 0, 0.0, 0.0, 0.0, 0.0, 18.0, -7.0, 6.0, 0.0, 0.0, 0.0, -0.0459657646715641, -0.2976243495941162, 0.014798427000641823, 0.0372624471783638, -0.033613938838243484, 0.009500451385974884
128011, 2.4655656814575195, -4.179483413696289, -7.140372276306152, -0.060118675231933594, -0.256738543510437, -0.03730446845293045, 0, 0, 0, 0, 0, 0, 0, 0, 0, 0, 0, 0, 0.0, 0.0, 0.0, 0.0, 18.0, 8.0, 1.0, 0.0, 0.0, 0.0, -0.04607478901743889, -0.2974703311920166, 0.015180512331426144, 0.032833825796842575, -0.027916928753256798, 0.011207343079149723
128021, 2.5102524757385254, -4.27057409286499, -7.074024677276611, -0.02838311344385147, 0.20373861491680145, -0.07117356359958649, 0, 0, 0, 0, 0, 0, 0, 0, 0, 0, 0, 0, 0.0, 0.0, 0.0, 0.0, 18.0, 0.0, -8.0, 0.0, 0.0, 0.0, -0.045778416097164154, -0.2977364957332611, 0.015312517993152142, 0.03628181666135788, -0.036168284714221954, 0.012096819467842579
128031, 2.5515217781066895, -4.190914154052734, -7.188982009887695, -0.015135249122977257, 0.09999771416187286, -0.11349385976791382, 0, 0, 0, 0, 0, 0, 0, 0, 0, 0, 0, 0, 0.0, 0.0, 0.0, 0.0, 8.0, 4.0, 5.0, 0.0, 0.0, 0.0, -0.045460548251867294, -0.2979496121406555, 0.013076454401016235, 0.04356136545538902, -0.03718211501836777, -0.0011329863918945193
128041, 2.576347827911377, -4.188035488128662, -7.182069778442383, 0.0322185717523098, 0.23808293044567108, 0.0118799963966012, 0, 0, 0, 0, 0, 0, 0, 0, 0, 0, 0, 0, 0.0, 0.0, 0.0, 0.0, 8.0, -10.0, 0.0, 0.0, 0.0, 0.0, -0.045523859560489655, -0.29840287566185, 0.013176405802369118, 0.038793157786130905, -0.0420876145362854, -0.00010572344035608694
128052, 2.5780277252197266, -4.196898937225342, -7.145761013031006, 0.09249558299779892, -0.3385833203792572, 0.15328413248062134, 0, 0, 0, 0, 0, 0, 0, 0, 0, 0, 0, 0, 0.0, 0.0, 0.0, 0.0, 8.0, 5.0, -1.0, 0.0, 0.0, 0.0, -0.04537148401141167, -0.29812246561050415, 0.013484245166182518, 0.039066459983587265, -0.03404556214809418, 0.0018097797874361277
128061, 2.567744493484497, -4.229540824890137, -7.1632208824157715, 0.15798068046569824, -0.02894945815205574, 0.032167140394449234, 0, 0, 0, 0, 0, 0, 0, 0, 0, 0, 0, 0, 0.0, 0.0, 0.0, 0.0, 8.0, -7.0, 4.0, 0.0, 0.0, 0.0, -0.04526181519031525, -0.2985902428627014, 0.013644513674080372, 0.040522437542676926, -0.03934068605303764, 0.003244532737880945
128071, 2.568192958831787, -4.223611831665039, -7.1756134033203125, 0.19728749990463257, -0.05108053982257843, -0.05224143713712692, 0, 0, 0, 0, 0, 0, 0, 0, 0, 0, 0, 0, 0.0, 0.0, 0.0, 0.0, 23.0, -1.0, -8.0, 0.0, 0.0, 0.0, -0.045266635715961456, -0.2982726991176605, 0.014000145718455315, 0.03741706535220146, -0.03350495174527168, 0.005297910422086716
128081, 2.5919532775878906, -4.292003154754639, -7.143251419067383, -0.03183572366833687, 0.052183300256729126, 0.1392425298690796, 0, 0, 0, 0, 0, 0, 0, 0, 0, 0, 0, 0, 0.0, 0.0, 0.0, 0.0, 23.0, 9.0, 4.0, 0.0, 0.0, 0.0, -0.04456387832760811, -0.29855674505233765, 0.016954924911260605, 0.0449909046292305, -0.03308139368891716, 0.022715970873832703
128091, 2.569420576095581, -4.331430435180664, -7.139249324798584, -0.009294943884015083, 0.27676254510879517, 0.2346692681312561, 0, 0, 0, 0, 0, 0, 0, 0, 0, 0, 0, 0, 0.0, 0.0, 0.0, 0.0, 23.0, -8.0, 4.0, 0.0, 0.0, 0.0, -0.04465082660317421, -0.2991493046283722, 0.01715271919965744, 0.04270889610052109, -0.04184959828853607, 0.0229339562356472
128101, 2.57633113861084, -4.362200736999512, -7.083189487457275, -0.010638649575412273, 0.09366371482610703, -0.12722772359848022, 0, 0, 0, 0, 0, 0, 0, 0, 0, 0, 0, 0, 0.0, 0.0, 0.0, 0.0, 23.0, 4.0, -2.0, 0.0, 0.0, 0.0, -0.044650498777627945, -0.2987002730369568, 0.017512649297714233, 0.04009473696351051, -0.03449086844921112, 0.02368190884590149
128111, 2.6203386783599854, -4.352879524230957, -7.118377208709717, 0.009022120386362076, 0.23836268484592438, -0.10165932774543762, 0, 0, 0, 0, 0, 0, 0, 0, 0, 0, 0, 0, 0.0, 0.0, 0.0, 0.0, 23.0, 0.0, -2.0, 0.0, 0.0, 0.0, -0.04447693005204201, -0.2991793751716614, 0.0177125483751297, 0.04224500060081482, -0.039095375686883926, 0.02398747019469738
128121, 2.5765602588653564, -4.2972893714904785, -7.171758651733398, 0.04587599262595177, -0.12114755064249039, -0.016122082248330116, 0, 0, 0, 0, 0, 0, 0, 0, 0, 0, 0, 0, 0.0, 0.0, 0.0, 0.0, 8.0, -4.0, 0.0, 0.0, 0.0, 0.0, -0.044364091008901596, -0.29919663071632385, 0.014843139797449112, 0.044190727174282074, -0.03892283886671066, 0.0057858657091856
128131, 2.5664751529693604, -4.331135272979736, -7.1451029777526855, -0.2694321870803833, 0.2277444452047348, -0.010964103043079376, 0, 0, 0, 0, 0, 0, 0, 0, 0, 0, 0, 0, 0.0, 0.0, 0.0, 0.0, 8.0, 2.0, 0.0, 0.0, 0.0, 0.0, -0.04411858692765236, -0.2990647256374359, 0.015027246437966824, 0.045014359056949615, -0.03645653277635574, 0.007053113076835871
128141, 2.5864040851593018, -4.295975685119629, -7.167495250701904, 0.15063968300819397, 0.007706732954829931, -0.10770698636770248, 0, 0, 0, 0, 0, 0, 0, 0, 0, 0, 0, 0, 0.0, 0.0, 0.0, 0.0, 8.0, 2.0, -1.0, 0.0, 0.0, 0.0, -0.04437067359685898, -0.2989499270915985, 0.015113099478185177, 0.042631521821022034, -0.03604947030544281, 0.007459548767656088
128151, 2.6244828701019287, -4.328579902648926, -7.1357502937316895, 0.053067293018102646, 0.0415167361497879, -0.07689779996871948, 0, 0, 0, 0, 0, 0, 0, 0, 0, 0, 0, 0, 0.0, 0.0, 0.0, 0.0, 8.0, -2.0, 5.0, 0.0, 0.0, 0.0, -0.04422042891383171, -0.299182265996933, 0.015243991278111935, 0.04386630281805992, -0.03866877406835556, 0.008195042610168457
128161, 2.6023809909820557, -4.3501129150390625, -7.097232818603516, -0.03943254053592682, -0.12001673132181168, 0.04082566872239113, 0, 0, 0, 0, 0, 0, 0, 0, 0, 0, 0, 0, 0.0, 0.0, 0.0, 0.0, 19.0, -2.0, -7.0, 0.0, 0.0, 0.0, -0.0445106066763401, -0.299159437417984, 0.01553579792380333, 0.03971995413303375, -0.037686049938201904, 0.00979370903223753
128171, 2.6315646171569824, -4.329256057739258, -7.158235549926758, 0.19640949368476868, -0.01847519725561142, 0.1904963105916977, 0, 0, 0, 0, 0, 0, 0, 0, 0, 0, 0, 0, 0.0, 0.0, 0.0, 0.0, 19.0, 7.0, 4.0, 0.0, 0.0, 0.0, -0.04346587136387825, -0.29961222410202026, 0.016846347600221634, 0.048024412244558334, -0.037407100200653076, 0.01776779629290104
128181, 2.6728498935699463, -4.347211837768555, -7.156258583068848, 0.05194967985153198, -0.18512891232967377, -0.05940950661897659, 0, 0, 0, 0, 0, 0, 0, 0, 0, 0, 0, 0, 0.0, 0.0, 0.0, 0.0, 19.0, -6.0, -1.0, 0.0, 0.0, 0.0, -0.044092725962400436, -0.299839049577713, 0.016893791034817696, 0.04185975342988968, -0.04194682091474533, 0.01790209673345089
128191, 2.6390140056610107, -4.312095642089844, -7.159915924072266, -0.040073756128549576, -0.03517308086156845, -0.2985350787639618, 0, 0, 0, 0, 0, 0, 0, 0, 0, 0, 0, 0, 0.0, 0.0, 0.0, 0.0, 19.0, 1.0, -1.0, 0.0, 0.0, 0.0, -0.04384780675172806, -0.29953882098197937, 0.017148450016975403, 0.043155115097761154, -0.037136804312467575, 0.018491504713892937
128202, 2.6247618198394775, -4.31716775894165, -7.189499378204346, 0.11755987256765366, -0.014057586900889874, 0.08454904705286026, 0, 0, 0, 0, 0, 0, 0, 0, 0, 0, 0, 0, 0.0, 0.0, 0.0, 0.0, 19.0, -3.0, 5.0, 0.0, 0.0, 0.0, -0.043761540204286575, -0.29970988631248474, 0.017324501648545265, 0.04355522617697716, -0.0379093699157238, 0.018690137192606926
128211, 2.6320252418518066, -4.320345878601074, -7.193049430847168, 0.14576302468776703, -0.1661013513803482, -0.1802292913198471, 0, 0, 0, 0, 0, 0, 0, 0, 0, 0, 0, 0, 0.0, 0.0, 0.0, 0.0, 10.0, 9.0, -2.0, 0.0, 0.0, 0.0, -0.04411543160676956, -0.2994178235530853, 0.015234171412885189, 0.039316751062870026, -0.03522026911377907, 0.003726586466655135
128221, 2.6439788341522217, -4.395229339599609, -7.146387100219727, -0.09850810468196869, 0.1418273001909256, -0.09345375746488571, 0, 0, 0, 0, 0, 0, 0, 0, 0, 0, 0, 0, 0.0, 0.0, 0.0, 0.0, 10.0, -6.0, 2.0, 0.0, 0.0, 0.0, -0.04398931562900543, -0.300178587436676, 0.015262231230735779, 0.041171588003635406, -0.04284172132611275, 0.004193310625851154
128231, 2.6312429904937744, -4.382452964782715, -7.142249584197998, -0.3010558784008026, -0.11351153254508972, -0.09590660035610199, 0, 0, 0, 0, 0, 0, 0, 0, 0, 0, 0, 0, 0.0, 0.0, 0.0, 0.0, 10.0, -2.0, 0.0, 0.0, 0.0, 0.0, -0.04398893564939499, -0.2997123897075653, 0.015446828678250313, 0.04030539095401764, -0.03769492357969284, 0.005551560781896114
128241, 2.6440436840057373, -4.348206520080566, -7.169927597045898, -0.05058850720524788, -0.06385071575641632, 0.08734143525362015, 0, 0, 0, 0, 0, 0, 0, 0, 0, 0, 0, 0, 0.0, 0.0, 0.0, 0.0, 10.0, 6.0, -3.0, 0.0, 0.0, 0.0, -0.04386446252465248, -0.29970690608024597, 0.015591820701956749, 0.04027349501848221, -0.03638026863336563, 0.006487386766821146
128252, 2.6065447330474854, -4.36631965637207, -7.165323257446289, -0.009453984908759594, 0.002595199504867196, -0.21685868501663208, 0, 0, 0, 0, 0, 0, 0, 0, 0, 0, 0, 0, 0.0, 0.0, 0.0, 0.0, 22.0, 0.0, 0.0, 0.0, 0.0, 0.0, -0.04363236203789711, -0.30029216408729553, 0.015625866129994392, 0.043165091425180435, -0.04208764806389809, 0.006777161732316017
128261, 2.6552395820617676, -4.369983673095703, -7.164655685424805, 0.06268879026174545, -0.09164906293153763, -0.028713542968034744, 0, 0, 0, 0, 0, 0, 0, 0, 0, 0, 0, 0, 0.0, 0.0, 0.0, 0.0, 22.0, -2.0, 2.0, 0.0, 0.0, 0.0, -0.04327540472149849, -0.3006606101989746, 0.017744287848472595, 0.04551655054092407, -0.04377283528447151, 0.02005251869559288
128271, 2.619990110397339, -4.4592671394348145, -7.112668037414551, 0.16055423021316528, -0.2644885182380676, -0.09109590202569962, 0, 0, 0, 0, 0, 0, 0, 0, 0, 0, 0, 0, 0.0, 0.0, 0.0, 0.0, 22.0, -1.0, -6.0, 0.0, 0.0, 0.0, -0.043301742523908615, -0.30059102177619934, 0.01798214204609394, 0.044278886169195175, -0.04215444624423981, 0.02079554833471775
128281, 2.6123766899108887, -4.349808692932129, -7.181802749633789, 0.12790217995643616, -0.010538226924836636, 0.2673012316226959, 0, 0, 0, 0, 0, 0, 0, 0, 0, 0, 0, 0, 0.0, 0.0, 0.0, 0.0, 22.0, 0.0, 1.0, 0.0, 0.0, 0.0, -0.04272787645459175, -0.3005785644054413, 0.018082402646541595, 0.04913892224431038, -0.04030771553516388, 0.020535988733172417
128292, 2.6412174701690674, -4.401824474334717, -7.130889415740967, -0.007188846357166767, -0.025627629831433296, -0.11065908521413803, 0, 0, 0, 0, 0, 0, 0, 0, 0, 0, 0, 0, 0.0, 0.0, 0.0, 0.0, 22.0, 1.0, 0.0, 0.0, 0.0, 0.0, -0.042663633823394775, -0.30079546570777893, 0.018305495381355286, 0.04787030443549156, -0.040899474173784256, 0.020661983639001846
128302, 2.614079236984253, -4.34476375579834, -7.165877342224121, 0.007122408598661423, -0.16785946488380432, -0.03828566148877144, 0, 0, 0, 0, 0, 0, 0, 0, 0, 0, 0, 0, 0.0, 0.0, 0.0, 0.0, 8.0, 4.0, 3.0, 0.0, 0.0, 0.0, -0.04284634441137314, -0.3007296621799469, 0.014903987757861614, 0.047723062336444855, -0.04169259965419769, -0.0029189279302954674
128311, 2.6158640384674072, -4.339219570159912, -7.181385040283203, 0.17482098937034607, -0.44460171461105347, 0.02559501864016056, 0, 0, 0, 0, 0, 0, 0, 0, 0, 0, 0, 0, 0.0, 0.0, 0.0, 0.0, 8.0, -5.0, -1.0, 0.0, 0.0, 0.0, -0.043225355446338654, -0.30110353231430054, 0.014980900101363659, 0.044156305491924286, -0.04496607184410095, -0.0019976592157036066
128321, 2.6599814891815186, -4.445189952850342, -7.102682590484619, -0.14428576827049255, 0.19778764247894287, -0.27596190571784973, 0, 0, 0, 0, 0, 0, 0, 0, 0, 0, 0, 0, 0.0, 0.0, 0.0, 0.0, 8.0, 3.0, -3.0, 0.0, 0.0, 0.0, -0.04303322359919548, -0.30064910650253296, 0.015089125372469425, 0.04553801193833351, -0.04058312624692917, -0.0006935945129953325
128331, 2.677788734436035, -4.3934245109558105, -7.100814342498779, -0.0432441309094429, -0.2208412140607834, 0.02171296812593937, 0, 0, 0, 0, 0, 0, 0, 0, 0, 0, 0, 0, 0.0, 0.0, 0.0, 0.0, 8.0, -2.0, 1.0, 0.0, 0.0, 0.0, -0.042624663561582565, -0.30109092593193054, 0.015042373910546303, 0.04884970188140869, -0.04351215809583664, -0.00010529374412726611
128342, 2.6541383266448975, -4.353823661804199, -7.160772800445557, -0.018036123365163803, 0.2926222085952759, -0.07789047062397003, 0, 0, 0, 0, 0, 0, 0, 0, 0, 0, 0, 0, 0.0, 0.0, 0.0, 0.0, 20.0, 5.0, -1.0, 0.0, 0.0, 0.0, -0.04275274649262428, -0.300944060087204, 0.01523355208337307, 0.047162652015686035, -0.041947439312934875, 0.0014569006161764264
128352, 2.6629583835601807, -4.338557243347168, -7.184847354888916, -0.10956044495105743, -0.07410255819559097, -0.022516818717122078, 0, 0, 0, 0, 0, 0, 0, 0, 0, 0, 0, 0, 0.0, 0.0, 0.0, 0.0, 20.0, 8.0, -1.0, 0.0, 0.0, 0.0, -0.04254985600709915, -0.3015558123588562, 0.016879981383681297, 0.0478319488465786, -0.04625982791185379, 0.012122615240514278
128361, 2.6602518558502197, -4.345398426055908, -7.196284294128418, -0.04901447892189026, -0.18834508955478668, 0.006895095109939575, 0, 0, 0, 0, 0, 0, 0, 0, 0, 0, 0, 0, 0.0, 0.0, 0.0, 0.0, 20.0, -3.0, 1.0, 0.0, 0.0, 0.0, -0.04252259433269501, -0.3024187386035919, 0.016917090862989426, 0.048337966203689575, -0.0531955249607563, 0.01198157574981451
128371, 2.630547046661377, -4.3958635330200195, -7.130809783935547, -0.04901447892189026, -0.18834508955478668, 0.006895095109939575, 0, 0, 0, 0, 0, 0, 0, 0, 0, 0, 0, 0, 0.0, 0.0, 0.0, 0.0, 20.0, 2.0, 1.0, 0.0, 0.0, 0.0, -0.0426260270178318, -0.3020898997783661, 0.017113689333200455, 0.04684365913271904, -0.04892176762223244, 0.012613828293979168
128381, 2.707784652709961, -4.387625217437744, -7.159657955169678, 0.0002637435682117939, -0.015095398761332035, -0.11703846603631973, 0, 0, 0, 0, 0, 0, 0, 0, 0, 0, 0, 0, 0.0, 0.0, 0.0, 0.0, 20.0, -2.0, -1.0, 0.0, 0.0, 0.0, -0.042693473398685455, -0.3022170066833496, 0.017182588577270508, 0.046512410044670105, -0.05053641274571419, 0.01260682288557291
128392, 2.6199545860290527, -4.3513312339782715, -7.194035530090332, 0.022958850488066673, 0.07932261377573013, 0.09653303027153015, 0, 0, 0, 0, 0, 0, 0, 0, 0, 0, 0, 0, 0.0, 0.0, 0.0, 0.0, 6.0, 7.0, 7.0, 0.0, 0.0, 0.0, -0.04270634055137634, -0.3020087778568268, 0.013556070625782013, 0.046683527529239655, -0.04864346608519554, -0.010940722189843655
128402, 2.6207170486450195, -4.4228291511535645, -7.108031749725342, -0.021438751369714737, -0.08997934311628342, -0.021534521132707596, 0, 0, 0, 0, 0, 0, 0, 0, 0, 0, 0, 0, 0.0, 0.0, 0.0, 0.0, 6.0, -27.0, -4.0, 0.0, 0.0, 0.0, -0.04352467507123947, -0.3025780916213989, 0.013635952956974506, 0.039734628051519394, -0.05323856323957443, -0.009604292921721935
128411, 2.637953996658325, -4.4589924812316895, -7.107913017272949, 0.1713027060031891, 0.06836096942424774, 0.1622074693441391, 0, 0, 0, 0, 0, 0, 0, 0, 0, 0, 0, 0, 0.0, 0.0, 0.0, 0.0, 6.0, -1.0, 0.0, 0.0, 0.0, 0.0, -0.042711228132247925, -0.299905002117157, 0.014014778658747673, 0.04426932707428932, -0.02953505702316761, -0.006353495642542839
128421, 2.619131565093994, -4.368530750274658, -7.1480231285095215, 0.16667869687080383, 0.12865346670150757, 0.10740042477846146, 0, 0, 0, 0, 0, 0, 0, 0, 0, 0, 0, 0, 0.0, 0.0, 0.0, 0.0, 6.0, -2.0, 4.0, 0.0, 0.0, 0.0, -0.04273136705160141, -0.29979830980300903, 0.014163898304104805, 0.043432675302028656, -0.02911224775016308, -0.004541461355984211
128431, 2.6427953243255615, -4.427585124969482, -7.105714797973633, -0.25438904762268066, 0.062051210552453995, -0.2263277769088745, 0, 0, 0, 0, 0, 0, 0, 0, 0, 0, 0, 0, 0.0, 0.0, 0.0, 0.0, 21.0, -1.0, -2.0, 0.0, 0.0, 0.0, -0.043115999549627304, -0.29954466223716736, 0.01438191533088684, 0.04026394709944725, -0.027804110199213028, -0.002485888544470072
128441, 2.6636195182800293, -4.4650187492370605, -7.081942081451416, -0.1353682577610016, 0.02319980226457119, 0.02248350717127323, 0, 0, 0, 0, 0, 0, 0, 0, 0, 0, 0, 0, 0.0, 0.0, 0.0, 0.0, 21.0, 2.0, 0.0, 0.0, 0.0, 0.0, -0.04265934228897095, -0.29965975880622864, 0.016712095588445663, 0.04243233799934387, -0.028077788650989532, 0.012884471565485
128452, 2.6361775398254395, -4.444612979888916, -7.097585201263428, -0.008843270130455494, -0.14309538900852203, -0.06662037968635559, 0, 0, 0, 0, 0, 0, 0, 0, 0, 0, 0, 0, 0.0, 0.0, 0.0, 0.0, 21.0, -3.0, 2.0, 0.0, 0.0, 0.0, -0.04272661730647087, -0.2998940646648407, 0.01684344932436943, 0.04229922220110893, -0.030621513724327087, 0.01329866237938404
128461, 2.636812686920166, -4.417604923248291, -7.110416412353516, 0.1717853546142578, 0.07982548326253891, 0.09647627174854279, 0, 0, 0, 0, 0, 0, 0, 0, 0, 0, 0, 0, 0.0, 0.0, 0.0, 0.0, 21.0, 0.0, 0.0, 0.0, 0.0, 0.0, -0.04286358878016472, -0.2995445728302002, 0.01701323501765728, 0.04173111170530319, -0.02838216908276081, 0.013753955252468586
128471, 2.616706132888794, -4.3740692138671875, -7.148343086242676, 0.13637502491474152, -0.09291169047355652, 0.03845392167568207, 0, 0, 0, 0, 0, 0, 0, 0, 0, 0, 0, 0, 0.0, 0.0, 0.0, 0.0, 21.0, 0.0, 0.0, 0.0, 0.0, 0.0, -0.04272794723510742, -0.2997065782546997, 0.01713796705007553, 0.04256973788142204, -0.02988503687083721, 0.014035550877451897
128481, 2.628263473510742, -4.368155479431152, -7.137348651885986, 0.20091436803340912, -0.24946244060993195, 0.1240805834531784, 0, 0, 0, 0, 0, 0, 0, 0, 0, 0, 0, 0, 0.0, 0.0, 0.0, 0.0, 8.0, 8.0, -2.0, 0.0, 0.0, 0.0, -0.04273225739598274, -0.2997298538684845, 0.014101997949182987, 0.043887991458177567, -0.03164268657565117, -0.006037138868123293
128492, 2.6279680728912354, -4.3766560554504395, -7.204390048980713, -0.1631947159767151, 0.005699222441762686, -0.16227778792381287, 0, 0, 0, 0, 0, 0, 0, 0, 0, 0, 0, 0, 0.0, 0.0, 0.0, 0.0, 8.0, -3.0, -5.0, 0.0, 0.0, 0.0, -0.04258213937282562, -0.3007170855998993, 0.014017278328537941, 0.04579206928610802, -0.03874948248267174, -0.005456998012959957
128511, 2.6784679889678955, -4.376323223114014, -7.123623371124268, 0.0383027158677578, -0.19848327338695526, -0.0821290910243988, 0, 0, 0, 0, 0, 0, 0, 0, 0, 0, 0, 0, 0.0, 0.0, 0.0, 0.0, 8.0, -9.0, 8.0, 0.0, 0.0, 0.0, -0.041992977261543274, -0.3008619248867035, 0.014104246161878109, 0.05080024152994156, -0.03992186859250069, -0.0030198954045772552
128521, 2.6978845596313477, -4.443323135375977, -7.089112758636475, 0.08570651710033417, 0.08634117245674133, 0.009518768638372421, 0, 0, 0, 0, 0, 0, 0, 0, 0, 0, 0, 0, 0.0, 0.0, 0.0, 0.0, 20.0, 0.0, 0.0, 0.0, 0.0, 0.0, -0.0427229143679142, -0.2998257875442505, 0.014525928534567356, 0.04385823383927345, -0.03309132903814316, -0.0005050956388004124
128531, 2.7005133628845215, -4.370998382568359, -7.162003517150879, 0.059962838888168335, -0.15407221019268036, -0.18319234251976013, 0, 0, 0, 0, 0, 0, 0, 0, 0, 0, 0, 0, 0.0, 0.0, 0.0, 0.0, 20.0, 0.0, 0.0, 0.0, 0.0, 0.0, -0.04231122508645058, -0.30019211769104004, 0.016351185739040375, 0.0462917722761631, -0.03521698713302612, 0.010841930285096169
128541, 2.684375762939453, -4.420365810394287, -7.119258880615234, 0.008677789010107517, 0.2673300504684448, -0.1584085077047348, 0, 0, 0, 0, 0, 0, 0, 0, 0, 0, 0, 0, 0.0, 0.0, 0.0, 0.0, 20.0, 2.0, 0.0, 0.0, 0.0, 0.0, -0.04220140352845192, -0.30041512846946716, 0.016476929187774658, 0.04665989428758621, -0.03692208603024483, 0.011170780286192894
128551, 2.6710245609283447, -4.430749893188477, -7.08611536026001, 0.08091017603874207, -0.11639749258756638, 0.0400204099714756, 0, 0, 0, 0, 0, 0, 0, 0, 0, 0, 0, 0, 0.0, 0.0, 0.0, 0.0, 20.0, -2.0, 0.0, 0.0, 0.0, 0.0, -0.042257074266672134, -0.30057889223098755, 0.0165896937251091, 0.04662005603313446, -0.03815264627337456, 0.01151629164814949
128561, 2.6531455516815186, -4.4776105880737305, -7.063168525695801, 0.03737097233533859, -0.1972707211971283, -0.03612881153821945, 0, 0, 0, 0, 0, 0, 0, 0, 0, 0, 0, 0, 0.0, 0.0, 0.0, 0.0, 20.0, 0.0, 0.0, 0.0, 0.0, 0.0, -0.04226508364081383, -0.3003403842449188, 0.016741611063480377, 0.04745431989431381, -0.03666377440094948, 0.012082822620868683
128571, 2.647556781768799, -4.3898773193359375, -7.147147178649902, 0.1020095944404602, -0.38164758682250977, -0.020169414579868317, 0, 0, 0, 0, 0, 0, 0, 0, 0, 0, 0, 0, 0.0, 0.0, 0.0, 0.0, 11.0, 0.0, -5.0, 0.0, 0.0, 0.0, -0.042189668864011765, -0.3004412055015564, 0.014940406195819378, 0.04871956631541252, -0.03819281607866287, 0.0006553118000738323
128581, 2.67393159866333, -4.443129062652588, -7.08211088180542, 0.15467403829097748, -0.03547121211886406, -0.05734415352344513, 0, 0, 0, 0, 0, 0, 0, 0, 0, 0, 0, 0, 0.0, 0.0, 0.0, 0.0, 11.0, 0.0, 5.0, 0.0, 0.0, 0.0, -0.04158959165215492, -0.3006175458431244, 0.01492966990917921, 0.05238128453493118, -0.03874936327338219, 0.0010941687505692244
128592, 2.6557843685150146, -4.420851707458496, -7.119275093078613, 0.1754271537065506, 0.32942622900009155, 0.0701817199587822, 0, 0, 0, 0, 0, 0, 0, 0, 0, 0, 0, 0, 0.0, 0.0, 0.0, 0.0, 11.0, 0.0, 0.0, 0.0, 0.0, 0.0, -0.0421956442296505, -0.30053219199180603, 0.01512052584439516, 0.048151638358831406, -0.0388697050511837, 0.002139981836080551
128601, 2.6660540103912354, -4.388948440551758, -7.145338535308838, -0.09128084778785706, 0.03357667475938797, -0.2861553132534027, 0, 0, 0, 0, 0, 0, 0, 0, 0, 0, 0, 0, 0.0, 0.0, 0.0, 0.0, 11.0, 0.0, 0.0, 0.0, 0.0, 0.0, -0.04199738800525665, -0.3007272481918335, 0.01517829392105341, 0.05003441870212555, -0.040368713438510895, 0.0026908249128609896
128611, 2.664750814437866, -4.3720269203186035, -7.155969619750977, -0.014415387064218521, -0.020554689690470695, -0.21923257410526276, 0, 0, 0, 0, 0, 0, 0, 0, 0, 0, 0, 0, 0.0, 0.0, 0.0, 0.0, 15.0, 9.0, 0.0, 0.0, 0.0, 0.0, -0.041890379041433334, -0.3009653091430664, 0.015281054191291332, 0.05080891028046608, -0.041537102311849594, 0.003511480987071991
128621, 2.667006731033325, -4.388530254364014, -7.12075138092041, -0.2985081374645233, 0.08499941229820251, 0.036693014204502106, 0, 0, 0, 0, 0, 0, 0, 0, 0, 0, 0, 0, 0.0, 0.0, 0.0, 0.0, 15.0, -9.0, 0.0, 0.0, 0.0, 0.0, -0.04207926616072655, -0.3018932044506073, 0.015189608559012413, 0.05078739672899246, -0.04857918620109558, 0.0033798592630773783
128631, 2.6498849391937256, -4.442295551300049, -7.120888710021973, -0.2735452353954315, 0.1476316750049591, 0.06390031427145004, 0, 0, 0, 0, 0, 0, 0, 0, 0, 0, 0, 0, 0.0, 0.0, 0.0, 0.0, 15.0, 2.0, -4.0, 0.0, 0.0, 0.0, -0.041872818022966385, -0.30101895332336426, 0.015403696335852146, 0.05038091540336609, -0.04183628782629967, 0.0047074779868125916
128642, 2.651134490966797, -4.464571475982666, -7.097690582275391, 0.1637239158153534, -0.0992562398314476, -0.01773749850690365, 0, 0, 0, 0, 0, 0, 0, 0, 0, 0, 0, 0, 0.0, 0.0, 0.0, 0.0, 15.0, -2.0, 4.0, 0.0, 0.0, 0.0, -0.04146648198366165, -0.30122002959251404, 0.015428419224917889, 0.05388200655579567, -0.04322773590683937, 0.005279242061078548
128651, 2.6581146717071533, -4.449231147766113, -7.10350227355957, -0.07088969647884369, -0.05656440183520317, 0.016596902161836624, 0, 0, 0, 0, 0, 0, 0, 0, 0, 0, 0, 0, 0.0, 0.0, 0.0, 0.0, 15.0, 0.0, 0.0, 0.0, 0.0, 0.0, -0.041933417320251465, -0.3009165823459625, 0.0156880933791399, 0.04981500655412674, -0.04124237224459648, 0.006626618094742298
128661, 2.6503419876098633, -4.37286901473999, -7.173213005065918, -0.1402059942483902, 0.0013062390498816967, 0.22445541620254517, 0, 0, 0, 0, 0, 0, 0, 0, 0, 0, 0, 0, 0.0, 0.0, 0.0, 0.0, 10.0, 0.0, 0.0, 0.0, 0.0, 0.0, -0.041829708963632584, -0.3011258840560913, 0.013969168066978455, 0.05141877010464668, -0.043023694306612015, -0.003413480008020997
128671, 2.633857011795044, -4.426980495452881, -7.1012749671936035, -0.21155177056789398, -0.13556991517543793, -0.09869198501110077, 0, 0, 0, 0, 0, 0, 0, 0, 0, 0, 0, 0, 0.0, 0.0, 0.0, 0.0, 10.0, -9.0, 0.0, 0.0, 0.0, 0.0, -0.042048461735248566, -0.3020765483379364, 0.013978194445371628, 0.05039773881435394, -0.050359856337308884, -0.0026656403206288815
128681, 2.6886401176452637, -4.424117565155029, -7.125158309936523, -0.03827303647994995, 0.13383081555366516, 0.1253950148820877, 0, 0, 0, 0, 0, 0, 0, 0, 0, 0, 0, 0, 0.0, 0.0, 0.0, 0.0, 10.0, 4.0, -2.0, 0.0, 0.0, 0.0, -0.04224972054362297, -0.3007303774356842, 0.014220776967704296, 0.04885198175907135, -0.04067766293883324, -0.0014330463018268347
128691, 2.6873562335968018, -4.4216389656066895, -7.10674524307251, -0.09090257436037064, 0.06590445339679718, -0.10660655796527863, 0, 0, 0, 0, 0, 0, 0, 0, 0, 0, 0, 0, 0.0, 0.0, 0.0, 0.0, 10.0, -4.0, 2.0, 0.0, 0.0, 0.0, -0.04212511330842972, -0.30111175775527954, 0.01426983904093504, 0.050079796463251114, -0.0442764088511467, -0.00026971515035256743
128702, 2.6827588081359863, -4.363959312438965, -7.1580610275268555, -0.04026906192302704, -0.12163498997688293, 0.09206876158714294, 0, 0, 0, 0, 0, 0, 0, 0, 0, 0, 0, 0, 0.0, 0.0, 0.0, 0.0, 20.0, 0.0, 1.0, 0.0, 0.0, 0.0, -0.04233097657561302, -0.3006649911403656, 0.014535592868924141, 0.04750439152121544, -0.0408087894320488, 0.0016322477022185922
128711, 2.6605000495910645, -4.401601314544678, -7.150049686431885, 0.14033143222332, -0.3106808364391327, -0.16798944771289825, 0, 0, 0, 0, 0, 0, 0, 0, 0, 0, 0, 0, 0.0, 0.0, 0.0, 0.0, 20.0, 0.0, -5.0, 0.0, 0.0, 0.0, -0.04236987233161926, -0.3007107079029083, 0.016340354457497597, 0.046653978526592255, -0.04123491048812866, 0.013355744071304798
128721, 2.6412734985351562, -4.439965724945068, -7.110260486602783, 0.2931770086288452, -0.137887105345726, 0.09994369000196457, 0, 0, 0, 0, 0, 0, 0, 0, 0, 0, 0, 0, 0.0, 0.0, 0.0, 0.0, 20.0, 0.0, 4.0, 0.0, 0.0, 0.0, -0.04148634523153305, -0.3013126254081726, 0.01654363051056862, 0.05194096267223358, -0.04320650175213814, 0.014079025015234947
128731, 2.6557371616363525, -4.402629852294922, -7.143327713012695, -0.03196905925869942, 0.001755488570779562, 0.08659127354621887, 0, 0, 0, 0, 0, 0, 0, 0, 0, 0, 0, 0, 0.0, 0.0, 0.0, 0.0, 20.0, 0.0, 0.0, 0.0, 0.0, 0.0, -0.04218689724802971, -0.30086180567741394, 0.016657713800668716, 0.04711098223924637, -0.041153647005558014, 0.014574152417480946
128742, 2.668440818786621, -4.417352199554443, -7.153141021728516, -0.09390756487846375, -0.07171628624200821, 0.11835173517465591, 0, 0, 0, 0, 0, 0, 0, 0, 0, 0, 0, 0, 0.0, 0.0, 0.0, 0.0, 20.0, 0.0, 0.0, 0.0, 0.0, 0.0, -0.042042698711156845, -0.3011550307273865, 0.016795460134744644, 0.04824471473693848, -0.04307613894343376, 0.014846513979136944
128752, 2.6788432598114014, -4.451359272003174, -7.117948532104492, -0.07429545372724533, -0.157591313123703, -0.0017901359824463725, 0, 0, 0, 0, 0, 0, 0, 0, 0, 0, 0, 0, 0.0, 0.0, 0.0, 0.0, 8.0, 0.0, 0.0, 0.0, 0.0, 0.0, -0.041943080723285675, -0.3012855052947998, 0.014132908545434475, 0.05062321946024895, -0.04483509436249733, -0.0026804800145328045
128761, 2.654913902282715, -4.37832498550415, -7.1455397605896, -0.12507186830043793, 0.11262024939060211, -0.08294087648391724, 0, 0, 0, 0, 0, 0, 0, 0, 0, 0, 0, 0, 0.0, 0.0, 0.0, 0.0, 8.0, 0.0, 1.0, 0.0, 0.0, 0.0, -0.04172061011195183, -0.30154263973236084, 0.01416301541030407, 0.052458178251981735, -0.046436112374067307, -0.0017166060861200094
128771, 2.654444456100464, -4.4010844230651855, -7.132613182067871, 0.0033359250519424677, 0.5749915838241577, -0.2684689164161682, 0, 0, 0, 0, 0, 0, 0, 0, 0, 0, 0, 0, 0.0, 0.0, 0.0, 0.0, 8.0, 4.0, -5.0, 0.0, 0.0, 0.0, -0.04186096414923668, -0.3015449047088623, 0.014285094104707241, 0.051217176020145416, -0.04641611874103546, -0.0006602040375582874
128781, 2.6638967990875244, -4.370284557342529, -7.160458087921143, -0.08611652255058289, -0.08713098615407944, -0.27557268738746643, 0, 0, 0, 0, 0, 0, 0, 0, 0, 0, 0, 0, 0.0, 0.0, 0.0, 0.0, 8.0, -4.0, 4.0, 0.0, 0.0, 0.0, -0.04125005751848221, -0.3021909296512604, 0.014221207238733768, 0.05533672124147415, -0.049357566982507706, -0.00041495595360174775
128792, 2.652512550354004, -4.39788293838501, -7.155338287353516, -0.14048539102077484, -0.09041587263345718, -0.037380605936050415, 0, 0, 0, 0, 0, 0, 0, 0, 0, 0, 0, 0, 0.0, 0.0, 0.0, 0.0, 21.0, 4.0, -4.0, 0.0, 0.0, 0.0, -0.04163865000009537, -0.30172109603881836, 0.014546229504048824, 0.051212411373853683, -0.04569244757294655, 0.0017779122572392225
128802, 2.662155866622925, -4.4050188064575195, -7.131091117858887, -0.03583861514925957, 0.07304534316062927, -0.12109266221523285, 0, 0, 0, 0, 0, 0, 0, 0, 0, 0, 0, 0, 0.0, 0.0, 0.0, 0.0, 21.0, 22.0, -4.0, 0.0, 0.0, 0.0, -0.04124373942613602, -0.30222564935684204, 0.016668137162923813, 0.05377526581287384, -0.04846474900841713, 0.015294146724045277
128811, 2.6734397411346436, -4.3685383796691895, -7.170753002166748, -0.033338651061058044, -0.09843067824840546, -0.03895024210214615, 0, 0, 0, 0, 0, 0, 0, 0, 0, 0, 0, 0, 0.0, 0.0, 0.0, 0.0, 21.0, -11.0, 0.0, 0.0, 0.0, 0.0, -0.041227031499147415, -0.30448371171951294, 0.0164936576038599, 0.056531764566898346, -0.0656345933675766, 0.014348262920975685
128821, 2.622229814529419, -4.402064800262451, -7.171090126037598, 0.059975381940603256, -0.024730609729886055, -0.051966045051813126, 0, 0, 0, 0, 0, 0, 0, 0, 0, 0, 0, 0, 0.0, 0.0, 0.0, 0.0, 21.0, -21.0, 0.0, 0.0, 0.0, 0.0, -0.041100624948740005, -0.30324050784111023, 0.016867034137248993, 0.056009452790021896, -0.055237021297216415, 0.015987232327461243
128832, 2.6950862407684326, -4.419525623321533, -7.136679649353027, -0.11291337013244629, 0.15303657948970795, -0.22600431740283966, 0, 0, 0, 0, 0, 0, 0, 0, 0, 0, 0, 0, 0.0, 0.0, 0.0, 0.0, 21.0, -2.0, 1.0, 0.0, 0.0, 0.0, -0.04071013629436493, -0.30121541023254395, 0.017422445118427277, 0.05543843284249306, -0.03779435157775879, 0.018377171829342842
128841, 2.6547787189483643, -4.357451915740967, -7.187060356140137, 0.12462577223777771, -0.0898938924074173, -0.0054539223201572895, 0, 0, 0, 0, 0, 0, 0, 0, 0, 0, 0, 0, 0.0, 0.0, 0.0, 0.0, 8.0, 12.0, -4.0, 0.0, 0.0, 0.0, -0.04099621996283531, -0.3008737564086914, 0.014430392533540726, 0.05411556363105774, -0.03732503950595856, -0.001964075956493616
128851, 2.66717791557312, -4.354794979095459, -7.194711685180664, 0.10330204665660858, 0.3864844739437103, 0.01659090630710125, 0, 0, 0, 0, 0, 0, 0, 0, 0, 0, 0, 0, 0.0, 0.0, 0.0, 0.0, 8.0, -11.0, 8.0, 0.0, 0.0, 0.0, -0.04085473716259003, -0.3021201491355896, 0.014372173696756363, 0.05563458055257797, -0.046381544321775436, -0.0015479684807360172
128861, 2.6493136882781982, -4.460583686828613, -7.061912536621094, 0.023767342790961266, -0.2569417655467987, 0.19703537225723267, 0, 0, 0, 0, 0, 0, 0, 0, 0, 0, 0, 0, 0.0, 0.0, 0.0, 0.0, 8.0, 0.0, 0.0, 0.0, 0.0, 0.0, -0.041581373661756516, -0.3008594512939453, 0.014734205789864063, 0.048800814896821976, -0.03721563518047333, 0.0008511668420396745
128871, 2.670671224594116, -4.378572940826416, -7.167213439941406, -0.008604091592133045, -0.15291160345077515, -0.13608604669570923, 0, 0, 0, 0, 0, 0, 0, 0, 0, 0, 0, 0, 0.0, 0.0, 0.0, 0.0, 8.0, 5.0, -8.0, 0.0, 0.0, 0.0, -0.04143892601132393, -0.30102434754371643, 0.014813423156738281, 0.050020329654216766, -0.03873310983181, 0.001825678744353354
128881, 2.662592887878418, -4.431506156921387, -7.09683084487915, 0.17177551984786987, -0.060110900551080704, 0.002729724394157529, 0, 0, 0, 0, 0, 0, 0, 0, 0, 0, 0, 0, 0.0, 0.0, 0.0, 0.0, 17.0, -6.0, 8.0, 0.0, 0.0, 0.0, -0.040777530521154404, -0.3016035854816437, 0.014754895120859146, 0.05632294714450836, -0.04342062398791313, 0.002078380435705185
128893, 2.679605484008789, -4.395069122314453, -7.137731075286865, 0.012969564646482468, 0.019462909549474716, -0.10721448063850403, 0, 0, 0, 0, 0, 0, 0, 0, 0, 0, 0, 0, 0.0, 0.0, 0.0, 0.0, 17.0, 0.0, 0.0, 0.0, 0.0, 0.0, -0.041361551731824875, -0.3010278344154358, 0.015722760930657387, 0.04943643510341644, -0.039064470678567886, 0.007863204926252365
128901, 2.698638439178467, -4.481882095336914, -7.084202766418457, 0.09462454169988632, 0.09464710205793381, -0.16866981983184814, 0, 0, 0, 0, 0, 0, 0, 0, 0, 0, 0, 0, 0.0, 0.0, 0.0, 0.0, 17.0, 6.0, -8.0, 0.0, 0.0, 0.0, -0.041254863142967224, -0.3012147843837738, 0.01581149734556675, 0.05075813829898834, -0.040439605712890625, 0.008314701728522778
128911, 2.689328670501709, -4.452755928039551, -7.10819149017334, -0.1497241109609604, -0.1060793399810791, -0.012005769647657871, 0, 0, 0, 0, 0, 0, 0, 0, 0, 0, 0, 0, 0.0, 0.0, 0.0, 0.0, 17.0, -9.0, 8.0, 0.0, 0.0, 0.0, -0.04058152064681053, -0.3018767237663269, 0.0157607588917017, 0.056542910635471344, -0.04496666043996811, 0.008218484930694103
128921, 2.698134422302246, -4.379971027374268, -7.119787216186523, 0.031170688569545746, -0.27487045526504517, 0.04362506419420242, 0, 0, 0, 0, 0, 0, 0, 0, 0, 0, 0, 0, 0.0, 0.0, 0.0, 0.0, 17.0, 9.0, -8.0, 0.0, 0.0, 0.0, -0.04138760641217232, -0.30080777406692505, 0.016203509643673897, 0.048756446689367294, -0.03732972592115402, 0.01049729622900486
128931, 2.6923863887786865, -4.412413120269775, -7.112542152404785, -0.05405024066567421, -0.3685510456562042, 0.01611991971731186, 0, 0, 0, 0, 0, 0, 0, 0, 0, 0, 0, 0, 0.0, 0.0, 0.0, 0.0, 7.0, 8.0, 5.0, 0.0, 0.0, 0.0, -0.040820810943841934, -0.30183127522468567, 0.013062833808362484, 0.055048245936632156, -0.045552514493465424, -0.010220609605312347
128942, 2.6805295944213867, -4.3785529136657715, -7.1491923332214355, 0.21789568662643433, -0.1351836770772934, -0.1587720662355423, 0, 0, 0, 0, 0, 0, 0, 0, 0, 0, 0, 0, 0.0, 0.0, 0.0, 0.0, 7.0, -5.0, -3.0, 0.0, 0.0, 0.0, -0.041483499109745026, -0.30251550674438477, 0.013093795627355576, 0.05035215616226196, -0.05173308774828911, -0.008927733637392521
128953, 2.685371160507202, -4.364388942718506, -7.156777381896973, 0.13744522631168365, 0.02482319250702858, -0.049056053161621094, 0, 0, 0, 0, 0, 0, 0, 0, 0, 0, 0, 0, 0.0, 0.0, 0.0, 0.0, 7.0, 0.0, 1.0, 0.0, 0.0, 0.0, -0.041115276515483856, -0.3020358979701996, 0.013202673755586147, 0.05247674509882927, -0.04699522629380226, -0.006880390923470259
128961, 2.6637978553771973, -4.426130771636963, -7.0843610763549805, 0.18285518884658813, -0.0642637088894844, 0.0006907895440235734, 0, 0, 0, 0, 0, 0, 0, 0, 0, 0, 0, 0, 0.0, 0.0, 0.0, 0.0, 7.0, 0.0, 2.0, 0.0, 0.0, 0.0, -0.04135424271225929, -0.30202367901802063, 0.013383491896092892, 0.05016445741057396, -0.046589501202106476, -0.004821130074560642
128971, 2.6983180046081543, -4.403587341308594, -7.128874778747559, -0.005907285027205944, -0.07485023140907288, -0.022025227546691895, 0, 0, 0, 0, 0, 0, 0, 0, 0, 0, 0, 0, 0.0, 0.0, 0.0, 0.0, 18.0, 5.0, 0.0, 0.0, 0.0, 0.0, -0.041576918214559555, -0.3019062280654907, 0.013556038029491901, 0.04901681840419769, -0.0460660420358181, -0.0029875468462705612
128981, 2.699695348739624, -4.3609299659729, -7.159647464752197, -0.16265320777893066, 0.06194126978516579, -0.052174683660268784, 0, 0, 0, 0, 0, 0, 0, 0, 0, 0, 0, 0, 0.0, 0.0, 0.0, 0.0, 18.0, -4.0, -1.0, 0.0, 0.0, 0.0, -0.04163150116801262, -0.30251747369766235, 0.015107921324670315, 0.04770785942673683, -0.050324566662311554, 0.007356343790888786
128991, 2.6834716796875, -4.413888931274414, -7.0974650382995605, -0.15927840769290924, -0.030755631625652313, 0.10785260796546936, 0, 0, 0, 0, 0, 0, 0, 0, 0, 0, 0, 0, 0.0, 0.0, 0.0, 0.0, 18.0, -10.0, -2.0, 0.0, 0.0, 0.0, -0.04143413156270981, -0.30225369334220886, 0.015281430445611477, 0.04828011989593506, -0.04672016203403473, 0.008418550714850426
129001, 2.64870548248291, -4.358448028564453, -7.143206596374512, 0.09304458647966385, 0.023392850533127785, 0.03961193561553955, 0, 0, 0, 0, 0, 0, 0, 0, 0, 0, 0, 0, 0.0, 0.0, 0.0, 0.0, 18.0, -6.0, 3.0, 0.0, 0.0, 0.0, -0.04112832248210907, -0.30117496848106384, 0.015538817271590233, 0.04991694167256355, -0.037508945912122726, 0.009867101907730103
129011, 2.6703567504882812, -4.336944580078125, -7.181133270263672, 0.1715145856142044, 0.11294330656528473, -0.02622111886739731, 0, 0, 0, 0, 0, 0, 0, 0, 0, 0, 0, 0, 0.0, 0.0, 0.0, 0.0, 18.0, 0.0, 1.0, 0.0, 0.0, 0.0, -0.0414540059864521, -0.3005104959011078, 0.015862775966525078, 0.04628730192780495, -0.032133568078279495, 0.011426699347794056
129021, 2.6638917922973633, -4.381331443786621, -7.160731315612793, 0.09561949223279953, -0.09110596776008606, -0.08117970079183578, 0, 0, 0, 0, 0, 0, 0, 0, 0, 0, 0, 0, 0.0, 0.0, 0.0, 0.0, 10.0, 15.0, -4.0, 0.0, 0.0, 0.0, -0.0416896678507328, -0.3003619313240051, 0.014065418392419815, 0.045623086392879486, -0.032725002616643906, -0.0004563785041682422
129031, 2.6944353580474854, -4.36107873916626, -7.177168369293213, 0.11007965356111526, -0.06805381178855896, -1.4957980056351516e-05, 0, 0, 0, 0, 0, 0, 0, 0, 0, 0, 0, 0, 0.0, 0.0, 0.0, 0.0, 10.0, -9.0, 4.0, 0.0, 0.0, 0.0, -0.04158349335193634, -0.301906555891037, 0.014032606966793537, 0.04826270043849945, -0.045595187693834305, 3.303016274003312e-05
129042, 2.7023727893829346, -4.407896041870117, -7.112616539001465, -0.18918932974338531, -0.01176883839070797, -0.08544276654720306, 0, 0, 0, 0, 0, 0, 0, 0, 0, 0, 0, 0, 0.0, 0.0, 0.0, 0.0, 10.0, -2.0, -4.0, 0.0, 0.0, 0.0, -0.04180135205388069, -0.3010542690753937, 0.014300491660833359, 0.04473785310983658, -0.037944771349430084, 0.0016572133172303438
129051, 2.668905735015869, -4.415853500366211, -7.082619667053223, -0.030619341880083084, 0.08369657397270203, 0.0718458741903305, 0, 0, 0, 0, 0, 0, 0, 0, 0, 0, 0, 0, 0.0, 0.0, 0.0, 0.0, 10.0, -3.0, 3.0, 0.0, 0.0, 0.0, -0.041460249572992325, -0.3008941113948822, 0.01443527266383171, 0.04803117364645004, -0.03644084557890892, 0.0029629331547766924
129061, 2.6590421199798584, -4.356540679931641, -7.165452003479004, -0.017723826691508293, 0.12662571668624878, -0.030753828585147858, 0, 0, 0, 0, 0, 0, 0, 0, 0, 0, 0, 0, 0.0, 0.0, 0.0, 0.0, 17.0, 2.0, 1.0, 0.0, 0.0, 0.0, -0.04216081276535988, -0.3001246452331543, 0.014709643088281155, 0.04293256625533104, -0.031637728214263916, 0.004479455761611462
129071, 2.670356035232544, -4.410384654998779, -7.126003742218018, -0.181006520986557, -0.06581243127584457, 0.10956897586584091, 0, 0, 0, 0, 0, 0, 0, 0, 0, 0, 0, 0, 0.0, 0.0, 0.0, 0.0, 17.0, -1.0, 0.0, 0.0, 0.0, 0.0, -0.04185201972723007, -0.30070480704307556, 0.015629664063453674, 0.04483484849333763, -0.03585859388113022, 0.010713929310441017
129081, 2.6262590885162354, -4.357534408569336, -7.131165504455566, -0.09604800492525101, 0.015460049733519554, 0.16574640572071075, 0, 0, 0, 0, 0, 0, 0, 0, 0, 0, 0, 0, 0.0, 0.0, 0.0, 0.0, 17.0, 3.0, -2.0, 0.0, 0.0, 0.0, -0.04217303544282913, -0.30031436681747437, 0.015720993280410767, 0.04220910742878914, -0.03343359753489494, 0.011118297465145588
129091, 2.6624202728271484, -4.404526710510254, -7.150268077850342, 0.08990085124969482, 0.009742973372340202, 0.0028338490519672632, 0, 0, 0, 0, 0, 0, 0, 0, 0, 0, 0, 0, 0.0, 0.0, 0.0, 0.0, 17.0, 4.0, -6.0, 0.0, 0.0, 0.0, -0.042055997997522354, -0.3005818724632263, 0.015806343406438828, 0.04459825158119202, -0.036003872752189636, 0.01146206445991993
129101, 2.65750789642334, -4.447862148284912, -7.0972795486450195, -0.02363964542746544, -0.09198123961687088, 0.17383134365081787, 0, 0, 0, 0, 0, 0, 0, 0, 0, 0, 0, 0, 0.0, 0.0, 0.0, 0.0, 17.0, -8.0, 8.0, 0.0, 0.0, 0.0, -0.04158535972237587, -0.3009756803512573, 0.01586262509226799, 0.04898478463292122, -0.0392020046710968, 0.011631137691438198
129111, 2.650425672531128, -4.408846378326416, -7.135564804077148, -0.06071258708834648, -0.1319819837808609, -0.258062481880188, 0, 0, 0, 0, 0, 0, 0, 0, 0, 0, 0, 0, 0.0, 0.0, 0.0, 0.0, 8.0, 6.0, 0.0, 0.0, 0.0, 0.0, -0.04199054837226868, -0.30038172006607056, 0.013586193323135376, 0.045211516320705414, -0.03532850742340088, -0.0031971472781151533
129121, 2.673098087310791, -4.434230327606201, -7.108396053314209, 0.07664003223180771, 0.12620815634727478, 0.009465914219617844, 0, 0, 0, 0, 0, 0, 0, 0, 0, 0, 0, 0, 0.0, 0.0, 0.0, 0.0, 8.0, -6.0, 0.0, 0.0, 0.0, 0.0, -0.04216224327683449, -0.30101439356803894, 0.013667264021933079, 0.04490676522254944, -0.04074318706989288, -0.0021210280247032642
129131, 2.6632614135742188, -4.398807048797607, -7.102241039276123, -0.03422371298074722, -0.3983820676803589, -0.07395868003368378, 0, 0, 0, 0, 0, 0, 0, 0, 0, 0, 0, 0, 0.0, 0.0, 0.0, 0.0, 8.0, 8.0, -8.0, 0.0, 0.0, 0.0, -0.04237208515405655, -0.30013880133628845, 0.013863685540854931, 0.04288700968027115, -0.034359853714704514, -0.0010843640193343163
129141, 2.6905839443206787, -4.430394649505615, -7.10842752456665, 0.12006020545959473, 0.06838606297969818, 0.07694513350725174, 0, 0, 0, 0, 0, 0, 0, 0, 0, 0, 0, 0, 0.0, 0.0, 0.0, 0.0, 8.0, -3.0, 7.0, 0.0, 0.0, 0.0, -0.04181123152375221, -0.300960898399353, 0.013853750191628933, 0.048220567405223846, -0.04064434766769409, -0.0005449294112622738
129151, 2.6508750915527344, -4.376519680023193, -7.157837867736816, -0.15540571510791779, -0.08906640112400055, -0.002952649025246501, 0, 0, 0, 0, 0, 0, 0, 0, 0, 0, 0, 0, 0.0, 0.0, 0.0, 0.0, 23.0, -5.0, 1.0, 0.0, 0.0, 0.0, -0.04242843762040138, -0.30060485005378723, 0.014182016253471375, 0.04302235692739487, -0.038733962923288345, 0.0016983036184683442
129161, 2.668560266494751, -4.35409688949585, -7.174014568328857, -0.10171915590763092, 0.11118430644273758, 0.12809333205223083, 0, 0, 0, 0, 0, 0, 0, 0, 0, 0, 0, 0, 0.0, 0.0, 0.0, 0.0, 23.0, 4.0, -5.0, 0.0, 0.0, 0.0, -0.041952069848775864, -0.30072855949401855, 0.01737162470817566, 0.044046953320503235, -0.0376507006585598, 0.021008659154176712
129171, 2.6299288272857666, -4.346347808837891, -7.16246223449707, 0.09009247273206711, 0.007690278347581625, 0.057355184108018875, 0, 0, 0, 0, 0, 0, 0, 0, 0, 0, 0, 0, 0.0, 0.0, 0.0, 0.0, 23.0, 1.0, -3.0, 0.0, 0.0, 0.0, -0.04157419130206108, -0.3011869192123413, 0.017457295209169388, 0.047382060438394547, -0.041046060621738434, 0.020699605345726013
129181, 2.6364665031433105, -4.343270301818848, -7.151162624359131, 0.050416991114616394, 0.054295703768730164, -0.0028957442846149206, 0, 0, 0, 0, 0, 0, 0, 0, 0, 0, 0, 0, 0.0, 0.0, 0.0, 0.0, 23.0, -5.0, 8.0, 0.0, 0.0, 0.0, -0.041675519198179245, -0.3009869456291199, 0.017459748312830925, 0.04736434295773506, -0.03961265832185745, 0.02063334733247757
129191, 2.668644666671753, -4.372117042541504, -7.136398792266846, 0.037017956376075745, -0.19575291872024536, -0.010773954913020134, 0, 0, 0, 0, 0, 0, 0, 0, 0, 0, 0, 0, 0.0, 0.0, 0.0, 0.0, 23.0, 3.0, -2.0, 0.0, 0.0, 0.0, -0.04236453026533127, -0.30043843388557434, 0.017801161855459213, 0.04205694422125816, -0.036286044865846634, 0.02162064053118229
129201, 2.631929636001587, -4.342015266418457, -7.171832084655762, 0.040864571928977966, 0.13210031390190125, 0.11146513372659683, 0, 0, 0, 0, 0, 0, 0, 0, 0, 0, 0, 0, 0.0, 0.0, 0.0, 0.0, 9.0, 6.0, 0.0, 0.0, 0.0, 0.0, -0.042020998895168304, -0.3010389506816864, 0.01517897192388773, 0.04509001970291138, -0.041086431592702866, 0.0044589475728571415
129211, 2.6524341106414795, -4.425833225250244, -7.1082539558410645, 0.07720757275819778, -0.01781451888382435, 0.05223856493830681, 0, 0, 0, 0, 0, 0, 0, 0, 0, 0, 0, 0, 0.0, 0.0, 0.0, 0.0, 9.0, -3.0, 0.0, 0.0, 0.0, 0.0, -0.042079050093889236, -0.3015859127044678, 0.015221992507576942, 0.04561002925038338, -0.04565616324543953, 0.005040651652961969
129221, 2.639679193496704, -4.3583598136901855, -7.165928363800049, 0.15403646230697632, -0.1762116402387619, -0.004181699361652136, 0, 0, 0, 0, 0, 0, 0, 0, 0, 0, 0, 0, 0.0, 0.0, 0.0, 0.0, 9.0, 0.0, -2.0, 0.0, 0.0, 0.0, -0.04208120331168175, -0.3013168275356293, 0.015400391072034836, 0.045370809733867645, -0.04349345341324806, 0.006058579310774803
129231, 2.638169765472412, -4.3526129722595215, -7.1587090492248535, 0.1930587738752365, 0.07049604505300522, 0.008564040064811707, 0, 0, 0, 0, 0, 0, 0, 0, 0, 0, 0, 0, 0.0, 0.0, 0.0, 0.0, 9.0, -1.0, 0.0, 0.0, 0.0, 0.0, -0.04221591353416443, -0.30101242661476135, 0.015477037988603115, 0.04459395632147789, -0.04173893854022026, 0.006437960546463728
129242, 2.6215884685516357, -4.337383270263672, -7.166662693023682, 0.24737648665905, 0.10176166892051697, 0.15524756908416748, 0, 0, 0, 0, 0, 0, 0, 0, 0, 0, 0, 0, 0.0, 0.0, 0.0, 0.0, 21.0, -5.0, 4.0, 0.0, 0.0, 0.0, -0.04227105528116226, -0.30093681812286377, 0.015658408403396606, 0.04426189139485359, -0.04092145711183548, 0.007538406178355217
129251, 2.6447396278381348, -4.326536178588867, -7.174060821533203, 0.13068518042564392, 0.41800349950790405, -0.028483042493462563, 0, 0, 0, 0, 0, 0, 0, 0, 0, 0, 0, 0, 0.0, 0.0, 0.0, 0.0, 21.0, 2.0, -4.0, 0.0, 0.0, 0.0, -0.04250980541110039, -0.30056458711624146, 0.017540765926241875, 0.041148100048303604, -0.0375245176255703, 0.01896011084318161
129261, 2.6114132404327393, -4.37750244140625, -7.140491485595703, -0.027063027024269104, 0.20539246499538422, -0.10809850692749023, 0, 0, 0, 0, 0, 0, 0, 0, 0, 0, 0, 0, 0.0, 0.0, 0.0, 0.0, 21.0, 6.0, 3.0, 0.0, 0.0, 0.0, -0.04176778346300125, -0.3012310564517975, 0.01774524711072445, 0.04702863469719887, -0.04093523696064949, 0.018827611580491066
129271, 2.6323275566101074, -4.351044654846191, -7.1707353591918945, 0.10396473854780197, -0.2683175802230835, -0.15376852452754974, 0, 0, 0, 0, 0, 0, 0, 0, 0, 0, 0, 0, 0.0, 0.0, 0.0, 0.0, 21.0, -2.0, -3.0, 0.0, 0.0, 0.0, -0.04241933301091194, -0.3013952374458313, 0.017767125740647316, 0.04256952553987503, -0.043396878987550735, 0.018791114911437035
129281, 2.6364405155181885, -4.338555335998535, -7.1756768226623535, -0.17742042243480682, 0.010791615583002567, 0.011647392995655537, 0, 0, 0, 0, 0, 0, 0, 0, 0, 0, 0, 0, 0.0, 0.0, 0.0, 0.0, 21.0, -1.0, 0.0, 0.0, 0.0, 0.0, -0.042188309133052826, -0.3012704849243164, 0.01791168376803398, 0.04435742646455765, -0.04214194416999817, 0.018836138769984245
129292, 2.649418830871582, -4.3187665939331055, -7.169135093688965, 0.02552920952439308, -0.17023836076259613, 0.05182153359055519, 0, 0, 0, 0, 0, 0, 0, 0, 0, 0, 0, 0, 0.0, 0.0, 0.0, 0.0, 7.0, 3.0, 0.0, 0.0, 0.0, 0.0, -0.04199906066060066, -0.30149030685424805, 0.014663871377706528, 0.04605020210146904, -0.043547652661800385, -0.001634076819755137
129301, 2.670416831970215, -4.377249240875244, -7.131718158721924, 0.0568578764796257, 0.21856503188610077, -0.021545665338635445, 0, 0, 0, 0, 0, 0, 0, 0, 0, 0, 0, 0, 0.0, 0.0, 0.0, 0.0, 7.0, 0.0, -4.0, 0.0, 0.0, 0.0, -0.04247140511870384, -0.30129802227020264, 0.014785628765821457, 0.04353680834174156, -0.04380422085523605, -0.0009960668394342065
129311, 2.630079507827759, -4.379385471343994, -7.109582901000977, 0.21203318238258362, -0.2795407474040985, -0.035412803292274475, 0, 0, 0, 0, 0, 0, 0, 0, 0, 0, 0, 0, 0.0, 0.0, 0.0, 0.0, 7.0, -3.0, 4.0, 0.0, 0.0, 0.0, -0.04165874049067497, -0.3018040657043457, 0.01472252607345581, 0.050022900104522705, -0.04598069190979004, -0.0003269469307269901
129321, 2.6645333766937256, -4.409855842590332, -7.109343528747559, -0.0029679189901798964, -0.42493748664855957, 0.04315595328807831, 0, 0, 0, 0, 0, 0, 0, 0, 0, 0, 0, 0, 0.0, 0.0, 0.0, 0.0, 7.0, 3.0, -4.0, 0.0, 0.0, 0.0, -0.04198471084237099, -0.30154067277908325, 0.014946920797228813, 0.046968813985586166, -0.043795567005872726, 0.0012784022837877274
129332, 2.6426684856414795, -4.421624660491943, -7.099727153778076, 0.1339041292667389, 0.02149178460240364, -0.03648778423666954, 0, 0, 0, 0, 0, 0, 0, 0, 0, 0, 0, 0, 0.0, 0.0, 0.0, 0.0, 21.0, -9.0, 8.0, 0.0, 0.0, 0.0, -0.04196551814675331, -0.3014873266220093, 0.01496709045022726, 0.047773577272892, -0.044045742601156235, 0.0014185133622959256
129342, 2.661984443664551, -4.4309773445129395, -7.097833156585693, -0.06304773688316345, 0.19465968012809753, -0.11848694831132889, 0, 0, 0, 0, 0, 0, 0, 0, 0, 0, 0, 0, 0.0, 0.0, 0.0, 0.0, 21.0, 3.0, -6.0, 0.0, 0.0, 0.0, -0.04252146556973457, -0.3007398843765259, 0.017164165154099464, 0.04116548225283623, -0.03759526088833809, 0.01530416402965784
129351, 2.611945629119873, -4.374038219451904, -7.148355960845947, 0.009821344166994095, -0.04767609387636185, -0.04748765379190445, 0, 0, 0, 0, 0, 0, 0, 0, 0, 0, 0, 0, 0.0, 0.0, 0.0, 0.0, 21.0, 0.0, 1.0, 0.0, 0.0, 0.0, -0.04206822067499161, -0.3010513186454773, 0.01719994656741619, 0.04567524045705795, -0.03986198082566261, 0.01520510669797659
129361, 2.6424643993377686, -4.413789749145508, -7.1173200607299805, -0.028594976291060448, -0.011952591128647327, 0.008421136066317558, 0, 0, 0, 0, 0, 0, 0, 0, 0, 0, 0, 0, 0.0, 0.0, 0.0, 0.0, 21.0, 6.0, -4.0, 0.0, 0.0, 0.0, -0.042132530361413956, -0.30099350214004517, 0.017327897250652313, 0.04506567865610123, -0.03957837074995041, 0.015476441942155361
129371, 2.6282360553741455, -4.421637058258057, -7.08519172668457, 0.10494617372751236, -0.002565478440374136, -0.00940895825624466, 0, 0, 0, 0, 0, 0, 0, 0, 0, 0, 0, 0, 0.0, 0.0, 0.0, 0.0, 21.0, -7.0, 9.0, 0.0, 0.0, 0.0, -0.04148642718791962, -0.3020802140235901, 0.017456339672207832, 0.049782369285821915, -0.04594592750072479, 0.015090696513652802
129381, 2.6238887310028076, -4.378349304199219, -7.097256660461426, 0.17930549383163452, 0.05770421400666237, 0.16931341588497162, 0, 0, 0, 0, 0, 0, 0, 0, 0, 0, 0, 0, 0.0, 0.0, 0.0, 0.0, 8.0, 8.0, 0.0, 0.0, 0.0, 0.0, -0.04264429584145546, -0.30083340406417847, 0.01476005744189024, 0.04150925949215889, -0.03899867460131645, -0.0026297683361917734
129392, 2.655237913131714, -4.44632625579834, -7.071885108947754, 0.030262641608715057, 0.006635549012571573, 0.012718044221401215, 0, 0, 0, 0, 0, 0, 0, 0, 0, 0, 0, 0, 0.0, 0.0, 0.0, 0.0, 8.0, -6.0, 0.0, 0.0, 0.0, 0.0, -0.042779721319675446, -0.30153870582580566, 0.0147513747215271, 0.04162176325917244, -0.04506410285830498, -0.002102668397128582
129401, 2.6363649368286133, -4.372598648071289, -7.134829998016357, 0.09648623317480087, 0.17479562759399414, 0.07486395537853241, 0, 0, 0, 0, 0, 0, 0, 0, 0, 0, 0, 0, 0.0, 0.0, 0.0, 0.0, 8.0, 0.0, -3.0, 0.0, 0.0, 0.0, -0.04274941608309746, -0.30102792382240295, 0.014914912171661854, 0.04152839630842209, -0.04071391373872757, -0.000650135101750493
129411, 2.647562265396118, -4.347174167633057, -7.171273231506348, -0.12584441900253296, -0.2251855731010437, 0.06254846602678299, 0, 0, 0, 0, 0, 0, 0, 0, 0, 0, 0, 0, 0.0, 0.0, 0.0, 0.0, 8.0, 3.0, 3.0, 0.0, 0.0, 0.0, -0.042122140526771545, -0.3015141487121582, 0.014946657232940197, 0.04544208571314812, -0.04241025820374489, 0.0007657113019376993
129421, 2.632474422454834, -4.348142623901367, -7.153888702392578, -0.013116059824824333, 0.05295129492878914, -0.08676421642303467, 0, 0, 0, 0, 0, 0, 0, 0, 0, 0, 0, 0, 0.0, 0.0, 0.0, 0.0, 18.0, 0.0, -3.0, 0.0, 0.0, 0.0, -0.04248037561774254, -0.3017852306365967, 0.015088287182152271, 0.04264991357922554, -0.045277636498212814, 0.0019319813000038266
129431, 2.615241289138794, -4.338853359222412, -7.142533302307129, -0.16926170885562897, 0.21145744621753693, 0.023612957447767258, 0, 0, 0, 0, 0, 0, 0, 0, 0, 0, 0, 0, 0.0, 0.0, 0.0, 0.0, 18.0, 0.0, -5.0, 0.0, 0.0, 0.0, -0.04245144873857498, -0.3015140891075134, 0.016078762710094452, 0.042989831417798996, -0.04298686608672142, 0.008339732885360718
129442, 2.625798225402832, -4.447481632232666, -7.08671760559082, -0.013040262274444103, 0.0058129411190748215, -0.13619785010814667, 0, 0, 0, 0, 0, 0, 0, 0, 0, 0, 0, 0, 0.0, 0.0, 0.0, 0.0, 18.0, -7.0, 0.0, 0.0, 0.0, 0.0, -0.042003877460956573, -0.3015204668045044, 0.016115231439471245, 0.047097668051719666, -0.042641326785087585, 0.00858038105070591
129451, 2.6567189693450928, -4.427950859069824, -7.102363109588623, -0.06858599185943604, 0.03765074163675308, -0.15095067024230957, 0, 0, 0, 0, 0, 0, 0, 0, 0, 0, 0, 0, 0.0, 0.0, 0.0, 0.0, 18.0, 9.0, 0.0, 0.0, 0.0, 0.0, -0.041933733969926834, -0.30087363719940186, 0.016328293830156326, 0.04681435972452164, -0.03678182139992714, 0.009996291249990463
129461, 2.6301109790802, -4.352382659912109, -7.169311046600342, 0.07679952681064606, -0.11181063205003738, 0.0351601168513298, 0, 0, 0, 0, 0, 0, 0, 0, 0, 0, 0, 0, 0.0, 0.0, 0.0, 0.0, 18.0, -5.0, 8.0, 0.0, 0.0, 0.0, -0.04207362234592438, -0.3016645610332489, 0.01636815257370472, 0.04658439755439758, -0.04437316209077835, 0.010319938883185387
129471, 2.651610851287842, -4.342250347137451, -7.170343399047852, 0.1328311562538147, -0.196137472987175, -0.03534042090177536, 0, 0, 0, 0, 0, 0, 0, 0, 0, 0, 0, 0, 0.0, 0.0, 0.0, 0.0, 7.0, 5.0, -8.0, 0.0, 0.0, 0.0, -0.04260784760117531, -0.3014591336250305, 0.013633581809699535, 0.04159194976091385, -0.042266372591257095, -0.007313107140362263
129481, 2.6791775226593018, -4.367526531219482, -7.14601993560791, 0.14635033905506134, 0.08101966977119446, -0.07871769368648529, 0, 0, 0, 0, 0, 0, 0, 0, 0, 0, 0, 0, 0.0, 0.0, 0.0, 0.0, 7.0, -5.0, 3.0, 0.0, 0.0, 0.0, -0.04220714792609215, -0.3016604781150818, 0.01361373346298933, 0.04593952000141144, -0.04455072060227394, -0.007236928679049015
129492, 2.638262987136841, -4.34386682510376, -7.139268398284912, 0.02127738855779171, 0.10674650222063065, 0.07508190721273422, 0, 0, 0, 0, 0, 0, 0, 0, 0, 0, 0, 0, 0.0, 0.0, 0.0, 0.0, 7.0, 3.0, 0.0, 0.0, 0.0, 0.0, -0.04241378232836723, -0.3012320399284363, 0.013797850348055363, 0.04363502189517021, -0.040734224021434784, -0.005148735828697681
129501, 2.637650489807129, -4.361032962799072, -7.150050163269043, 0.2488740235567093, -0.3061550557613373, -0.07521244138479233, 0, 0, 0, 0, 0, 0, 0, 0, 0, 0, 0, 0, 0.0, 0.0, 0.0, 0.0, 7.0, 0.0, 0.0, 0.0, 0.0, 0.0, -0.04236680641770363, -0.3015713095664978, 0.013835092075169086, 0.04451488330960274, -0.04313770309090614, -0.00408724183216691
129511, 2.6783852577209473, -4.438199996948242, -7.093527793884277, 0.1748127043247223, 0.22773359715938568, 0.03724503889679909, 0, 0, 0, 0, 0, 0, 0, 0, 0, 0, 0, 0, 0.0, 0.0, 0.0, 0.0, 18.0, 0.0, 2.0, 0.0, 0.0, 0.0, -0.04213934764266014, -0.30181190371513367, 0.013897012919187546, 0.04637811705470085, -0.044990282505750656, -0.0030793293844908476
129521, 2.70701265335083, -4.382505416870117, -7.127024173736572, 0.02766287326812744, -0.15764375030994415, -0.04382682964205742, 0, 0, 0, 0, 0, 0, 0, 0, 0, 0, 0, 0, 0.0, 0.0, 0.0, 0.0, 18.0, 3.0, -5.0, 0.0, 0.0, 0.0, -0.042265649884939194, -0.30190610885620117, 0.015369011089205742, 0.04428718984127045, -0.04546549916267395, 0.006682667415589094
129531, 2.6227598190307617, -4.353988170623779, -7.151533603668213, 0.12330633401870728, -0.25619757175445557, -0.02105383761227131, 0, 0, 0, 0, 0, 0, 0, 0, 0, 0, 0, 0, 0.0, 0.0, 0.0, 0.0, 18.0, -4.0, 0.0, 0.0, 0.0, 0.0, -0.041744571179151535, -0.30237650871276855, 0.015375408343970776, 0.04852756857872009, -0.04773181676864624, 0.006846229545772076
129542, 2.6124916076660156, -4.353115558624268, -7.168211460113525, 0.13628323376178741, -0.12065723538398743, 0.0010821509640663862, 0, 0, 0, 0, 0, 0, 0, 0, 0, 0, 0, 0, 0.0, 0.0, 0.0, 0.0, 18.0, 0.0, 3.0, 0.0, 0.0, 0.0, -0.04180397838354111, -0.30195295810699463, 0.015600098296999931, 0.047375425696372986, -0.043020062148571014, 0.007891963236033916
129552, 2.6397268772125244, -4.320157527923584, -7.151933193206787, 0.14646261930465698, -0.09299702197313309, 0.07444101572036743, 0, 0, 0, 0, 0, 0, 0, 0, 0, 0, 0, 0, 0.0, 0.0, 0.0, 0.0, 18.0, 1.0, 2.0, 0.0, 0.0, 0.0, -0.04210180789232254, -0.3018687665462494, 0.015811437740921974, 0.044521067291498184, -0.04290446639060974, 0.008925392292439938
129561, 2.6525535583496094, -4.370924949645996, -7.116087436676025, -0.03860323876142502, -0.000349977461155504, -0.014300869777798653, 0, 0, 0, 0, 0, 0, 0, 0, 0, 0, 0, 0, 0.0, 0.0, 0.0, 0.0, 8.0, 2.0, 3.0, 0.0, 0.0, 0.0, -0.04255085438489914, -0.30181482434272766, 0.013349302113056183, 0.0420624278485775, -0.0438678152859211, -0.00784439779818058
129571, 2.6197237968444824, -4.332283973693848, -7.1507673263549805, -0.029264647513628006, -0.05935925990343094, -0.12741893529891968, 0, 0, 0, 0, 0, 0, 0, 0, 0, 0, 0, 0, 0.0, 0.0, 0.0, 0.0, 8.0, -4.0, 0.0, 0.0, 0.0, 0.0, -0.04285009950399399, -0.30191877484321594, 0.013435588218271732, 0.039784640073776245, -0.04548429325222969, -0.006243913434445858
129581, 2.619602680206299, -4.304083347320557, -7.173751354217529, -0.16848264634609222, -0.10667402297258377, -0.1478019505739212, 0, 0, 0, 0, 0, 0, 0, 0, 0, 0, 0, 0, 0.0, 0.0, 0.0, 0.0, 8.0, 2.0, -2.0, 0.0, 0.0, 0.0, -0.04275239259004593, -0.301658034324646, 0.013519691303372383, 0.03978844732046127, -0.04137694835662842, -0.004977124743163586
129591, 2.617844581604004, -4.373263359069824, -7.122735500335693, 0.14401137828826904, 0.03375999256968498, 0.07755525410175323, 0, 0, 0, 0, 0, 0, 0, 0, 0, 0, 0, 0, 0.0, 0.0, 0.0, 0.0, 8.0, 2.0, -6.0, 0.0, 0.0, 0.0, -0.04263206571340561, -0.3018339276313782, 0.013617890886962414, 0.04089977219700813, -0.042696986347436905, -0.00349569134414196
129601, 2.65250563621521, -4.320979595184326, -7.186696529388428, 0.04972979798913002, -0.46481195092201233, -0.052606500685214996, 0, 0, 0, 0, 0, 0, 0, 0, 0, 0, 0, 0, 0.0, 0.0, 0.0, 0.0, 17.0, -7.0, 3.0, 0.0, 0.0, 0.0, -0.042073678225278854, -0.30204635858535767, 0.0136615801602602, 0.0462159588932991, -0.04444169998168945, -0.0022455938160419464
129611, 2.708735704421997, -4.365854263305664, -7.1538825035095215, -0.08068562299013138, -0.22558501362800598, 0.12192549556493759, 0, 0, 0, 0, 0, 0, 0, 0, 0, 0, 0, 0, 0.0, 0.0, 0.0, 0.0, 17.0, 5.0, 2.0, 0.0, 0.0, 0.0, -0.042237088084220886, -0.3013524115085602, 0.014968717470765114, 0.04332370683550835, -0.03878983482718468, 0.006422561593353748
129621, 2.635434865951538, -4.404544353485107, -7.117701530456543, -0.02402905933558941, -0.0925777480006218, 0.19485124945640564, 0, 0, 0, 0, 0, 0, 0, 0, 0, 0, 0, 0, 0.0, 0.0, 0.0, 0.0, 17.0, 2.0, -5.0, 0.0, 0.0, 0.0, -0.04258013516664505, -0.3017970025539398, 0.015122555196285248, 0.040587130934000015, -0.04251701384782791, 0.0072530219331383705
129631, 2.648179054260254, -4.333889484405518, -7.181161403656006, 0.05260741338133812, 0.09606613963842392, -0.31995889544487, 0, 0, 0, 0, 0, 0, 0, 0, 0, 0, 0, 0, 0.0, 0.0, 0.0, 0.0, 17.0, -1.0, 0.0, 0.0, 0.0, 0.0, -0.04199506342411041, -0.30211901664733887, 0.015125809237360954, 0.045606669038534164, -0.04404906928539276, 0.0074013168923556805
129641, 2.6257643699645996, -4.32052755355835, -7.180986404418945, -0.17306239902973175, -0.07286389172077179, -0.009434957057237625, 0, 0, 0, 0, 0, 0, 0, 0, 0, 0, 0, 0, 0.0, 0.0, 0.0, 0.0, 17.0, -8.0, 8.0, 0.0, 0.0, 0.0, -0.042061302810907364, -0.3019975423812866, 0.015350556932389736, 0.044330403208732605, -0.04287640377879143, 0.008700665086507797
