timeTick, roll, pitch, yaw, stateX, stateY, stateZ, stateVX, stateVY, stateVZ, stateROLL, statePITCH, stateYAW, whisker1, whisker2, whisker3, motor1, motor2, motor3, motor4, kalX, kalY, kalZ, kalPX, kalPY, kalPZ
752286, -0.14094766974449158, 0.033500488847494125, -3.0626840591430664, 0, 0, 0, 0, 0, 0, 0, 0, 0, 0, 0, 0, 0, 0, 0, 0, 0, 0, 0, 0, 0, 0
752296, -0.16882745921611786, 0.038011129945516586, -3.1478142738342285, 0, 0, 0, 0, 0, 0, 0, 0, 0, 0, 0, 0, 0.0, 0.0, 0.0, 0.0, -0.023334413766860962, -1.4149479866027832, 0.016672780737280846, -0.001781970146112144, 0.009209001436829567, -0.0026387956459075212
752307, -0.12118811905384064, 0.039803870022296906, -3.221698045730591, 0, 0, 0, 0, 0, 0, 0, 0, 0, 0, 0, 0, 0.0, 0.0, 0.0, 0.0, -0.023827115073800087, -1.4135159254074097, 0.01665090210735798, -0.002659506630152464, 0.0037991555873304605, -0.0026208916679024696
752316, -0.10663638263940811, 0.036230579018592834, -3.2579123973846436, 0, 0, 0, 0, 0, 0, 0, 0, 0, 0, 0, 0, 0.0, 0.0, 0.0, 0.0, -0.023936964571475983, -1.4130605459213257, 0.016616636887192726, -0.0023342876229435205, 0.0022391648963093758, -0.0025978954508900642
752326, -0.10680658370256424, 0.03068205900490284, -3.3330681324005127, 0, 0, 0, 0, 0, 0, 0, 0, 0, 0, 0, 0, 0.0, 0.0, 0.0, 0.0, -0.023997506126761436, -1.4123470783233643, 0.0165704432874918, -0.002266124589368701, 0.0023640552535653114, -0.002543288515880704
752336, -0.15315969288349152, -0.05810501053929329, -3.398087978363037, 0, 0, 0, 0, 0, 0, 0, 0, 0, 0, 0, 0, 0.0, 0.0, 0.0, 0.0, -0.023641344159841537, -1.4116991758346558, 0.017017653211951256, 0.008463378064334393, 0.008769354782998562, 0.00029966316651552916
752346, -0.09572891145944595, 0.013449924066662788, -3.450150728225708, 0, 0, 0, 0, 0, 0, 0, 0, 0, 0, 0, 0, 0.0, 0.0, 0.0, 0.0, -0.02410571463406086, -1.4116873741149902, 0.017023103311657906, -0.0008751994464546442, 0.0016236556693911552, 0.00041320023592561483
752357, -0.10386195778846741, 0.018639080226421356, -3.506582021713257, 0, 0, 0, 0, 0, 0, 0, 0, 0, 0, 0, 0, 0.0, 0.0, 0.0, 0.0, -0.024192679673433304, -1.4115391969680786, 0.017005858942866325, -0.0019723072182387114, 0.002515125321224332, 0.0004466910322662443
752368, -0.08225378394126892, 0.01560787484049797, -3.5305824279785156, 0, 0, 0, 0, 0, 0, 0, 0, 0, 0, 0, 0, 0.0, 0.0, 0.0, 0.0, -0.024240361526608467, -1.411397933959961, 0.016968630254268646, -0.0015572516713291407, -0.0002307421964360401, 2.5298159016529098e-05
752378, -0.09815216064453125, 0.0068639242090284824, -3.5852808952331543, 0, 0, 0, 0, 0, 0, 0, 0, 0, 0, 0, 0, 0.0, 0.0, 0.0, 0.0, -0.02420899271965027, -1.4111799001693726, 0.016960961744189262, -0.0012042891466990113, 0.002167187398299575, -0.0002639726735651493
752386, -0.09350187331438065, -0.1250740885734558, -3.6353142261505127, 0, 0, 0, 0, 0, 0, 0, 0, 0, 0, 0, 0, 0.0, 0.0, 0.0, 0.0, -0.023287707939743996, -1.4111334085464478, 0.016932902857661247, 0.016590435057878494, 0.0019718599505722523, -0.0005088093457743526
752396, -0.0915522500872612, -0.15488871932029724, -3.6737091541290283, 0, 0, 0, 0, 0, 0, 0, 0, 0, 0, 0, 0, 0.0, 0.0, 0.0, 0.0, -0.022956637665629387, -1.4110338687896729, 0.016894366592168808, 0.020819934085011482, 0.0015893997624516487, -0.0007963983807712793
752406, -0.08870743215084076, -0.07026881724596024, -3.7121102809906006, 0, 0, 0, 0, 0, 0, 0, 0, 0, 0, 0, 0, 0.0, 0.0, 0.0, 0.0, -0.02358860895037651, -1.4109376668930054, 0.016907330602407455, 0.008916604332625866, 0.0013362428871914744, -0.0007213989738374949
752417, -0.07792078703641891, -0.04438815638422966, -3.7476143836975098, 0, 0, 0, 0, 0, 0, 0, 0, 0, 0, 0, 0, 0.0, 0.0, 0.0, 0.0, -0.023821484297513962, -1.410953402519226, 0.016872908920049667, 0.0051840199157595634, 2.2783915483159944e-05, -0.0009563356288708746
752428, -0.111177958548069, -0.06195100024342537, -3.7682766914367676, 0, 0, 0, 0, 0, 0, 0, 0, 0, 0, 0, 0, 0.0, 0.0, 0.0, 0.0, -0.02370821125805378, -1.4106613397598267, 0.016257671639323235, 0.00732208089902997, 0.004826897755265236, -0.004887966439127922
752436, -0.10732485353946686, -0.036832552403211594, -3.7944517135620117, 0, 0, 0, 0, 0, 0, 0, 0, 0, 0, 0, 0, 0.0, 0.0, 0.0, 0.0, -0.02391154319047928, -1.4105883836746216, 0.016222380101680756, 0.0037775030359625816, 0.004420462995767593, -0.004568025004118681
752446, -0.07040812820196152, -0.014395863749086857, -3.8341264724731445, 0, 0, 0, 0, 0, 0, 0, 0, 0, 0, 0, 0, 0.0, 0.0, 0.0, 0.0, -0.024143191054463387, -1.410826563835144, 0.016184715554118156, 0.00042131749796681106, -0.0007557565695606172, -0.004362873267382383
752456, -0.08392393589019775, -0.05207670480012894, -3.862927198410034, 0, 0, 0, 0, 0, 0, 0, 0, 0, 0, 0, 0, 0.0, 0.0, 0.0, 0.0, -0.02381068654358387, -1.4106462001800537, 0.016149545088410378, 0.005387202836573124, 0.0014860595110803843, -0.004255940672010183
752467, -0.06513587385416031, -0.01150804664939642, -3.873732089996338, 0, 0, 0, 0, 0, 0, 0, 0, 0, 0, 0, 0, 0.0, 0.0, 0.0, 0.0, -0.024237338453531265, -1.410772681236267, 0.017023367807269096, -0.0008379693608731031, -0.0011404468677937984, 0.0017613969976082444
752476, -0.06309426575899124, -0.044077444821596146, -3.9009315967559814, 0, 0, 0, 0, 0, 0, 0, 0, 0, 0, 0, 0, 0.0, 0.0, 0.0, 0.0, -0.02398161217570305, -1.410778522491455, 0.017023276537656784, 0.002844404662027955, -0.001111694029532373, 0.0017123096622526646
752486, -0.08751139044761658, -0.05636433884501457, -3.9341025352478027, 0, 0, 0, 0, 0, 0, 0, 0, 0, 0, 0, 0, 0.0, 0.0, 0.0, 0.0, -0.023861920461058617, -1.4104944467544556, 0.017011860385537148, 0.004242588300257921, 0.0025240322574973106, 0.001662381924688816
752496, -0.05901889503002167, -0.058170463889837265, -3.9520928859710693, 0, 0, 0, 0, 0, 0, 0, 0, 0, 0, 0, 0, 0.0, 0.0, 0.0, 0.0, -0.02388373203575611, -1.4107446670532227, 0.016998115926980972, 0.0042172628454864025, -0.0011525795562192798, 0.0015574708813801408
752506, -0.05952552333474159, -0.0949573665857315, -3.9814822673797607, 0, 0, 0, 0, 0, 0, 0, 0, 0, 0, 0, 0, 0.0, 0.0, 0.0, 0.0, -0.023513687774538994, -1.4107410907745361, 0.01696612872183323, 0.008880079723894596, -0.0010516843758523464, 0.001412030542269349
752518, -0.06733183562755585, -0.10385408252477646, -3.9927122592926025, 0, 0, 0, 0, 0, 0, 0, 0, 0, 0, 0, 0, 0.0, 0.0, 0.0, 0.0, -0.023376263678073883, -1.4106377363204956, 0.017945334315299988, 0.009932423941791058, 0.00019256801169831306, 0.007494963239878416
752526, -0.06434645503759384, -0.07227266579866409, -4.012246608734131, 0, 0, 0, 0, 0, 0, 0, 0, 0, 0, 0, 0, 0.0, 0.0, 0.0, 0.0, -0.023742325603961945, -1.4105920791625977, 0.017960401251912117, 0.005371407140046358, 5.762909495388158e-05, 0.007131320424377918
752536, -0.05331750586628914, -0.03409433737397194, -4.032504081726074, 0, 0, 0, 0, 0, 0, 0, 0, 0, 0, 0, 0, 0.0, 0.0, 0.0, 0.0, -0.024221155792474747, -1.4106435775756836, 0.01795627549290657, -0.00013956463953945786, -0.0011613452807068825, 0.006768682971596718
752546, -0.052197594195604324, -0.037359315901994705, -4.050841331481934, 0, 0, 0, 0, 0, 0, 0, 0, 0, 0, 0, 0, 0.0, 0.0, 0.0, 0.0, -0.02422037161886692, -1.4106428623199463, 0.017937228083610535, 0.00038928762660361826, -0.0012756952783092856, 0.006346132606267929
752556, -0.07096122205257416, -0.08599906414747238, -4.076233386993408, 0, 0, 0, 0, 0, 0, 0, 0, 0, 0, 0, 0, 0.0, 0.0, 0.0, 0.0, -0.02366742677986622, -1.41044020652771, 0.017929311841726303, 0.006680434104055166, 0.0012164309155195951, 0.00606678519397974
752567, -0.0677574872970581, -0.11947615444660187, -4.083617687225342, 0, 0, 0, 0, 0, 0, 0, 0, 0, 0, 0, 0, 0.0, 0.0, 0.0, 0.0, -0.023193372413516045, -1.4104599952697754, 0.017957203090190887, 0.011310173198580742, 0.0010643029818311334, 0.006022572983056307
752576, -0.05754575505852699, -0.11994830518960953, -4.101118564605713, 0, 0, 0, 0, 0, 0, 0, 0, 0, 0, 0, 0, 0.0, 0.0, 0.0, 0.0, -0.02319912612438202, -1.4105933904647827, 0.017965730279684067, 0.010900668799877167, -0.00046427370398305357, 0.005681151058524847
752586, -0.07431476563215256, -0.08630913496017456, -4.122217655181885, 0, 0, 0, 0, 0, 0, 0, 0, 0, 0, 0, 0, 0.0, 0.0, 0.0, 0.0, -0.023622719570994377, -1.410307765007019, 0.01794617809355259, 0.0058083790354430676, 0.0018061429727822542, 0.005288552958518267
752596, -0.045902833342552185, -0.08354448527097702, -4.135271072387695, 0, 0, 0, 0, 0, 0, 0, 0, 0, 0, 0, 0, 0.0, 0.0, 0.0, 0.0, -0.023732438683509827, -1.4106268882751465, 0.0179139394313097, 0.004793456755578518, -0.0019249237375333905, 0.0047079878859221935
752606, -0.05157710239291191, -0.17122575640678406, -4.153604030609131, 0, 0, 0, 0, 0, 0, 0, 0, 0, 0, 0, 0, 0.0, 0.0, 0.0, 0.0, -0.022459451109170914, -1.4106062650680542, 0.017224706709384918, 0.017566874623298645, -0.0009887813357636333, 0.00020782649517059326
752617, -0.02803497388958931, -0.05487128719687462, -4.149285316467285, 0, 0, 0, 0, 0, 0, 0, 0, 0, 0, 0, 0, 0.0, 0.0, 0.0, 0.0, -0.024124398827552795, -1.4108514785766602, 0.01723930612206459, 0.0009931899840012193, -0.004503805655986071, 0.0004457823233678937
752628, -0.035304777324199677, -0.11675295233726501, -4.163660049438477, 0, 0, 0, 0, 0, 0, 0, 0, 0, 0, 0, 0, 0.0, 0.0, 0.0, 0.0, -0.02336343564093113, -1.4107518196105957, 0.017221713438630104, 0.008761010132730007, -0.00312008336186409, 0.0003276378265582025
752636, -0.04258523881435394, -0.05859941616654396, -4.175931453704834, 0, 0, 0, 0, 0, 0, 0, 0, 0, 0, 0, 0, 0.0, 0.0, 0.0, 0.0, -0.024222368374466896, -1.410590648651123, 0.0172045286744833, -0.0003315751673653722, -0.0020519718527793884, 0.00060598662821576
752646, -0.03342768922448158, -0.13823680579662323, -4.187499046325684, 0, 0, 0, 0, 0, 0, 0, 0, 0, 0, 0, 0, 0.0, 0.0, 0.0, 0.0, -0.02324061095714569, -1.4107705354690552, 0.01679045893251896, 0.01034218817949295, -0.003273148089647293, -0.0020728379022330046
752656, -0.04878685623407364, -0.09983555227518082, -4.199647426605225, 0, 0, 0, 0, 0, 0, 0, 0, 0, 0, 0, 0, 0.0, 0.0, 0.0, 0.0, -0.02377922087907791, -1.4105144739151, 0.016765199601650238, 0.00442927423864603, -0.0010632575722411275, -0.002104782732203603
752666, -0.03778399899601936, -0.10200157761573792, -4.210102558135986, 0, 0, 0, 0, 0, 0, 0, 0, 0, 0, 0, 0, 0.0, 0.0, 0.0, 0.0, -0.0237905103713274, -1.4106240272521973, 0.01672501675784588, 0.0043837460689246655, -0.0022233433555811644, -0.0023202067241072655
752676, -0.03688444942235947, -0.10387884825468063, -4.2163848876953125, 0, 0, 0, 0, 0, 0, 0, 0, 0, 0, 0, 0, 0.0, 0.0, 0.0, 0.0, -0.02375999093055725, -1.4106433391571045, 0.016689889132976532, 0.0046114022843539715, -0.0023693726398050785, -0.0023590305354446173
752686, -0.03828729689121246, -0.14827820658683777, -4.221107482910156, 0, 0, 0, 0, 0, 0, 0, 0, 0, 0, 0, 0, 0.0, 0.0, 0.0, 0.0, -0.023159531876444817, -1.410663366317749, 0.016636334359645844, 0.01039074081927538, -0.0023141661658883095, -0.002459574257954955
752696, -0.054495543241500854, -0.1467757374048233, -4.234039306640625, 0, 0, 0, 0, 0, 0, 0, 0, 0, 0, 0, 0, 0.0, 0.0, 0.0, 0.0, -0.02317827381193638, -1.4104411602020264, 0.01606222614645958, 0.009966474957764149, -8.215884008677676e-05, -0.006111245136708021
752707, -0.026011159643530846, -0.08376823365688324, -4.2410736083984375, 0, 0, 0, 0, 0, 0, 0, 0, 0, 0, 0, 0, 0.0, 0.0, 0.0, 0.0, -0.02412179484963417, -1.4107136726379395, 0.016039971262216568, 0.0012272095773369074, -0.0033795346971601248, -0.005821689963340759
752718, -0.027092892676591873, -0.08655216544866562, -4.246601104736328, 0, 0, 0, 0, 0, 0, 0, 0, 0, 0, 0, 0, 0.0, 0.0, 0.0, 0.0, -0.024115098640322685, -1.4107491970062256, 0.015996675938367844, 0.001514425384812057, -0.0037336985114961863, -0.005669154226779938
752727, -0.05900141969323158, -0.10856661200523376, -4.2601542472839355, 0, 0, 0, 0, 0, 0, 0, 0, 0, 0, 0, 0, 0.0, 0.0, 0.0, 0.0, -0.023816313594579697, -1.4102579355239868, 0.015957532450556755, 0.003937683533877134, 0.0007806969806551933, -0.005343681667000055
752736, -0.03890636935830116, -0.09643138945102692, -4.2696332931518555, 0, 0, 0, 0, 0, 0, 0, 0, 0, 0, 0, 0, 0.0, 0.0, 0.0, 0.0, -0.024061430245637894, -1.4104760885238647, 0.016918014734983444, 0.002021844731643796, -0.0014887897996231914, 0.0012584718642756343
752746, -0.06254389137029648, -0.15943056344985962, -4.2810139656066895, 0, 0, 0, 0, 0, 0, 0, 0, 0, 0, 0, 0, 0.0, 0.0, 0.0, 0.0, -0.02320890873670578, -1.410184621810913, 0.016901517286896706, 0.009770764037966728, 0.0016264363657683134, 0.0012317795772105455
752757, -0.03764442726969719, -0.13916157186031342, -4.275772571563721, 0, 0, 0, 0, 0, 0, 0, 0, 0, 0, 0, 0, 0.0, 0.0, 0.0, 0.0, -0.02345539629459381, -1.4105175733566284, 0.016910960897803307, 0.00766796013340354, -0.0015664983075112104, 0.0015016578836366534
752767, -0.02938706986606121, -0.12759773433208466, -4.279812335968018, 0, 0, 0, 0, 0, 0, 0, 0, 0, 0, 0, 0, 0.0, 0.0, 0.0, 0.0, -0.023593051359057426, -1.4106298685073853, 0.016904352232813835, 0.006550122518092394, -0.002627300564199686, 0.0017406484112143517
752778, 0.0042230780236423016, -0.11874110996723175, -4.283254623413086, 0, 0, 0, 0, 0, 0, 0, 0, 0, 0, 0, 0, 0.0, 0.0, 0.0, 0.0, -0.02374602109193802, -1.4110832214355469, 0.016891255974769592, 0.005474905017763376, -0.006852596998214722, 0.001724237110465765
752788, 0.0011402894742786884, -0.16244812309741974, -4.2914533615112305, 0, 0, 0, 0, 0, 0, 0, 0, 0, 0, 0, 0, 0.0, 0.0, 0.0, 0.0, -0.02318725734949112, -1.4111281633377075, 0.016586627811193466, 0.010451612062752247, -0.006795293185859919, -0.0003184736124239862
752797, -0.05772687494754791, -0.1348055601119995, -4.295741558074951, 0, 0, 0, 0, 0, 0, 0, 0, 0, 0, 0, 0, 0.0, 0.0, 0.0, 0.0, -0.02346464805305004, -1.4102832078933716, 0.016587484627962112, 0.007264075800776482, 0.0005388356512412429, -0.0001786003849701956
752806, -0.03913746401667595, -0.11829744279384613, -4.294816970825195, 0, 0, 0, 0, 0, 0, 0, 0, 0, 0, 0, 0, 0.0, 0.0, 0.0, 0.0, -0.02370910905301571, -1.4105126857757568, 0.016587330028414726, 0.005200276616960764, -0.00172679394017905, 6.577419117093086e-05
752816, -0.03278718143701553, -0.11965738236904144, -4.303916931152344, 0, 0, 0, 0, 0, 0, 0, 0, 0, 0, 0, 0, 0.0, 0.0, 0.0, 0.0, -0.023722445592284203, -1.410626769065857, 0.016579296439886093, 0.0051351869478821754, -0.0026846861001104116, 0.00022938704933039844
752826, -0.0316731296479702, -0.15792398154735565, -4.312392711639404, 0, 0, 0, 0, 0, 0, 0, 0, 0, 0, 0, 0, 0.0, 0.0, 0.0, 0.0, -0.02325332723557949, -1.4106448888778687, 0.01669897884130478, 0.008998005650937557, -0.0025532881263643503, 0.0012394937220960855
752836, -0.030822861939668655, -0.10135981440544128, -4.32054328918457, 0, 0, 0, 0, 0, 0, 0, 0, 0, 0, 0, 0, 0.0, 0.0, 0.0, 0.0, -0.02403784543275833, -1.4105772972106934, 0.016708679497241974, 0.0019422359764575958, -0.0026639322750270367, 0.0014043947448953986
752846, -0.046432409435510635, -0.13719093799591064, -4.322735786437988, 0, 0, 0, 0, 0, 0, 0, 0, 0, 0, 0, 0, 0.0, 0.0, 0.0, 0.0, -0.023557312786579132, -1.4103864431381226, 0.01671263389289379, 0.006075786892324686, -0.0007728775963187218, 0.0014175564283505082
752856, -0.045801252126693726, -0.1277155876159668, -4.324823379516602, 0, 0, 0, 0, 0, 0, 0, 0, 0, 0, 0, 0, 0.0, 0.0, 0.0, 0.0, -0.02368295192718506, -1.4103792905807495, 0.016704827547073364, 0.005143575835973024, -0.0009970503160730004, 0.0013656808296218514
752866, -0.03759905323386192, -0.15841491520404816, -4.320402145385742, 0, 0, 0, 0, 0, 0, 0, 0, 0, 0, 0, 0, 0.0, 0.0, 0.0, 0.0, -0.023254409432411194, -1.4105507135391235, 0.016700468957424164, 0.009020012803375721, -0.0022284137085080147, 0.0014758070465177298
752876, -0.05576682090759277, -0.16421988606452942, -4.317187786102295, 0, 0, 0, 0, 0, 0, 0, 0, 0, 0, 0, 0, 0.0, 0.0, 0.0, 0.0, -0.02313423343002796, -1.4103420972824097, 0.017122430726885796, 0.00978449359536171, -0.0003613652370404452, 0.004226348362863064
752886, -0.031035451218485832, -0.09635501354932785, -4.320058345794678, 0, 0, 0, 0, 0, 0, 0, 0, 0, 0, 0, 0, 0.0, 0.0, 0.0, 0.0, -0.02403278462588787, -1.4105976819992065, 0.01714741252362728, 0.0021493034437298775, -0.00335263111628592, 0.004258609842509031
752896, -0.03244035318493843, -0.1282651573419571, -4.329874515533447, 0, 0, 0, 0, 0, 0, 0, 0, 0, 0, 0, 0, 0.0, 0.0, 0.0, 0.0, -0.023699374869465828, -1.4106212854385376, 0.017146768048405647, 0.005184560548514128, -0.003392318496480584, 0.004046500660479069
752907, -0.031667646020650864, -0.13077156245708466, -4.33170223236084, 0, 0, 0, 0, 0, 0, 0, 0, 0, 0, 0, 0, 0.0, 0.0, 0.0, 0.0, -0.02367756888270378, -1.4106509685516357, 0.017149385064840317, 0.005434691905975342, -0.0037363155279308558, 0.004052962642163038
752916, -0.06800437718629837, -0.1786065548658371, -4.33449125289917, 0, 0, 0, 0, 0, 0, 0, 0, 0, 0, 0, 0, 0.0, 0.0, 0.0, 0.0, -0.022935472428798676, -1.4102449417114258, 0.017724379897117615, 0.011336867697536945, 8.98140060598962e-05, 0.007802464067935944
752926, -0.048878420144319534, -0.08673198521137238, -4.335496425628662, 0, 0, 0, 0, 0, 0, 0, 0, 0, 0, 0, 0, 0.0, 0.0, 0.0, 0.0, -0.024103878065943718, -1.4103869199752808, 0.01777045428752899, 0.0012295050546526909, -0.0020143205765634775, 0.007938278838992119
752936, -0.0314394049346447, -0.08893339335918427, -4.337538719177246, 0, 0, 0, 0, 0, 0, 0, 0, 0, 0, 0, 0, 0.0, 0.0, 0.0, 0.0, -0.024110831320285797, -1.4106123447418213, 0.017785541713237762, 0.0016755381366237998, -0.0039041501004248857, 0.007543060462921858
752946, -0.039988692849874496, -0.12249144166707993, -4.33657169342041, 0, 0, 0, 0, 0, 0, 0, 0, 0, 0, 0, 0, 0.0, 0.0, 0.0, 0.0, -0.023673828691244125, -1.4105620384216309, 0.017790349200367928, 0.005679902154952288, -0.003019285388290882, 0.007047995924949646
752956, -0.023858435451984406, -0.11937570571899414, -4.332404136657715, 0, 0, 0, 0, 0, 0, 0, 0, 0, 0, 0, 0, 0.0, 0.0, 0.0, 0.0, -0.02369651570916176, -1.4107931852340698, 0.017783906310796738, 0.005655287764966488, -0.004832766950130463, 0.006602796260267496
752967, -0.04240146279335022, -0.15924759209156036, -4.328352928161621, 0, 0, 0, 0, 0, 0, 0, 0, 0, 0, 0, 0, 0.0, 0.0, 0.0, 0.0, -0.023104269057512283, -1.410620093345642, 0.017575867474079132, 0.010504309087991714, -0.002711700042709708, 0.004983443301171064
752976, -0.0341973640024662, -0.13300497829914093, -4.338194847106934, 0, 0, 0, 0, 0, 0, 0, 0, 0, 0, 0, 0, 0.0, 0.0, 0.0, 0.0, -0.023448044434189796, -1.410693645477295, 0.01757659949362278, 0.007411404047161341, -0.0035438945051282644, 0.004830954130738974
752986, -0.026021884754300117, -0.08005940169095993, -4.339719295501709, 0, 0, 0, 0, 0, 0, 0, 0, 0, 0, 0, 0, 0.0, 0.0, 0.0, 0.0, -0.02412514202296734, -1.410765290260315, 0.01758919470012188, 0.0015542508335784078, -0.004509574733674526, 0.004839466884732246
752996, -0.03504541888833046, -0.10224512964487076, -4.336301803588867, 0, 0, 0, 0, 0, 0, 0, 0, 0, 0, 0, 0, 0.0, 0.0, 0.0, 0.0, -0.023771410807967186, -1.4106667041778564, 0.0175663772970438, 0.004764690063893795, -0.003517795354127884, 0.004498009569942951
753006, -0.045455202460289, -0.10321970283985138, -4.338086128234863, 0, 0, 0, 0, 0, 0, 0, 0, 0, 0, 0, 0, 0.0, 0.0, 0.0, 0.0, -0.02374839596450329, -1.4105479717254639, 0.018612712621688843, 0.004965420346707106, -0.002859179163351655, 0.010762894526124
753018, -0.04658889397978783, -0.11210979521274567, -4.338906764984131, 0, 0, 0, 0, 0, 0, 0, 0, 0, 0, 0, 0, 0.0, 0.0, 0.0, 0.0, -0.023638872429728508, -1.4105815887451172, 0.01867031306028366, 0.00610787607729435, -0.0031254831701517105, 0.010514176450669765
753028, -0.028844498097896576, -0.07734803110361099, -4.338001251220703, 0, 0, 0, 0, 0, 0, 0, 0, 0, 0, 0, 0, 0.0, 0.0, 0.0, 0.0, -0.024102890864014626, -1.4107786417007446, 0.018671732395887375, 0.0023676727432757616, -0.00492318207398057, 0.010085315443575382
753036, -0.03972182795405388, -0.15445253252983093, -4.346962928771973, 0, 0, 0, 0, 0, 0, 0, 0, 0, 0, 0, 0, 0.0, 0.0, 0.0, 0.0, -0.023090116679668427, -1.4107290506362915, 0.01865345425903797, 0.0112205371260643, -0.0035826140083372593, 0.009275694377720356
753046, -0.04071518033742905, -0.12048697471618652, -4.349076271057129, 0, 0, 0, 0, 0, 0, 0, 0, 0, 0, 0, 0, 0.0, 0.0, 0.0, 0.0, -0.023519570007920265, -1.4106853008270264, 0.01863447204232216, 0.007272873539477587, -0.0035225790925323963, 0.008401207625865936
753056, -0.06488771736621857, -0.14824922382831573, -4.3465070724487305, 0, 0, 0, 0, 0, 0, 0, 0, 0, 0, 0, 0, 0.0, 0.0, 0.0, 0.0, -0.02304249070584774, -1.4104090929031372, 0.01878516934812069, 0.011026732623577118, -0.000675482617225498, 0.008921486325562
753067, -0.03198179975152016, -0.07632680982351303, -4.341516971588135, 0, 0, 0, 0, 0, 0, 0, 0, 0, 0, 0, 0, 0.0, 0.0, 0.0, 0.0, -0.02396291308104992, -1.4107749462127686, 0.018787909299135208, 0.002932996256276965, -0.0044596535153687, 0.008554518222808838
753076, -0.03158986195921898, -0.06782179325819016, -4.3398027420043945, 0, 0, 0, 0, 0, 0, 0, 0, 0, 0, 0, 0, 0.0, 0.0, 0.0, 0.0, -0.024081306532025337, -1.410781979560852, 0.018748406320810318, 0.002183112781494856, -0.004425480961799622, 0.007848108187317848
753086, -0.04102777689695358, -0.09428741782903671, -4.344949245452881, 0, 0, 0, 0, 0, 0, 0, 0, 0, 0, 0, 0, 0.0, 0.0, 0.0, 0.0, -0.023744001984596252, -1.4107019901275635, 0.018700243905186653, 0.005428514443337917, -0.003367639146745205, 0.007212449796497822
753096, -0.06816696375608444, -0.09515473246574402, -4.3529815673828125, 0, 0, 0, 0, 0, 0, 0, 0, 0, 0, 0, 0, 0.0, 0.0, 0.0, 0.0, -0.023711280897259712, -1.4103690385818481, 0.018437763676047325, 0.00554252415895462, -0.00034917000448331237, 0.005244093481451273
753107, -0.06819775700569153, -0.1255781352519989, -4.353078365325928, 0, 0, 0, 0, 0, 0, 0, 0, 0, 0, 0, 0, 0.0, 0.0, 0.0, 0.0, -0.02324657142162323, -1.4103775024414062, 0.018394965678453445, 0.009789126925170422, -0.00041139457607641816, 0.0047247582115232944
753117, -0.054618898779153824, -0.11679314821958542, -4.357253551483154, 0, 0, 0, 0, 0, 0, 0, 0, 0, 0, 0, 0, 0.0, 0.0, 0.0, 0.0, -0.02336585894227028, -1.4105064868927002, 0.01839948631823063, 0.008620611391961575, -0.0017059134552255273, 0.0045717679895460606
753126, -0.027517560869455338, -0.07438504695892334, -4.349705219268799, 0, 0, 0, 0, 0, 0, 0, 0, 0, 0, 0, 0, 0.0, 0.0, 0.0, 0.0, -0.023954076692461967, -1.4108049869537354, 0.01835106872022152, 0.003491681069135666, -0.004782488103955984, 0.004093897063285112
753136, -0.029549945145845413, -0.09810745716094971, -4.346687316894531, 0, 0, 0, 0, 0, 0, 0, 0, 0, 0, 0, 0, 0.0, 0.0, 0.0, 0.0, -0.023623451590538025, -1.410834789276123, 0.018274808302521706, 0.006443094462156296, -0.004735013470053673, 0.003500414313748479
753146, -0.07344236969947815, -0.12346422672271729, -4.3495283126831055, 0, 0, 0, 0, 0, 0, 0, 0, 0, 0, 0, 0, 0.0, 0.0, 0.0, 0.0, -0.023234102874994278, -1.4102894067764282, 0.018150663003325462, 0.009286148473620415, 0.0006236572517082095, 0.002711712848395109
753157, -0.03987092152237892, -0.09796866029500961, -4.354968547821045, 0, 0, 0, 0, 0, 0, 0, 0, 0, 0, 0, 0, 0.0, 0.0, 0.0, 0.0, -0.02360501140356064, -1.4107115268707275, 0.018098417669534683, 0.005895224865525961, -0.003562885569408536, 0.0023854614701122046
753168, -0.04074060916900635, -0.07195892930030823, -4.348860740661621, 0, 0, 0, 0, 0, 0, 0, 0, 0, 0, 0, 0, 0.0, 0.0, 0.0, 0.0, -0.023952100425958633, -1.4106932878494263, 0.018037425354123116, 0.002710551954805851, -0.003562190802767873, 0.0019378821598365903
753176, -0.033922743052244186, -0.13386398553848267, -4.354161262512207, 0, 0, 0, 0, 0, 0, 0, 0, 0, 0, 0, 0, 0.0, 0.0, 0.0, 0.0, -0.023169847205281258, -1.410876750946045, 0.018003033474087715, 0.009913972578942776, -0.004504997283220291, 0.0016119354404509068
753186, -0.028451021760702133, -0.10851950943470001, -4.35557222366333, 0, 0, 0, 0, 0, 0, 0, 0, 0, 0, 0, 0, 0.0, 0.0, 0.0, 0.0, -0.023500852286815643, -1.4109385013580322, 0.01860136352479458, 0.006709134206175804, -0.005373252555727959, 0.005559526849538088
753196, -0.07696206867694855, -0.1388769894838333, -4.356704235076904, 0, 0, 0, 0, 0, 0, 0, 0, 0, 0, 0, 0, 0.0, 0.0, 0.0, 0.0, -0.023002803325653076, -1.4102948904037476, 0.018563775345683098, 0.010939165949821472, 0.0008684754720889032, 0.004965047352015972
753206, -0.04474916309118271, -0.1334478259086609, -4.351123809814453, 0, 0, 0, 0, 0, 0, 0, 0, 0, 0, 0, 0, 0.0, 0.0, 0.0, 0.0, -0.0230503398925066, -1.4107398986816406, 0.018517086282372475, 0.010671599768102169, -0.0035531518515199423, 0.0043138302862644196
753217, -0.04630306735634804, -0.06453251838684082, -4.350948333740234, 0, 0, 0, 0, 0, 0, 0, 0, 0, 0, 0, 0, 0.0, 0.0, 0.0, 0.0, -0.023946672677993774, -1.4106929302215576, 0.01853119395673275, 0.002281286520883441, -0.003658844856545329, 0.004113652743399143
753226, -0.047137197107076645, -0.12536199390888214, -4.356101036071777, 0, 0, 0, 0, 0, 0, 0, 0, 0, 0, 0, 0, 0.0, 0.0, 0.0, 0.0, -0.023136476054787636, -1.4107742309570312, 0.01845419779419899, 0.00983876921236515, -0.0038617723621428013, 0.0034397176932543516
753236, -0.07636023312807083, -0.11699166148900986, -4.355271816253662, 0, 0, 0, 0, 0, 0, 0, 0, 0, 0, 0, 0, 0.0, 0.0, 0.0, 0.0, -0.02319212630391121, -1.4103024005889893, 0.020660441368818283, 0.008580505847930908, 0.0002550534554757178, 0.017168791964650154
753246, -0.03858732804656029, -0.07168971002101898, -4.356771469116211, 0, 0, 0, 0, 0, 0, 0, 0, 0, 0, 0, 0, 0.0, 0.0, 0.0, 0.0, -0.023942796513438225, -1.4108275175094604, 0.0206387210637331, 0.0021209469996392727, -0.00492410734295845, 0.015970954671502113
753257, -0.05555710569024086, -0.12920741736888885, -4.357509613037109, 0, 0, 0, 0, 0, 0, 0, 0, 0, 0, 0, 0, 0.0, 0.0, 0.0, 0.0, -0.023105299100279808, -1.4106515645980835, 0.02057822421193123, 0.009564133360981941, -0.0026147798635065556, 0.014681023545563221
753267, -0.05295449122786522, -0.13512714207172394, -4.357645511627197, 0, 0, 0, 0, 0, 0, 0, 0, 0, 0, 0, 0, 0.0, 0.0, 0.0, 0.0, -0.02297748252749443, -1.4106786251068115, 0.020600447431206703, 0.010494237765669823, -0.002804927993565798, 0.013884334824979305
753276, -0.04603375494480133, -0.11079536378383636, -4.358759880065918, 0, 0, 0, 0, 0, 0, 0, 0, 0, 0, 0, 0, 0.0, 0.0, 0.0, 0.0, -0.02335546165704727, -1.4107669591903687, 0.019338497892022133, 0.0073305401019752026, -0.003918065689504147, 0.0050941877998411655
753286, -0.047461651265621185, -0.1356220692396164, -4.357382774353027, 0, 0, 0, 0, 0, 0, 0, 0, 0, 0, 0, 0, 0.0, 0.0, 0.0, 0.0, -0.023014245554804802, -1.410800576210022, 0.019244831055402756, 0.010556727647781372, -0.004048254806548357, 0.004292728379368782
753296, -0.05593219771981239, -0.1016504094004631, -4.3589959144592285, 0, 0, 0, 0, 0, 0, 0, 0, 0, 0, 0, 0, 0.0, 0.0, 0.0, 0.0, -0.023491304367780685, -1.4106460809707642, 0.01913359947502613, 0.006090299226343632, -0.002949060406535864, 0.0032741783652454615
753306, -0.045532844960689545, -0.0937596783041954, -4.359412670135498, 0, 0, 0, 0, 0, 0, 0, 0, 0, 0, 0, 0, 0.0, 0.0, 0.0, 0.0, -0.023605823516845703, -1.4108288288116455, 0.01900867559015751, 0.005019659176468849, -0.004810207523405552, 0.0022175777703523636
753316, -0.046147286891937256, -0.09136354178190231, -4.355330467224121, 0, 0, 0, 0, 0, 0, 0, 0, 0, 0, 0, 0, 0.0, 0.0, 0.0, 0.0, -0.023586425930261612, -1.410887360572815, 0.01895720697939396, 0.005168430507183075, -0.0050764428451657295, 0.0019364416366443038
753326, -0.0642213225364685, -0.09221753478050232, -4.356025218963623, 0, 0, 0, 0, 0, 0, 0, 0, 0, 0, 0, 0, 0.0, 0.0, 0.0, 0.0, -0.02357799932360649, -1.4106467962265015, 0.01852797530591488, 0.005140769295394421, -0.0030293564777821302, -0.0008027664152905345
753336, -0.05814272165298462, -0.09361881017684937, -4.356075763702393, 0, 0, 0, 0, 0, 0, 0, 0, 0, 0, 0, 0, 0.0, 0.0, 0.0, 0.0, -0.023590905591845512, -1.4107654094696045, 0.01841474510729313, 0.005046939942985773, -0.004101271741092205, -0.001459165709093213
753346, -0.060572560876607895, -0.13002164661884308, -4.357080936431885, 0, 0, 0, 0, 0, 0, 0, 0, 0, 0, 0, 0, 0.0, 0.0, 0.0, 0.0, -0.02311653643846512, -1.4108022451400757, 0.01828731596469879, 0.009025711566209793, -0.004078797530382872, -0.001968896482139826
753356, -0.05306650325655937, -0.06095857545733452, -4.351853847503662, 0, 0, 0, 0, 0, 0, 0, 0, 0, 0, 0, 0, 0.0, 0.0, 0.0, 0.0, -0.02410760335624218, -1.4108552932739258, 0.018170464783906937, 0.0006953671108931303, -0.005188198760151863, -0.0024642092175781727
753367, -0.05450676754117012, -0.06020652502775192, -4.347083568572998, 0, 0, 0, 0, 0, 0, 0, 0, 0, 0, 0, 0, 0.0, 0.0, 0.0, 0.0, -0.024092162027955055, -1.4108823537826538, 0.018386462703347206, 0.000993410125374794, -0.005189822055399418, -0.000846720184199512
753376, -0.054242655634880066, -0.06086520105600357, -4.342519283294678, 0, 0, 0, 0, 0, 0, 0, 0, 0, 0, 0, 0, 0.0, 0.0, 0.0, 0.0, -0.02407938800752163, -1.4108431339263916, 0.018298938870429993, 0.001150493510067463, -0.005091807339340448, -0.0014115027152001858
753386, -0.05508458614349365, -0.06264803558588028, -4.337830066680908, 0, 0, 0, 0, 0, 0, 0, 0, 0, 0, 0, 0, 0.0, 0.0, 0.0, 0.0, -0.02405555732548237, -1.4109156131744385, 0.018172170966863632, 0.001848207088187337, -0.005112142767757177, -0.0015233205631375313
753396, -0.053690072149038315, -0.11039681732654572, -4.336711406707764, 0, 0, 0, 0, 0, 0, 0, 0, 0, 0, 0, 0, 0.0, 0.0, 0.0, 0.0, -0.023395385593175888, -1.4109784364700317, 0.01806687004864216, 0.007520911283791065, -0.005022780504077673, -0.0018932459643110633
753407, -0.05440935865044594, -0.06793306767940521, -4.331704616546631, 0, 0, 0, 0, 0, 0, 0, 0, 0, 0, 0, 0, 0.0, 0.0, 0.0, 0.0, -0.023961467668414116, -1.4108914136886597, 0.01803681254386902, 0.002797777997329831, -0.0047464873641729355, -0.0020841904915869236
753418, -0.10224716365337372, -0.14815430343151093, -4.329303741455078, 0, 0, 0, 0, 0, 0, 0, 0, 0, 0, 0, 0, 0.0, 0.0, 0.0, 0.0, -0.022825034335255623, -1.410358190536499, 0.017616428434848785, 0.0124036381021142, 0.0005560179706662893, -0.004493542946875095
753428, -0.05773187801241875, -0.06276392936706543, -4.330134391784668, 0, 0, 0, 0, 0, 0, 0, 0, 0, 0, 0, 0, 0.0, 0.0, 0.0, 0.0, -0.023961123079061508, -1.410853624343872, 0.017545660957694054, 0.0027202502824366093, -0.0045821708627045155, -0.004711086396127939
753436, -0.05722624808549881, -0.0887933075428009, -4.331211566925049, 0, 0, 0, 0, 0, 0, 0, 0, 0, 0, 0, 0, 0.0, 0.0, 0.0, 0.0, -0.023602288216352463, -1.4108710289001465, 0.01743556372821331, 0.005636082496494055, -0.004353045951575041, -0.005157421808689833
753446, -0.06748295575380325, -0.08578712493181229, -4.327125072479248, 0, 0, 0, 0, 0, 0, 0, 0, 0, 0, 0, 0, 0.0, 0.0, 0.0, 0.0, -0.023568373173475266, -1.4108033180236816, 0.01729113794863224, 0.005706528201699257, -0.003560032695531845, -0.005202412139624357
753456, -0.06960108131170273, -0.17690616846084595, -4.323929309844971, 0, 0, 0, 0, 0, 0, 0, 0, 0, 0, 0, 0, 0.0, 0.0, 0.0, 0.0, -0.022321976721286774, -1.4108736515045166, 0.017478326335549355, 0.016373179852962494, -0.003405354218557477, -0.004043067339807749
753467, -0.10486237704753876, -0.09554804116487503, -4.3195390701293945, 0, 0, 0, 0, 0, 0, 0, 0, 0, 0, 0, 0, 0.0, 0.0, 0.0, 0.0, -0.0233579333871603, -1.4103035926818848, 0.017424393445253372, 0.00711463438346982, 0.0006886732298880816, -0.003966356627643108
753476, -0.06938562542200089, -0.04341315105557442, -4.318004608154297, 0, 0, 0, 0, 0, 0, 0, 0, 0, 0, 0, 0, 0.0, 0.0, 0.0, 0.0, -0.024082334712147713, -1.4107081890106201, 0.017356932163238525, 0.0014790587592869997, -0.0033197926823049784, -0.003977455198764801
753486, -0.06334586441516876, -0.04338871315121651, -4.313872337341309, 0, 0, 0, 0, 0, 0, 0, 0, 0, 0, 0, 0, 0.0, 0.0, 0.0, 0.0, -0.024076737463474274, -1.4108048677444458, 0.017267610877752304, 0.0018542720936238766, -0.004214364569634199, -0.0040907058864831924
753497, -0.08195537328720093, -0.08571889251470566, -4.309935569763184, 0, 0, 0, 0, 0, 0, 0, 0, 0, 0, 0, 0, 0.0, 0.0, 0.0, 0.0, -0.02342456392943859, -1.4106382131576538, 0.017136745154857635, 0.007267697248607874, -0.002650610404089093, -0.00402045575901866
753506, -0.08387447893619537, -0.11815435439348221, -4.305670261383057, 0, 0, 0, 0, 0, 0, 0, 0, 0, 0, 0, 0, 0.0, 0.0, 0.0, 0.0, -0.0230184867978096, -1.410644292831421, 0.0170748271048069, 0.010785838589072227, -0.0025143781676888466, -0.004394625313580036
753516, -0.0763324722647667, -0.07228170335292816, -4.301171779632568, 0, 0, 0, 0, 0, 0, 0, 0, 0, 0, 0, 0, 0.0, 0.0, 0.0, 0.0, -0.02361459471285343, -1.410727620124817, 0.01701512187719345, 0.0058540948666632175, -0.0036841651890426874, -0.00428089639171958
753526, -0.07714768499135971, -0.04672517254948616, -4.3012309074401855, 0, 0, 0, 0, 0, 0, 0, 0, 0, 0, 0, 0, 0.0, 0.0, 0.0, 0.0, -0.02393765188753605, -1.4106886386871338, 0.016947250813245773, 0.003244818886741996, -0.0036979177966713905, -0.004336399491876364
753536, -0.07940933108329773, -0.07829166948795319, -4.297588348388672, 0, 0, 0, 0, 0, 0, 0, 0, 0, 0, 0, 0, 0.0, 0.0, 0.0, 0.0, -0.023489847779273987, -1.4107328653335571, 0.016888124868273735, 0.006942757871001959, -0.003682792419567704, -0.00424213008955121
753546, -0.08022863417863846, -0.06928501278162003, -4.298941612243652, 0, 0, 0, 0, 0, 0, 0, 0, 0, 0, 0, 0, 0.0, 0.0, 0.0, 0.0, -0.023564277216792107, -1.4107667207717896, 0.016828345134854317, 0.005828966852277517, -0.0038608661852777004, -0.003761800704523921
753557, -0.1109151542186737, -0.10623697191476822, -4.301651477813721, 0, 0, 0, 0, 0, 0, 0, 0, 0, 0, 0, 0, 0.0, 0.0, 0.0, 0.0, -0.023156872019171715, -1.4103330373764038, 0.016801906749606133, 0.0093003548681736, 1.589483508723788e-05, -0.003916396759450436
753567, -0.08487555384635925, -0.04438084736466408, -4.296569347381592, 0, 0, 0, 0, 0, 0, 0, 0, 0, 0, 0, 0, 0.0, 0.0, 0.0, 0.0, -0.023909658193588257, -1.4105974435806274, 0.016777832061052322, 0.0025745404418557882, -0.0030508372001349926, -0.0037896777503192425
753576, -0.06876053661108017, -0.04522025212645531, -4.295945644378662, 0, 0, 0, 0, 0, 0, 0, 0, 0, 0, 0, 0, 0.0, 0.0, 0.0, 0.0, -0.023938192054629326, -1.4108219146728516, 0.0167172122746706, 0.002705218503251672, -0.00490389671176672, -0.0036152091342955828
753586, -0.06942524760961533, -0.07100379467010498, -4.295225143432617, 0, 0, 0, 0, 0, 0, 0, 0, 0, 0, 0, 0, 0.0, 0.0, 0.0, 0.0, -0.02362687885761261, -1.4108529090881348, 0.016661029309034348, 0.005581832490861416, -0.004748108331114054, -0.00379341677762568
753596, -0.09753724932670593, -0.1103857159614563, -4.2911858558654785, 0, 0, 0, 0, 0, 0, 0, 0, 0, 0, 0, 0, 0.0, 0.0, 0.0, 0.0, -0.023062478750944138, -1.4105570316314697, 0.01671956665813923, 0.010357853025197983, -0.0017546014860272408, -0.0032735371496528387
753607, -0.10591688007116318, -0.0797029361128807, -4.286143779754639, 0, 0, 0, 0, 0, 0, 0, 0, 0, 0, 0, 0, 0.0, 0.0, 0.0, 0.0, -0.02330327033996582, -1.4104382991790771, 0.016654033213853836, 0.007335760165005922, -0.0010279043344780803, -0.0030952789820730686
753617, -0.08180594444274902, -0.02630404569208622, -4.281749248504639, 0, 0, 0, 0, 0, 0, 0, 0, 0, 0, 0, 0, 0.0, 0.0, 0.0, 0.0, -0.024045443162322044, -1.410714864730835, 0.01665634848177433, 0.001371836639009416, -0.003877471201121807, -0.003087241668254137
753626, -0.08132495731115341, -0.09945934265851974, -4.281510353088379, 0, 0, 0, 0, 0, 0, 0, 0, 0, 0, 0, 0, 0.0, 0.0, 0.0, 0.0, -0.02308405376970768, -1.4107990264892578, 0.016621442511677742, 0.009783572517335415, -0.003913700580596924, -0.002947364468127489
753636, -0.08136292546987534, -0.06404715776443481, -4.279898166656494, 0, 0, 0, 0, 0, 0, 0, 0, 0, 0, 0, 0, 0.0, 0.0, 0.0, 0.0, -0.023523813113570213, -1.4107584953308105, 0.0167051013559103, 0.005705744493752718, -0.0040133302100002766, -0.002216592663899064
753646, -0.08142037689685822, -0.030701234936714172, -4.277423858642578, 0, 0, 0, 0, 0, 0, 0, 0, 0, 0, 0, 0, 0.0, 0.0, 0.0, 0.0, -0.02394554205238819, -1.4107238054275513, 0.01667828857898712, 0.0018147012451663613, -0.004078834783285856, -0.002114678965881467
753656, -0.09138735383749008, -0.04642730951309204, -4.273597717285156, 0, 0, 0, 0, 0, 0, 0, 0, 0, 0, 0, 0, 0.0, 0.0, 0.0, 0.0, -0.02371673285961151, -1.4106194972991943, 0.01663908362388611, 0.003820531303063035, -0.003143629524856806, -0.0020617805421352386
753667, -0.0927676260471344, -0.059208210557699203, -4.26981782913208, 0, 0, 0, 0, 0, 0, 0, 0, 0, 0, 0, 0, 0.0, 0.0, 0.0, 0.0, -0.023509686812758446, -1.4106574058532715, 0.016607945784926414, 0.005749176722019911, -0.0033280036877840757, -0.002074397634714842
753676, -0.11049748957157135, -0.06167794018983841, -4.268977165222168, 0, 0, 0, 0, 0, 0, 0, 0, 0, 0, 0, 0, 0.0, 0.0, 0.0, 0.0, -0.023496558889746666, -1.410443663597107, 0.016587546095252037, 0.005780610255897045, -0.0014330082340165973, -0.002052068943157792
753686, -0.10994499176740646, -0.09324568510055542, -4.269025802612305, 0, 0, 0, 0, 0, 0, 0, 0, 0, 0, 0, 0, 0.0, 0.0, 0.0, 0.0, -0.023068351671099663, -1.4104666709899902, 0.016377247869968414, 0.009496377781033516, -0.0015698001952841878, -0.003173082135617733
753696, -0.10229998081922531, -0.08874823153018951, -4.26578950881958, 0, 0, 0, 0, 0, 0, 0, 0, 0, 0, 0, 0, 0.0, 0.0, 0.0, 0.0, -0.023095041513442993, -1.4105793237686157, 0.01635039411485195, 0.009135493077337742, -0.002648861613124609, -0.003031407482922077
753706, -0.1033388301730156, -0.05447817221283913, -4.261237144470215, 0, 0, 0, 0, 0, 0, 0, 0, 0, 0, 0, 0, 0.0, 0.0, 0.0, 0.0, -0.02346985414624214, -1.4105720520019531, 0.016294803470373154, 0.005473393946886063, -0.002454423811286688, -0.00286526489071548
753718, -0.10238893330097198, -0.0537177175283432, -4.257673263549805, 0, 0, 0, 0, 0, 0, 0, 0, 0, 0, 0, 0, 0.0, 0.0, 0.0, 0.0, -0.023495249450206757, -1.4105770587921143, 0.01629999838769436, 0.0054386272095143795, -0.0025341471191495657, -0.0028319682460278273
753726, -0.07556117326021194, -0.018949083983898163, -4.256306171417236, 0, 0, 0, 0, 0, 0, 0, 0, 0, 0, 0, 0, 0.0, 0.0, 0.0, 0.0, -0.023990299552679062, -1.4108976125717163, 0.016803588718175888, 0.0012683536624535918, -0.005586841609328985, 0.000608862959779799
753736, -0.08515949547290802, -0.0780612975358963, -4.256827354431152, 0, 0, 0, 0, 0, 0, 0, 0, 0, 0, 0, 0, 0.0, 0.0, 0.0, 0.0, -0.02319326624274254, -1.4108153581619263, 0.016788629814982414, 0.008471572771668434, -0.004183316603302956, 0.00034199655055999756
753746, -0.08636783808469772, -0.04461526498198509, -4.256657123565674, 0, 0, 0, 0, 0, 0, 0, 0, 0, 0, 0, 0, 0.0, 0.0, 0.0, 0.0, -0.023639854043722153, -1.4107732772827148, 0.016772663220763206, 0.004129504784941673, -0.004001533146947622, 7.011309207882732e-05
753757, -0.09694076329469681, -0.03966128081083298, -4.25234842300415, 0, 0, 0, 0, 0, 0, 0, 0, 0, 0, 0, 0, 0.0, 0.0, 0.0, 0.0, -0.02361493557691574, -1.4107142686843872, 0.016760407015681267, 0.004622694104909897, -0.0031371628865599632, 2.1619673873374268e-07
753768, -0.09511207044124603, -0.07915031909942627, -4.251574993133545, 0, 0, 0, 0, 0, 0, 0, 0, 0, 0, 0, 0, 0.0, 0.0, 0.0, 0.0, -0.023099388927221298, -1.4107357263565063, 0.016738835722208023, 0.009381745010614395, -0.003045497927814722, -0.000139912823215127
753776, -0.11084942519664764, -0.060379303991794586, -4.2521748542785645, 0, 0, 0, 0, 0, 0, 0, 0, 0, 0, 0, 0, 0.0, 0.0, 0.0, 0.0, -0.023309113457798958, -1.4104976654052734, 0.01808949001133442, 0.006935772020369768, -0.0010242435382679105, 0.008670581504702568
753786, -0.08404909074306488, -0.04446398466825485, -4.250576972961426, 0, 0, 0, 0, 0, 0, 0, 0, 0, 0, 0, 0, 0.0, 0.0, 0.0, 0.0, -0.02357749454677105, -1.4108220338821411, 0.01809767447412014, 0.004526232369244099, -0.0041291494853794575, 0.008279099129140377
753796, -0.09524746239185333, -0.04404257610440254, -4.2479753494262695, 0, 0, 0, 0, 0, 0, 0, 0, 0, 0, 0, 0, 0.0, 0.0, 0.0, 0.0, -0.02357400581240654, -1.4107028245925903, 0.01809641905128956, 0.004410716239362955, -0.002861993620172143, 0.007753921207040548
753807, -0.09527667611837387, -0.0440375879406929, -4.2436041831970215, 0, 0, 0, 0, 0, 0, 0, 0, 0, 0, 0, 0, 0.0, 0.0, 0.0, 0.0, -0.0235549695789814, -1.4107054471969604, 0.01808071695268154, 0.004422546364367008, -0.0029327936936169863, 0.0070430519990623
753818, -0.08440539985895157, -0.04497602581977844, -4.242730140686035, 0, 0, 0, 0, 0, 0, 0, 0, 0, 0, 0, 0, 0.0, 0.0, 0.0, 0.0, -0.02357020229101181, -1.4108370542526245, 0.01775425858795643, 0.004188046790659428, -0.004042054060846567, 0.0044393399730324745
753826, -0.08695197850465775, -0.01163223385810852, -4.243486404418945, 0, 0, 0, 0, 0, 0, 0, 0, 0, 0, 0, 0, 0.0, 0.0, 0.0, 0.0, -0.024042699486017227, -1.4107838869094849, 0.017740603536367416, -0.00022567581618204713, -0.003777035279199481, 0.004211305174976587
753836, -0.08870138227939606, -0.02974344789981842, -4.238090991973877, 0, 0, 0, 0, 0, 0, 0, 0, 0, 0, 0, 0, 0.0, 0.0, 0.0, 0.0, -0.023803532123565674, -1.4107818603515625, 0.01771375723183155, 0.0022780748549848795, -0.003635599510744214, 0.0038578901439905167
753846, -0.08562880754470825, -0.037778109312057495, -4.236749172210693, 0, 0, 0, 0, 0, 0, 0, 0, 0, 0, 0, 0, 0.0, 0.0, 0.0, 0.0, -0.02370845526456833, -1.4107993841171265, 0.01767714135348797, 0.003697747364640236, -0.0036494301166385412, 0.00365722319111228
753857, -0.08612874895334244, -0.0412568524479866, -4.235078811645508, 0, 0, 0, 0, 0, 0, 0, 0, 0, 0, 0, 0, 0.0, 0.0, 0.0, 0.0, -0.023599954321980476, -1.4107979536056519, 0.01764124073088169, 0.004850826691836119, -0.003250991692766547, 0.0034600314684212208
753866, -0.10374929010868073, -0.07331883162260056, -4.236286163330078, 0, 0, 0, 0, 0, 0, 0, 0, 0, 0, 0, 0, 0.0, 0.0, 0.0, 0.0, -0.023152312263846397, -1.4106025695800781, 0.01772427372634411, 0.008849368430674076, -0.0009923805482685566, 0.00387674942612648
753876, -0.08767671883106232, -0.005711925681680441, -4.232418060302734, 0, 0, 0, 0, 0, 0, 0, 0, 0, 0, 0, 0, 0.0, 0.0, 0.0, 0.0, -0.024066653102636337, -1.4107511043548584, 0.017740918323397636, -8.216483547585085e-05, -0.0031392162200063467, 0.0036893789656460285
753886, -0.08645275980234146, -0.07408618927001953, -4.229443550109863, 0, 0, 0, 0, 0, 0, 0, 0, 0, 0, 0, 0, 0.0, 0.0, 0.0, 0.0, -0.023164717480540276, -1.4108165502548218, 0.01772141456604004, 0.008416465483605862, -0.003023109631612897, 0.0034114213194698095
753896, -0.0945030227303505, -0.030302133411169052, -4.224058628082275, 0, 0, 0, 0, 0, 0, 0, 0, 0, 0, 0, 0, 0.0, 0.0, 0.0, 0.0, -0.02373911626636982, -1.4106661081314087, 0.01769813895225525, 0.002832229482010007, -0.0018753961194306612, 0.0033620314206928015
753907, -0.11980234086513519, -0.05344842001795769, -4.219857215881348, 0, 0, 0, 0, 0, 0, 0, 0, 0, 0, 0, 0, 0.0, 0.0, 0.0, 0.0, -0.023364128544926643, -1.4103338718414307, 0.016506072133779526, 0.006197975017130375, 0.0013485680101439357, -0.004647986963391304
753916, -0.09186320006847382, -0.03223724290728569, -4.219099044799805, 0, 0, 0, 0, 0, 0, 0, 0, 0, 0, 0, 0, 0.0, 0.0, 0.0, 0.0, -0.023750126361846924, -1.4106603860855103, 0.01645800843834877, 0.003215247066691518, -0.0019366048509255052, -0.004536119289696217
753926, -0.10628367215394974, -0.03137339651584625, -4.218982696533203, 0, 0, 0, 0, 0, 0, 0, 0, 0, 0, 0, 0, 0.0, 0.0, 0.0, 0.0, -0.023746762424707413, -1.4104392528533936, 0.016415802761912346, 0.003447012510150671, 0.00022952431754674762, -0.004453313071280718
753936, -0.09183318167924881, -0.0327509269118309, -4.221210956573486, 0, 0, 0, 0, 0, 0, 0, 0, 0, 0, 0, 0, 0.0, 0.0, 0.0, 0.0, -0.02375848963856697, -1.410646915435791, 0.01636497676372528, 0.0037268847227096558, -0.0016083057271316648, -0.00430049654096365
753946, -0.09041941165924072, -0.06417111307382584, -4.22035026550293, 0, 0, 0, 0, 0, 0, 0, 0, 0, 0, 0, 0, 0.0, 0.0, 0.0, 0.0, -0.023319853469729424, -1.410667061805725, 0.01631671003997326, 0.0077218180522322655, -0.0015600132755935192, -0.00423031160607934
753957, -0.11551124602556229, -0.07071938365697861, -4.216062068939209, 0, 0, 0, 0, 0, 0, 0, 0, 0, 0, 0, 0, 0.0, 0.0, 0.0, 0.0, -0.023197198286652565, -1.4103412628173828, 0.01618979685008526, 0.008591138757765293, 0.0012533925473690033, -0.004767230711877346
753966, -0.08125734329223633, -0.005962935276329517, -4.213632106781006, 0, 0, 0, 0, 0, 0, 0, 0, 0, 0, 0, 0, 0.0, 0.0, 0.0, 0.0, -0.024106593802571297, -1.410724401473999, 0.016167085617780685, 0.0006856949185021222, -0.00290012639015913, -0.00460615660995245
753976, -0.08057557046413422, -0.06327911466360092, -4.213149547576904, 0, 0, 0, 0, 0, 0, 0, 0, 0, 0, 0, 0, 0.0, 0.0, 0.0, 0.0, -0.02333650179207325, -1.4107818603515625, 0.016133513301610947, 0.0077525251545012, -0.0029712144751101732, -0.0044250949285924435
753986, -0.08240041881799698, -0.04463636130094528, -4.214134693145752, 0, 0, 0, 0, 0, 0, 0, 0, 0, 0, 0, 0, 0.0, 0.0, 0.0, 0.0, -0.023548197001218796, -1.4107377529144287, 0.016107501462101936, 0.005713500548154116, -0.002727264305576682, -0.00421042600646615
753997, -0.09036064147949219, -0.02846049889922142, -4.214021682739258, 0, 0, 0, 0, 0, 0, 0, 0, 0, 0, 0, 0, 0.0, 0.0, 0.0, 0.0, -0.023760592564940453, -1.410606026649475, 0.016056593507528305, 0.003758368082344532, -0.0016396247083321214, -0.004135057795792818
754007, -0.10832836478948593, -0.034000419080257416, -4.209272384643555, 0, 0, 0, 0, 0, 0, 0, 0, 0, 0, 0, 0, 0.0, 0.0, 0.0, 0.0, -0.023635707795619965, -1.4104045629501343, 0.01602797582745552, 0.0047227563336491585, 0.0002434070047456771, -0.003794116899371147
754016, -0.108333058655262, -0.055244218558073044, -4.205306053161621, 0, 0, 0, 0, 0, 0, 0, 0, 0, 0, 0, 0, 0.0, 0.0, 0.0, 0.0, -0.02331807091832161, -1.410441279411316, 0.01599990949034691, 0.007709728088229895, 2.3872255042078905e-05, -0.003749626222997904
754026, -0.07045482844114304, -0.001204614993184805, -4.206510066986084, 0, 0, 0, 0, 0, 0, 0, 0, 0, 0, 0, 0, 0.0, 0.0, 0.0, 0.0, -0.024116119369864464, -1.4109134674072266, 0.015996886417269707, 0.00116785301361233, -0.004738460760563612, -0.003677154891192913
754036, -0.08589068800210953, -0.027147343382239342, -4.205199241638184, 0, 0, 0, 0, 0, 0, 0, 0, 0, 0, 0, 0, 0.0, 0.0, 0.0, 0.0, -0.02378009259700775, -1.4107182025909424, 0.015987062826752663, 0.004381928592920303, -0.0026803745422512293, -0.003437525127083063
754046, -0.11955494433641434, -0.06683725863695145, -4.200571537017822, 0, 0, 0, 0, 0, 0, 0, 0, 0, 0, 0, 0, 0.0, 0.0, 0.0, 0.0, -0.0232147928327322, -1.410328984260559, 0.016301695257425308, 0.009193762205541134, 0.0012305700220167637, -0.0009730281890369952
754056, -0.10298291593790054, -0.03831436112523079, -4.196434497833252, 0, 0, 0, 0, 0, 0, 0, 0, 0, 0, 0, 0, 0.0, 0.0, 0.0, 0.0, -0.023542385548353195, -1.4105234146118164, 0.016300899907946587, 0.006061488762497902, -0.0007715566316619515, -0.0009381951531395316
754067, -0.07707148045301437, 0.001257748226635158, -4.199244499206543, 0, 0, 0, 0, 0, 0, 0, 0, 0, 0, 0, 0, 0.0, 0.0, 0.0, 0.0, -0.024112515151500702, -1.410805583000183, 0.016302289441227913, 0.0011017394717782736, -0.0036891784984618425, -0.0010259655537083745
754076, -0.08805432170629501, 0.008416566997766495, -4.200052738189697, 0, 0, 0, 0, 0, 0, 0, 0, 0, 0, 0, 0, 0.0, 0.0, 0.0, 0.0, -0.024182144552469254, -1.410662293434143, 0.016297733411192894, 0.0002560313150752336, -0.00256856856867671, -0.0009387212339788675
754086, -0.11354418843984604, -0.03219492360949516, -4.195598125457764, 0, 0, 0, 0, 0, 0, 0, 0, 0, 0, 0, 0, 0.0, 0.0, 0.0, 0.0, -0.023627450689673424, -1.4103838205337524, 0.016504770144820213, 0.005051097366958857, 0.00040745773003436625, 0.0006254864856600761
754096, -0.1049310564994812, -0.061545196920633316, -4.191345691680908, 0, 0, 0, 0, 0, 0, 0, 0, 0, 0, 0, 0, 0.0, 0.0, 0.0, 0.0, -0.02322586067020893, -1.4105279445648193, 0.016505839303135872, 0.008696191944181919, -0.0006230817525647581, 0.0005784778040833771
754108, -0.09503892809152603, 0.007523474749177694, -4.187973499298096, 0, 0, 0, 0, 0, 0, 0, 0, 0, 0, 0, 0, 0.0, 0.0, 0.0, 0.0, -0.02407749369740486, -1.4105644226074219, 0.01652546599507332, 0.001000687712803483, -0.0015425302553921938, 0.0005610930966213346
754116, -0.0855674296617508, 0.014373495243489742, -4.1876444816589355, 0, 0, 0, 0, 0, 0, 0, 0, 0, 0, 0, 0, 0.0, 0.0, 0.0, 0.0, -0.024205831810832024, -1.4106762409210205, 0.01651393435895443, 0.0001594885252416134, -0.002539493143558502, 0.00031835230765864253
754126, -0.07846404612064362, -0.06246274337172508, -4.188442707061768, 0, 0, 0, 0, 0, 0, 0, 0, 0, 0, 0, 0, 0.0, 0.0, 0.0, 0.0, -0.02323955111205578, -1.410840630531311, 0.016512779518961906, 0.008620056323707104, -0.0035255788825452328, 0.00032715857378207147
754136, -0.11833494156599045, -0.058266859501600266, -4.1898932456970215, 0, 0, 0, 0, 0, 0, 0, 0, 0, 0, 0, 0, 0.0, 0.0, 0.0, 0.0, -0.023211458697915077, -1.410305380821228, 0.017289048060774803, 0.008285888470709324, 0.001071224338375032, 0.005162972025573254
754146, -0.08678904175758362, 0.009974717162549496, -4.1844940185546875, 0, 0, 0, 0, 0, 0, 0, 0, 0, 0, 0, 0, 0.0, 0.0, 0.0, 0.0, -0.024096844717860222, -1.4106696844100952, 0.01732032373547554, 0.0006281138630583882, -0.0027986487839370966, 0.005076710134744644
754157, -0.0957363024353981, -0.04610203206539154, -4.180549621582031, 0, 0, 0, 0, 0, 0, 0, 0, 0, 0, 0, 0, 0.0, 0.0, 0.0, 0.0, -0.023352250456809998, -1.41061532497406, 0.01732313260436058, 0.007227926515042782, -0.001766242552548647, 0.00489693321287632
754167, -0.08672188967466354, 0.011959941126406193, -4.180227279663086, 0, 0, 0, 0, 0, 0, 0, 0, 0, 0, 0, 0, 0.0, 0.0, 0.0, 0.0, -0.024092597886919975, -1.4106650352478027, 0.017355790361762047, 0.0007110611768439412, -0.0026688999496400356, 0.004829703364521265
754176, -0.09565690904855728, -0.022069046273827553, -4.178312301635742, 0, 0, 0, 0, 0, 0, 0, 0, 0, 0, 0, 0, 0.0, 0.0, 0.0, 0.0, -0.023656358942389488, -1.4105863571166992, 0.017548654228448868, 0.004659766331315041, -0.0016675954684615135, 0.005742372013628483
754186, -0.0871635153889656, -0.05557897686958313, -4.179183483123779, 0, 0, 0, 0, 0, 0, 0, 0, 0, 0, 0, 0, 0.0, 0.0, 0.0, 0.0, -0.023237677291035652, -1.4107170104980469, 0.017553433775901794, 0.008445675484836102, -0.002693882444873452, 0.005482404958456755
754196, -0.0895676389336586, 0.015015162527561188, -4.176042079925537, 0, 0, 0, 0, 0, 0, 0, 0, 0, 0, 0, 0, 0.0, 0.0, 0.0, 0.0, -0.024096595123410225, -1.4106537103652954, 0.01756344549357891, 0.0007596474606543779, -0.0028189776930958033, 0.005119547247886658
754206, -0.08236359804868698, 0.015421265736222267, -4.171156883239746, 0, 0, 0, 0, 0, 0, 0, 0, 0, 0, 0, 0, 0.0, 0.0, 0.0, 0.0, -0.024095568805933, -1.4107587337493896, 0.017579419538378716, 0.0008628647774457932, -0.003685701172798872, 0.004969886504113674
754216, -0.08204230666160583, 0.016052642837166786, -4.167191028594971, 0, 0, 0, 0, 0, 0, 0, 0, 0, 0, 0, 0, 0.0, 0.0, 0.0, 0.0, -0.02408439852297306, -1.4107749462127686, 0.017568185925483704, 0.0011654903646558523, -0.0036264348309487104, 0.0048742820508778095
754226, -0.12099188566207886, -0.05100853741168976, -4.168219566345215, 0, 0, 0, 0, 0, 0, 0, 0, 0, 0, 0, 0, 0.0, 0.0, 0.0, 0.0, -0.02313016727566719, -1.4102767705917358, 0.017394771799445152, 0.009242151863873005, 0.0012891216902062297, 0.0037277780938893557
754236, -0.08681103587150574, 0.017375700175762177, -4.168158054351807, 0, 0, 0, 0, 0, 0, 0, 0, 0, 0, 0, 0, 0.0, 0.0, 0.0, 0.0, -0.024061016738414764, -1.4106488227844238, 0.017391037195920944, 0.0012789972824975848, -0.0027233422733843327, 0.0037340058479458094
754246, -0.08898978680372238, -0.04336870461702347, -4.1634650230407715, 0, 0, 0, 0, 0, 0, 0, 0, 0, 0, 0, 0, 0.0, 0.0, 0.0, 0.0, -0.023291053250432014, -1.4106990098953247, 0.01737891137599945, 0.008302452974021435, -0.002697885734960437, 0.003629192477092147
754256, -0.0907394215464592, -0.013891439884901047, -4.1579976081848145, 0, 0, 0, 0, 0, 0, 0, 0, 0, 0, 0, 0, 0.0, 0.0, 0.0, 0.0, -0.023603715002536774, -1.4106736183166504, 0.017397793009877205, 0.005248853005468845, -0.002724421676248312, 0.0038420837372541428
754266, -0.09554921835660934, -0.15199077129364014, -4.385097503662109, 0, 0, 0, 0, 0, 0, 0, 0, 0, 0, 0, 0, 0.0, 0.0, 0.0, 0.0, -0.023735880851745605, -1.4106847047805786, 0.01787419617176056, 0.00436165276914835, -0.0029097769875079393, 0.006814694497734308
754276, -0.07780046761035919, -0.24385102093219757, -4.517092704772949, 0, 0, 0, 0, 0, 0, 0, 0, 0, 0, 0, 0, 0.0, 0.0, 0.0, 0.0, -0.023559914901852608, -1.4107129573822021, 0.01788780465722084, 0.008166813291609287, -0.003384468611329794, 0.006402074359357357
754286, -0.001071105943992734, -0.03928341716527939, -0.13724927604198456, 0, 0, 0, 0, 0, 0, 0, 0, 0, 0, 0, 0, 0.0, 0.0, 0.0, 0.0, -0.023016542196273804, -1.4106401205062866, 0.017871590331196785, 0.01284602377563715, -0.002171407686546445, 0.005915991496294737
754297, 0.034466423094272614, -0.10821880400180817, -0.38580161333084106, 0, 0, 0, 0, 0, 0, 0, 0, 0, 0, 0, 0, 0.0, 0.0, 0.0, 0.0, -0.02449651248753071, -1.410426378250122, 0.016298452392220497, -0.0057517471723258495, -0.0012140306644141674, -2.0435389160411432e-05
754306, 0.053735073655843735, -0.19898788630962372, -0.610702633857727, 0, 0, 0, 0, 0, 0, 0, 0, 0, 0, 0, 0, 0.0, 0.0, 0.0, 0.0, -0.024347448721528053, -1.4103056192398071, 0.01643200032413006, -0.0005704107461497188, -0.001341734197922051, -4.6432960516540334e-05
754318, 0.027515588328242302, -0.27807676792144775, -0.7208209037780762, 0, 0, 0, 0, 0, 0, 0, 0, 0, 0, 0, 0, 0.0, 0.0, 0.0, 0.0, -0.024319477379322052, -1.4102751016616821, 0.01914311945438385, 0.00461166026070714, 0.0019191274186596274, 0.0002492494822945446
754326, 0.1112683117389679, -0.2820351719856262, -0.9064850211143494, 0, 0, 0, 0, 0, 0, 0, 0, 0, 0, 0, 0, 0.0, 0.0, 0.0, 0.0, -0.024313602596521378, -1.4103494882583618, 0.018918972462415695, 0.0015952067915350199, -0.002176133915781975, 0.0002842846733983606
754336, 0.10422162711620331, -0.3897964358329773, -1.090281367301941, 0, 0, 0, 0, 0, 0, 0, 0, 0, 0, 0, 0, 0.0, 0.0, 0.0, 0.0, -0.024267183616757393, -1.4103928804397583, 0.018712835386395454, 0.006144016049802303, -0.002807040000334382, 0.0002327475231140852
754346, 0.14027372002601624, -0.2618989944458008, -1.2585046291351318, 0, 0, 0, 0, 0, 0, 0, 0, 0, 0, 0, 0, 0.0, 0.0, 0.0, 0.0, -0.024360112845897675, -1.4103405475616455, 0.018549300730228424, -0.0017630422953516245, -0.004252179525792599, 0.000232782302191481
754357, 0.11959630250930786, -0.3664945662021637, -1.3287315368652344, 0, 0, 0, 0, 0, 0, 0, 0, 0, 0, 0, 0, 0.0, 0.0, 0.0, 0.0, -0.02428070642054081, -1.410358190536499, 0.019353752955794334, 0.003281861776486039, -0.003372129751369357, 0.0015776680083945394
754368, 0.10695859789848328, -0.5439980626106262, -1.4698688983917236, 0, 0, 0, 0, 0, 0, 0, 0, 0, 0, 0, 0, 0.0, 0.0, 0.0, 0.0, -0.024056900292634964, -1.4103597402572632, 0.01929187960922718, 0.010662387125194073, -0.0025461178738623857, 0.001405960414558649
754376, 0.1427319198846817, -0.40992629528045654, -1.6052621603012085, 0, 0, 0, 0, 0, 0, 0, 0, 0, 0, 0, 0, 0.0, 0.0, 0.0, 0.0, -0.024219593033194542, -1.4104007482528687, 0.01918686367571354, 0.004584535025060177, -0.004155284725129604, 0.001056381152011454
754386, 0.2164638787508011, -0.3504859209060669, -1.7290334701538086, 0, 0, 0, 0, 0, 0, 0, 0, 0, 0, 0, 0, 0.0, 0.0, 0.0, 0.0, -0.02437787875533104, -1.4105565547943115, 0.0190646443516016, 0.0011571330251172185, -0.00746625941246748, 0.0005943110445514321
754396, 0.16441045701503754, -0.6011001467704773, -1.8479623794555664, 0, 0, 0, 0, 0, 0, 0, 0, 0, 0, 0, 0, 0.0, 0.0, 0.0, 0.0, -0.023946426808834076, -1.4105316400527954, 0.018930060788989067, 0.012293179519474506, -0.005972128827124834, 4.799453017767519e-05
754408, 0.06320516020059586, -0.4629170000553131, -1.901666283607483, 0, 0, 0, 0, 0, 0, 0, 0, 0, 0, 0, 0, 0.0, 0.0, 0.0, 0.0, -0.024109747260808945, -1.410334587097168, 0.01802927814424038, 0.006710968911647797, -0.0015206113457679749, -0.0037244558334350586
754418, 0.164863720536232, -0.3829735517501831, -2.013883113861084, 0, 0, 0, 0, 0, 0, 0, 0, 0, 0, 0, 0, 0.0, 0.0, 0.0, 0.0, -0.024279959499835968, -1.4105437994003296, 0.017935555428266525, 0.0029183784499764442, -0.006470000836998224, -0.0039082057774066925
754428, 0.11961676180362701, -0.6262298226356506, -2.1149721145629883, 0, 0, 0, 0, 0, 0, 0, 0, 0, 0, 0, 0, 0.0, 0.0, 0.0, 0.0, -0.02371317520737648, -1.4104974269866943, 0.01781574822962284, 0.014432936906814575, -0.0052275280468165874, -0.004379880614578724
754437, 0.12519480288028717, -0.4952031970024109, -2.201751470565796, 0, 0, 0, 0, 0, 0, 0, 0, 0, 0, 0, 0, 0.0, 0.0, 0.0, 0.0, -0.02397886849939823, -1.4104952812194824, 0.017721276730298996, 0.00842135027050972, -0.005357406102120876, -0.004556787200272083
754446, 0.11847806721925735, -0.5345679521560669, -2.2907843589782715, 0, 0, 0, 0, 0, 0, 0, 0, 0, 0, 0, 0, 0.0, 0.0, 0.0, 0.0, -0.023865506052970886, -1.4105252027511597, 0.01711025834083557, 0.010511238127946854, -0.0056219082325696945, -0.008224169723689556
754457, -0.14485855400562286, -0.6833811402320862, -2.3384740352630615, 0, 0, 0, 0, 0, 0, 0, 0, 0, 0, 0, 0, 0.0, 0.0, 0.0, 0.0, -0.023326318711042404, -1.409832239151001, 0.017011893913149834, 0.018699005246162415, 0.006817829329520464, -0.008189219981431961
754466, -0.12150421738624573, -0.49967002868652344, -2.4130353927612305, 0, 0, 0, 0, 0, 0, 0, 0, 0, 0, 0, 0, 0.0, 0.0, 0.0, 0.0, -0.0238066203892231, -1.4097918272018433, 0.016910918056964874, 0.00972314178943634, 0.006263217888772488, -0.00833461806178093
754476, -0.12286198139190674, -0.705559492111206, -2.488029718399048, 0, 0, 0, 0, 0, 0, 0, 0, 0, 0, 0, 0, 0.0, 0.0, 0.0, 0.0, -0.02306957356631756, -1.4097623825073242, 0.016776978969573975, 0.02130933105945587, 0.0068374453112483025, -0.008561637252569199
754486, -0.09053272753953934, -0.5162183046340942, -2.5524423122406006, 0, 0, 0, 0, 0, 0, 0, 0, 0, 0, 0, 0, 0.0, 0.0, 0.0, 0.0, -0.0236436165869236, -1.409755825996399, 0.016701411455869675, 0.011761807836592197, 0.0058487276546657085, -0.008389823138713837
754496, -0.10022527724504471, -0.6835962533950806, -2.618783712387085, 0, 0, 0, 0, 0, 0, 0, 0, 0, 0, 0, 0, 0.0, 0.0, 0.0, 0.0, -0.02290938049554825, -1.4096745252609253, 0.016681551933288574, 0.021668734028935432, 0.006739659234881401, -0.007619817741215229
754507, -0.06296462565660477, -0.6297248601913452, -2.6527466773986816, 0, 0, 0, 0, 0, 0, 0, 0, 0, 0, 0, 0, 0.0, 0.0, 0.0, 0.0, -0.023171426728367805, -1.4098403453826904, 0.01668558083474636, 0.018507419154047966, 0.004396283999085426, -0.007614476140588522
754518, -0.05468767508864403, -0.6432465314865112, -2.7107887268066406, 0, 0, 0, 0, 0, 0, 0, 0, 0, 0, 0, 0, 0.0, 0.0, 0.0, 0.0, -0.023032953962683678, -1.4098174571990967, 0.016591913998126984, 0.019751472398638725, 0.004219822585582733, -0.007407150696963072
754526, -0.042706914246082306, -0.7339982390403748, -2.769843578338623, 0, 0, 0, 0, 0, 0, 0, 0, 0, 0, 0, 0, 0.0, 0.0, 0.0, 0.0, -0.022578313946723938, -1.4098714590072632, 0.016485018655657768, 0.025666311383247375, 0.0034409351646900177, -0.007473278790712357
754536, -0.027026847004890442, -0.4844149053096771, -2.8230690956115723, 0, 0, 0, 0, 0, 0, 0, 0, 0, 0, 0, 0, 0.0, 0.0, 0.0, 0.0, -0.02346540428698063, -1.4098544120788574, 0.01762118563055992, 0.012036883272230625, 0.0028429189696907997, 0.0011587203480303288
754546, -0.016963543370366096, -0.7202162742614746, -2.8769030570983887, 0, 0, 0, 0, 0, 0, 0, 0, 0, 0, 0, 0, 0.0, 0.0, 0.0, 0.0, -0.022167356684803963, -1.4099358320236206, 0.017559923231601715, 0.027286922559142113, 0.0015594733413308859, 0.0006833028164692223
754557, -0.005772010888904333, -0.45269957184791565, -2.897196054458618, 0, 0, 0, 0, 0, 0, 0, 0, 0, 0, 0, 0, 0.0, 0.0, 0.0, 0.0, -0.023446129634976387, -1.4098964929580688, 0.017592323943972588, 0.011294909752905369, 0.0013509332202374935, 0.0007646438316442072
754566, 0.00044919209904037416, -0.4271531105041504, -2.947408437728882, 0, 0, 0, 0, 0, 0, 0, 0, 0, 0, 0, 0, 0.0, 0.0, 0.0, 0.0, -0.023566575720906258, -1.4099429845809937, 0.017537731677293777, 0.009912129491567612, 0.0004104889230802655, 0.0003535796713549644
754578, 0.00934212002903223, -0.43965768814086914, -2.9929862022399902, 0, 0, 0, 0, 0, 0, 0, 0, 0, 0, 0, 0, 0.0, 0.0, 0.0, 0.0, -0.023483214899897575, -1.4099622964859009, 0.01747445948421955, 0.011005695909261703, -6.805131852161139e-05, -6.978987948969007e-05
