timeTick, roll, pitch, yaw, stateX, stateY, stateZ, stateVX, stateVY, stateVZ, whisker1, whisker2, whisker3, motor1, motor2, motor3, motor4, kalX, kalY, kalZ, kalPX, kalPY, kalPZ
23735, -0.31490007042884827, 1.6208009719848633, -4.54021692276001, 0, 0, 0, 0, 0, 0, 0, 0, 0, 0, 0, 0, 0, 0, 0, 0, 0, 0, 0
23745, 0.04592566564679146, 1.1378874778747559, -4.869134902954102, -0.0021934618707746267, -0.11089705675840378, 0.013571458868682384, 0.026132045313715935, -0.03615910932421684, -0.00495213782414794, 0, 0, 0, 0.0, 0.0, 0.0, 0.0, -0.0022390244994312525, -0.11077863723039627, 0.013799627311527729, 0.03289305046200752, -0.03315027430653572, -0.004541612695902586
23755, 0.27679452300071716, 0.8901201486587524, -4.999138355255127, -0.001998669933527708, -0.11108475923538208, 0.01393663790076971, 0.03608134016394615, -0.04091453179717064, -0.003131238278001547, 0, 0, 0, 0.0, 0.0, 0.0, 0.0, -0.0016823344631120563, -0.11149077117443085, 0.014110452495515347, 0.04401959851384163, -0.042369160801172256, -0.0029866984114050865
23765, 0.24128274619579315, 0.7791077494621277, -5.034276485443115, -0.0017349933041259646, -0.11138589680194855, 0.014274916611611843, 0.04090243950486183, -0.05117451027035713, -0.0018401826964691281, 0, 0, 0, 0.0, 0.0, 0.0, 0.0, -0.0017349933041259646, -0.11138589680194855, 0.014274916611611843, 0.045198552310466766, -0.047410205006599426, -0.002146490616723895
23775, 0.40755099058151245, 0.6584418416023254, -5.058461666107178, -0.0014491830952465534, -0.11166471987962723, 0.015329674817621708, 0.04604305326938629, -0.0478617399930954, 0.004079954698681831, 0, 0, 0, 0.0, 0.0, 0.0, 0.0, -0.0016780020669102669, -0.11165876686573029, 0.01549064926803112, 0.04465775191783905, -0.04939869046211243, 0.0045739952474832535
23785, 0.45032641291618347, 0.5351447463035583, -5.0303778648376465, -0.0013287235051393509, -0.11208716779947281, 0.015637695789337158, 0.04441003128886223, -0.05769208446145058, 0.005279454402625561, 0, 0, 0, 0.0, 0.0, 0.0, 0.0, -0.0012805090518668294, -0.1117357388138771, 0.015832096338272095, 0.055145349353551865, -0.04413352534174919, 0.006120797712355852
23797, 0.4937848150730133, 0.4934123158454895, -5.077498912811279, -0.0009396648965775967, -0.1121436282992363, 0.015993010252714157, 0.05366067215800285, -0.05249633267521858, 0.006908896844834089, 0, 0, 0, 0.0, 0.0, 0.0, 0.0, -0.0011150032514706254, -0.11204931139945984, 0.01612742617726326, 0.055967483669519424, -0.0483987033367157, 0.007594595663249493
23806, 0.5259149074554443, 0.46286603808403015, -5.074476718902588, -0.000716106325853616, -0.11245550960302353, 0.016296330839395523, 0.054417647421360016, -0.05595408380031586, 0.008075526915490627, 0, 0, 0, 0.0, 0.0, 0.0, 0.0, -0.0008817397174425423, -0.11221342533826828, 0.016504114493727684, 0.05729571357369423, -0.046708568930625916, 0.009290786460042
23815, 0.6188521981239319, 0.45710211992263794, -5.085370063781738, -0.0004414281575009227, -0.1126733049750328, 0.016666904091835022, 0.05493650585412979, -0.05689295008778572, 0.009569765068590641, 0, 0, 0, 0.0, 0.0, 0.0, 0.0, -0.00011569203343242407, -0.11316211521625519, 0.01565777324140072, 0.06049658730626106, -0.05546659976243973, 0.003562635974958539
23825, 0.6463028192520142, 0.4057164490222931, -5.087158203125, -0.00011569203343242407, -0.11316211521625519, 0.01565777324140072, 0.05531320348381996, -0.060643404722213745, 0.0034458774607628584, 0, 0, 0, 0.0, 0.0, 0.0, 0.0, -0.00034237903309985995, -0.11308567225933075, 0.01576964370906353, 0.058521244674921036, -0.057369399815797806, 0.004280924331396818
23835, 0.6288726329803467, 0.3919212222099304, -5.079653739929199, 5.730046541430056e-05, -0.11356665939092636, 0.0158992949873209, 0.05653037875890732, -0.06514465808868408, 0.0045502763241529465, 0, 0, 0, 0.0, 0.0, 0.0, 0.0, -0.0001748748472891748, -0.11314292997121811, 0.01609988696873188, 0.05965457484126091, -0.053232625126838684, 0.0060888975858688354
23845, 0.6432729363441467, 0.3525960147380829, -5.088438987731934, 0.0002648930822033435, -0.1135859340429306, 0.016252906993031502, 0.05791283771395683, -0.06119348853826523, 0.006381064187735319, 0, 0, 0, 0.0, 0.0, 0.0, 0.0, 0.00015081826131790876, -0.11344996094703674, 0.01633797213435173, 0.0633755475282669, -0.055658623576164246, 0.007093030959367752
23857, 0.6506654620170593, 0.37730956077575684, -5.096160411834717, 0.000612645351793617, -0.1139247864484787, 0.01648857071995735, 0.06134319305419922, -0.06426822394132614, 0.007243660278618336, 0, 0, 0, 0.0, 0.0, 0.0, 0.0, 0.0009522949112579226, -0.11434977501630783, 0.016711117699742317, 0.06776981800794601, -0.059645406901836395, 0.008412380702793598
23865, 0.7413446307182312, 0.37466171383857727, -5.110019207000732, 0.0008105188026092947, -0.11411739885807037, 0.01621352694928646, 0.06177391856908798, -0.06416233628988266, 0.005148152820765972, 0, 0, 0, 0.0, 0.0, 0.0, 0.0, 0.0008991518407128751, -0.11486498266458511, 0.016429245471954346, 0.06300289928913116, -0.06507030874490738, 0.006223465781658888
23875, 0.6311444640159607, 0.3168620765209198, -5.091938495635986, 0.0008991518407128751, -0.11486498266458511, 0.016429245471954346, 0.0569135919213295, -0.070494644343853, 0.005792881827801466, 0, 0, 0, 0.0, 0.0, 0.0, 0.0, 0.0009012313676066697, -0.11402833461761475, 0.016655879095196724, 0.06435061246156693, -0.05301589146256447, 0.007669181562960148
23885, 0.6088526844978333, 0.2591039538383484, -5.084340572357178, 0.0014533260837197304, -0.11451124399900436, 0.016796687617897987, 0.06307519972324371, -0.06066247820854187, 0.007643428165465593, 0, 0, 0, 0.0, 0.0, 0.0, 0.0, 0.0013674541842192411, -0.11437436938285828, 0.016843633726239204, 0.06913688778877258, -0.05481205880641937, 0.008182907477021217
23895, 0.6471807956695557, 0.26922357082366943, -5.09454870223999, 0.0019280719570815563, -0.11489620059728622, 0.016995230689644814, 0.06732098013162613, -0.06334327161312103, 0.008192707784473896, 0, 0, 0, 0.0, 0.0, 0.0, 0.0, 0.0015458175912499428, -0.11476720124483109, 0.017131133005023003, 0.06898345798254013, -0.05771191418170929, 0.009415573440492153
23905, 0.6916348934173584, 0.24055743217468262, -5.085690975189209, 0.0020736681763082743, -0.11528825014829636, 0.01726505160331726, 0.06717845797538757, -0.06729380786418915, 0.009140865877270699, 0, 0, 0, 0.0, 0.0, 0.0, 0.0, 0.0016472660936415195, -0.11515717953443527, 0.01603599265217781, 0.06883885711431503, -0.061551544815301895, 0.0019398832228034735
23915, 0.7448689937591553, 0.24182774126529694, -5.097093105316162, 0.0022941166535019875, -0.11584698408842087, 0.0160489734262228, 0.06627821177244186, -0.07051919400691986, 0.0011125884484499693, 0, 0, 0, 0.0, 0.0, 0.0, 0.0, 0.0017890444723889232, -0.1151854619383812, 0.016315404325723648, 0.06850902736186981, -0.059946369379758835, 0.0034332226496189833
23925, 0.6690388917922974, 0.2499055117368698, -5.10430908203125, 0.0024343596305698156, -0.11586018651723862, 0.01634356379508972, 0.06617900729179382, -0.06909774988889694, 0.0026933446060866117, 0, 0, 0, 0.0, 0.0, 0.0, 0.0, 0.0020614457316696644, -0.11532101780176163, 0.01651754416525364, 0.06846223771572113, -0.057443782687187195, 0.004373954143375158
23935, 0.7419385313987732, 0.22999894618988037, -5.108331203460693, 0.0026236947160214186, -0.1159077137708664, 0.016647567972540855, 0.0663411095738411, -0.06690675020217896, 0.0044084168039262295, 0, 0, 0, 0.0, 0.0, 0.0, 0.0, 0.002213484840467572, -0.11580349504947662, 0.016761185601353645, 0.06871502846479416, -0.06148666888475418, 0.005613325163722038
23945, 0.7391216158866882, 0.17191554605960846, -5.086688995361328, 0.0027167536318302155, -0.11638292670249939, 0.01688171923160553, 0.0658060610294342, -0.07119689881801605, 0.005575348157435656, 0, 0, 0, 0.0, 0.0, 0.0, 0.0, 0.002602537162601948, -0.11620219051837921, 0.016931146383285522, 0.07236754894256592, -0.06464903801679611, 0.00647600507363677
23957, 0.7173027396202087, 0.20094390213489532, -5.102471828460693, 0.0031643640249967575, -0.11679351329803467, 0.016118159517645836, 0.0692610815167427, -0.07345936447381973, 0.000754084438085556, 0, 0, 0, 0.0, 0.0, 0.0, 0.0, 0.002483831252902746, -0.11639439314603806, 0.016324546188116074, 0.06880885362625122, -0.06461001932621002, 0.002840569708496332
23965, 0.6641199588775635, 0.19205784797668457, -5.102848052978516, 0.002483831252902746, -0.11639439314603806, 0.016324546188116074, 0.06277959048748016, -0.07050321996212006, 0.0022728010080754757, 0, 0, 0, 0.0, 0.0, 0.0, 0.0, 0.0031203320249915123, -0.11673468351364136, 0.01648220792412758, 0.0725197046995163, -0.06367619335651398, 0.0036707024555653334
23975, 0.7003607749938965, 0.19202318787574768, -5.109310626983643, 0.002958589466288686, -0.11653584986925125, 0.01654774695634842, 0.06627819687128067, -0.06910865008831024, 0.0036120680160820484, 0, 0, 0, 0.0, 0.0, 0.0, 0.0, 0.00324005214497447, -0.11645486205816269, 0.01680823788046837, 0.07219947129487991, -0.05870857834815979, 0.005507459864020348
23985, 0.6593865156173706, 0.19663359224796295, -5.103474140167236, 0.003075145883485675, -0.1163099929690361, 0.016881272196769714, 0.06625619530677795, -0.06505852937698364, 0.005544183775782585, 0, 0, 0, 0.0, 0.0, 0.0, 0.0, 0.0034140574280172586, -0.11620718985795975, 0.01713879406452179, 0.07208055257797241, -0.05403347313404083, 0.006947878282517195
23995, 0.6789308190345764, 0.16227011382579803, -5.0997090339660645, 0.003242089645937085, -0.11608556658029556, 0.01721090078353882, 0.06652519851922989, -0.06064782664179802, 0.0070866369642317295, 0, 0, 0, 0.0, 0.0, 0.0, 0.0, 0.003457985818386078, -0.11650000512599945, 0.01631753332912922, 0.07200666517019272, -0.0566323958337307, 0.0013992113526910543
24007, 0.7826038599014282, 0.14769302308559418, -5.0904459953308105, 0.0032788615208119154, -0.11635246127843857, 0.016392890363931656, 0.06601961702108383, -0.06276781857013702, 0.00145475915633142, 0, 0, 0, 0.0, 0.0, 0.0, 0.0, 0.003425516188144684, -0.117557592689991, 0.016396254301071167, 0.0714927613735199, -0.06773249059915543, 0.0017302855849266052
24015, 0.698837399482727, 0.1730603277683258, -5.102959156036377, 0.003425516188144684, -0.117557592689991, 0.016396254301071167, 0.06519702821969986, -0.0738256648182869, 0.0009892784291878343, 0, 0, 0, 0.0, 0.0, 0.0, 0.0, 0.0037340663839131594, -0.11742334812879562, 0.01666252128779888, 0.07362955808639526, -0.06421290338039398, 0.0031667009461671114
24025, 0.67812180519104, 0.1810758113861084, -5.097677230834961, 0.0037340663839131594, -0.11742334812879562, 0.01666252128779888, 0.06761561334133148, -0.07054033130407333, 0.0026056591887027025, 0, 0, 0, 0.0, 0.0, 0.0, 0.0, 0.0037356489337980747, -0.11709939688444138, 0.01701091043651104, 0.07090071588754654, -0.05887271463871002, 0.005155107472091913
24035, 0.7173169851303101, 0.1800106316804886, -5.106022834777832, 0.0035693536046892405, -0.11690825968980789, 0.01707945391535759, 0.06500899791717529, -0.06418623775243759, 0.0051485151052474976, 0, 0, 0, 0.0, 0.0, 0.0, 0.0, 0.004057759884744883, -0.11742083728313446, 0.017188742756843567, 0.07327596098184586, -0.06108466535806656, 0.005679548718035221
24045, 0.6660070419311523, 0.17771270871162415, -5.118797779083252, 0.0038762043695896864, -0.117213174700737, 0.01653141714632511, 0.06710639595985413, -0.06667391210794449, 0.0008535109809599817, 0, 0, 0, 0.0, 0.0, 0.0, 0.0, 0.003903761273249984, -0.11501594632863998, 0.01704655960202217, 0.06885650008916855, -0.037232182919979095, 0.00482003390789032
24057, 0.6594064235687256, 0.16954293847084045, -5.110831260681152, 0.0037343716248869896, -0.11487660557031631, 0.01710016466677189, 0.06486291438341141, -0.042360275983810425, 0.004960067104548216, 0, 0, 0, 0.0, 0.0, 0.0, 0.0, 0.0040593817830085754, -0.11548168957233429, 0.017197320237755775, 0.07028520107269287, -0.041633132845163345, 0.005502201151102781
24065, 0.6986551284790039, 0.17120856046676636, -5.101325988769531, 0.0040593817830085754, -0.11548168957233429, 0.017197320237755775, 0.06627634167671204, -0.04778767377138138, 0.005230646580457687, 0, 0, 0, 0.0, 0.0, 0.0, 0.0, 0.004283051937818527, -0.11515282839536667, 0.017423396930098534, 0.07145853340625763, -0.03895489126443863, 0.006564500741660595
24075, 0.6100749969482422, 0.2022487372159958, -5.101115703582764, 0.004283051937818527, -0.11515282839536667, 0.017423396930098534, 0.0676862895488739, -0.04522959887981415, 0.00630250433459878, 0, 0, 0, 0.0, 0.0, 0.0, 0.0, 0.004164108075201511, -0.11555257439613342, 0.017643025144934654, 0.06868522614240646, -0.0423479862511158, 0.007351184729486704
24085, 0.5650978088378906, 0.184927836060524, -5.111868381500244, 0.005629504099488258, -0.11323951184749603, 0.017323700711131096, 0.07767152041196823, -0.026866363361477852, 0.004755576141178608, 0, 0, 0, 0.0, 0.0, 0.0, 0.0, 0.005629504099488258, -0.11323951184749603, 0.017323700711131096, 0.07976610213518143, -0.01980871707201004, 0.004721525125205517
24095, 0.6293056607246399, 0.1794067621231079, -5.109281539916992, 0.00542685529217124, -0.11313880234956741, 0.017363877967000008, 0.07714679092168808, -0.02586480788886547, 0.005052046850323677, 0, 0, 0, 0.0, 0.0, 0.0, 0.0, 0.005972667597234249, -0.11336898803710938, 0.017469797283411026, 0.0819513201713562, -0.021911902353167534, 0.005236981902271509
24107, 0.662971019744873, 0.17316018044948578, -5.109121322631836, 0.0057495334185659885, -0.11330735683441162, 0.01751701533794403, 0.07904037088155746, -0.029240736737847328, 0.005588913336396217, 0, 0, 0, 0.0, 0.0, 0.0, 0.0, 0.0060692233964800835, -0.11291179060935974, 0.01769697107374668, 0.0815035030245781, -0.018966807052493095, 0.006391838658601046
24115, 0.719334065914154, 0.18822863698005676, -5.104861736297607, 0.0060692233964800835, -0.11291179060935974, 0.01769697107374668, 0.07946506142616272, -0.026220226660370827, 0.006418230943381786, 0, 0, 0, 0.0, 0.0, 0.0, 0.0, 0.006174380891025066, -0.11327842622995377, 0.017879288643598557, 0.0818917453289032, -0.02372550033032894, 0.007037679199129343
24125, 0.6824809312820435, 0.1751340925693512, -5.10664176940918, 0.006174380891025066, -0.11327842622995377, 0.017879288643598557, 0.07942550629377365, -0.031002094969153404, 0.0070082456804811954, 0, 0, 0, 0.0, 0.0, 0.0, 0.0, 0.00626502325758338, -0.11308285593986511, 0.01815769076347351, 0.07977656275033951, -0.022466858848929405, 0.008317998610436916
24135, 0.7311809062957764, 0.16123774647712708, -5.117158889770508, 0.006016649305820465, -0.11299598962068558, 0.017140839248895645, 0.07673279196023941, -0.02921491675078869, 0.0015471240039914846, 0, 0, 0, 0.0, 0.0, 0.0, 0.0, 0.006427456624805927, -0.11405999213457108, 0.01718599908053875, 0.08125854283571243, -0.032727934420108795, 0.0016913659637793899
24145, 0.6733574867248535, 0.15890401601791382, -5.113089084625244, 0.006196069531142712, -0.11397760361433029, 0.01723281480371952, 0.07739423960447311, -0.03971144184470177, 0.0018574967980384827, 0, 0, 0, 0.0, 0.0, 0.0, 0.0, 0.006122380495071411, -0.1132398471236229, 0.01749262586236, 0.07716680318117142, -0.025968221947550774, 0.0035969559103250504
24155, 0.6510254144668579, 0.1590588092803955, -5.112802505493164, 0.005891316570341587, -0.1131700798869133, 0.01754027046263218, 0.0737907737493515, -0.03251630440354347, 0.0038558081723749638, 0, 0, 0, 0.0, 0.0, 0.0, 0.0, 0.00635809451341629, -0.11327949166297913, 0.01766214333474636, 0.0769239068031311, -0.026947742328047752, 0.004300381988286972
24166, 0.6954931020736694, 0.16606317460536957, -5.116014003753662, 0.00551557308062911, -0.11347617208957672, 0.017797203734517097, 0.06918858736753464, -0.03657816722989082, 0.0051819682121276855, 0, 0, 0, 0.0, 0.0, 0.0, 0.0, 0.006223461590707302, -0.11385782808065414, 0.017848094925284386, 0.07565942406654358, -0.033079829066991806, 0.0051870206370949745
24175, 0.6977176070213318, 0.1504461169242859, -5.112789154052734, 0.0057673379778862, -0.11370643973350525, 0.01794111728668213, 0.07095430791378021, -0.03962802514433861, 0.0056755454279482365, 0, 0, 0, 0.0, 0.0, 0.0, 0.0, 0.006464624777436256, -0.11409306526184082, 0.016655292361974716, 0.07755734771490097, -0.03584912419319153, -0.0027958876453340054
24185, 0.6882391571998596, 0.1627490520477295, -5.115817546844482, 0.006225548684597015, -0.11398998647928238, 0.016716361045837402, 0.07341630011796951, -0.042019180953502655, -0.002578718587756157, 0, 0, 0, 0.0, 0.0, 0.0, 0.0, 0.00626407191157341, -0.11519160121679306, 0.016733549535274506, 0.07623937726020813, -0.04555552825331688, -0.002111696405336261
24195, 0.6843764185905457, 0.1639893800020218, -5.116405963897705, 0.00602877838537097, -0.11506372690200806, 0.016805365681648254, 0.07107194513082504, -0.05152689293026924, -0.0019273210782557726, 0, 0, 0, 0.0, 0.0, 0.0, 0.0, 0.006729817017912865, -0.11369548738002777, 0.017053481191396713, 0.07843746989965439, -0.032869622111320496, 2.4800192477414384e-05
24205, 0.6664257049560547, 0.16338211297988892, -5.112000942230225, 0.0064870985224843025, -0.1136118620634079, 0.01711684837937355, 0.07444224506616592, -0.03941261023283005, 0.0003177210164722055, 0, 0, 0, 0.0, 0.0, 0.0, 0.0, 0.00700839888304472, -0.11393401026725769, 0.017184657976031303, 0.08040595054626465, -0.03498094901442528, 0.0007292985683307052
24217, 0.6440262794494629, 0.1512056142091751, -5.114532470703125, 0.006759899202734232, -0.11380652338266373, 0.017235130071640015, 0.07627426832914352, -0.0406348742544651, 0.0009513918193988502, 0, 0, 0, 0.0, 0.0, 0.0, 0.0, 0.007265130057930946, -0.11416509002447128, 0.017309069633483887, 0.0825294479727745, -0.0367148332297802, 0.0012816987000405788
24225, 0.6812724471092224, 0.1596429944038391, -5.104220390319824, 0.007257828023284674, -0.11415800452232361, 0.01686749793589115, 0.07887653261423111, -0.043886084109544754, -0.0018193761352449656, 0, 0, 0, 0.0, 0.0, 0.0, 0.0, 0.0070893168449401855, -0.11482171714305878, 0.016983602195978165, 0.08016744256019592, -0.0417918786406517, -0.0007305651088245213
24235, 0.7063304781913757, 0.16275502741336823, -5.100135326385498, 0.0068182749673724174, -0.11472734063863754, 0.017038045451045036, 0.07513777911663055, -0.04887234792113304, -0.0006047005881555378, 0, 0, 0, 0.0, 0.0, 0.0, 0.0, 0.006414532661437988, -0.11430825293064117, 0.017154540866613388, 0.07681210339069366, -0.0394754484295845, 0.0005180665757507086
24245, 0.6327309012413025, 0.1610976606607437, -5.091573238372803, 0.006896802689880133, -0.11463874578475952, 0.017194805666804314, 0.07546340674161911, -0.047800906002521515, 0.00035859146737493575, 0, 0, 0, 0.0, 0.0, 0.0, 0.0, 0.006322788540273905, -0.11390282958745956, 0.017385730519890785, 0.0753529965877533, -0.0356239415705204, 0.001937652239575982
24255, 0.6576947569847107, 0.16512757539749146, -5.085309982299805, 0.007057340815663338, -0.11433910578489304, 0.017402537167072296, 0.07502990961074829, -0.045054297894239426, 0.0016056481981649995, 0, 0, 0, 0.0, 0.0, 0.0, 0.0, 0.006789240520447493, -0.11425572633743286, 0.017457127571105957, 0.07785337418317795, -0.03820725902915001, 0.0022000870667397976
24265, 0.6410366296768188, 0.17086255550384521, -5.094461441040039, 0.0072647640481591225, -0.11460777372121811, 0.017539529129862785, 0.07649464905261993, -0.04759030416607857, 0.0022861009929329157, 0, 0, 0, 0.0, 0.0, 0.0, 0.0, 0.006595867220312357, -0.11413073539733887, 0.015907596796751022, 0.07610278576612473, -0.0378318652510643, -0.007824825122952461
24275, 0.5957748293876648, 0.14831283688545227, -5.095499515533447, 0.007066556718200445, -0.11446502059698105, 0.015892961993813515, 0.07493516802787781, -0.04668490216135979, -0.0077543435618281364, 0, 0, 0, 0.0, 0.0, 0.0, 0.0, 0.006037195213139057, -0.11431519687175751, 0.016063958406448364, 0.07215554267168045, -0.04014336317777634, -0.006240863353013992
24285, 0.5732804536819458, 0.11508339643478394, -5.081719398498535, 0.006475730799138546, -0.11464379727840424, 0.016086626797914505, 0.07073702663183212, -0.04790450632572174, -0.006035091821104288, 0, 0, 0, 0.0, 0.0, 0.0, 0.0, 0.0062020630575716496, -0.11424742639064789, 0.016208698973059654, 0.07338713854551315, -0.03921883553266525, -0.00496278190985322
24295, 0.6147423386573792, 0.12364702671766281, -5.0849928855896, 0.006682250183075666, -0.11458195000886917, 0.016208667308092117, 0.07261240482330322, -0.0472932904958725, -0.004921688698232174, 0, 0, 0, 0.0, 0.0, 0.0, 0.0, 0.006400470156222582, -0.11466261744499207, 0.016246749088168144, 0.07434004545211792, -0.041556719690561295, -0.004381440579891205
24305, 0.6314437985420227, 0.13489516079425812, -5.091846942901611, 0.006570962257683277, -0.11494947224855423, 0.01639029011130333, 0.0717286691069603, -0.05069539323449135, -0.00349250971339643, 0, 0, 0, 0.0, 0.0, 0.0, 0.0, 0.006253095809370279, -0.11440528929233551, 0.016524430364370346, 0.07306430488824844, -0.04010356590151787, -0.002284610876813531
24315, 0.6327042579650879, 0.12468063831329346, -5.082603931427002, 0.005487076938152313, -0.11584195494651794, 0.015810133889317513, 0.06284335255622864, -0.0581698901951313, -0.007015519309788942, 0, 0, 0, 0.0, 0.0, 0.0, 0.0, 0.005487076938152313, -0.11584195494651794, 0.015810133889317513, 0.06774359196424484, -0.05243151634931564, -0.006634191144257784
24325, 0.6520057320594788, 0.13739535212516785, -5.087251663208008, 0.005921900272369385, -0.11626943945884705, 0.01579991541802883, 0.06620699912309647, -0.060456532984972, -0.006760843563824892, 0, 0, 0, 0.0, 0.0, 0.0, 0.0, 0.005491281393915415, -0.11577005684375763, 0.015967972576618195, 0.06862140446901321, -0.051573626697063446, -0.005193223245441914
24335, 0.6278727650642395, 0.15286709368228912, -5.078581809997559, 0.005900429096072912, -0.11621615290641785, 0.015998778864741325, 0.06644059717655182, -0.05995770916342735, -0.004897037986665964, 0, 0, 0, 0.0, 0.0, 0.0, 0.0, 0.0051343184895813465, -0.11625085771083832, 0.016123859211802483, 0.06656842678785324, -0.05521625652909279, -0.003592522582039237
24345, 0.6890714168548584, 0.14865392446517944, -5.093502998352051, 0.0055728028528392315, -0.11670465022325516, 0.016152752563357353, 0.06470658630132675, -0.06350285559892654, -0.003659040667116642, 0, 0, 0, 0.0, 0.0, 0.0, 0.0, 0.004943445790559053, -0.11664075404405594, 0.01627873256802559, 0.06577075272798538, -0.058624446392059326, -0.0022723868023604155
24355, 0.6097182035446167, 0.12737879157066345, -5.093881607055664, 0.005359092261642218, -0.11713145673274994, 0.01631009392440319, 0.06347519159317017, -0.06715169548988342, -0.0025653610937297344, 0, 0, 0, 0.0, 0.0, 0.0, 0.0, 0.0050103734247386456, -0.11717378348112106, 0.015319639816880226, 0.06649599224328995, -0.06195831671357155, -0.008032556623220444
24365, 0.6747085452079773, 0.1405986249446869, -5.0978827476501465, 0.0054123965092003345, -0.11762543022632599, 0.015324912965297699, 0.06341376900672913, -0.06851251423358917, -0.008102113381028175, 0, 0, 0, 0.0, 0.0, 0.0, 0.0, 0.005104393232613802, -0.1171637549996376, 0.015471532940864563, 0.06744799017906189, -0.06028756499290466, -0.006617299746721983
24375, 0.6613960862159729, 0.13898465037345886, -5.098310947418213, 0.005521249026060104, -0.11766672879457474, 0.015494320541620255, 0.06476309150457382, -0.06884878873825073, -0.006594072096049786, 0, 0, 0, 0.0, 0.0, 0.0, 0.0, 0.005475896410644054, -0.11526696383953094, 0.015931718051433563, 0.0696115642786026, -0.04460377246141434, -0.0032080095261335373
24385, 0.6555124521255493, 0.09565127640962601, -5.082555294036865, 0.0059194364584982395, -0.1156543493270874, 0.01597852073609829, 0.06821297854185104, -0.05310279503464699, -0.003046262776479125, 0, 0, 0, 0.0, 0.0, 0.0, 0.0, 0.0057280962355434895, -0.11551710218191147, 0.0160346832126379, 0.07250698655843735, -0.046455059200525284, -0.0022851137910038233
24397, 0.6948657631874084, 0.13585098087787628, -5.093005180358887, 0.0061722733080387115, -0.11592400074005127, 0.01611165702342987, 0.07050380855798721, -0.05515715852379799, -0.0020514624193310738, 0, 0, 0, 0.0, 0.0, 0.0, 0.0, 0.005590350832790136, -0.1158362552523613, 0.016253001987934113, 0.07149284332990646, -0.04928627610206604, -0.0006723396363668144
24407, 0.6617377996444702, 0.09872626513242722, -5.07459831237793, 0.005298369098454714, -0.11763706058263779, 0.015506487339735031, 0.06412278115749359, -0.06871885061264038, -0.005850472953170538, 0, 0, 0, 0.0, 0.0, 0.0, 0.0, 0.005737431813031435, -0.11815788596868515, 0.015529440715909004, 0.0725468099117279, -0.06520583480596542, -0.0050336034037172794
24415, 0.6508310437202454, 0.11357918381690979, -5.080958843231201, 0.005550261586904526, -0.11794496327638626, 0.015596278011798859, 0.06611815094947815, -0.07053212076425552, -0.005209243856370449, 0, 0, 0, 0.0, 0.0, 0.0, 0.0, 0.00620220135897398, -0.11690526455640793, 0.015866722911596298, 0.07513575255870819, -0.05480065941810608, -0.003004768630489707
24425, 0.5735777616500854, 0.06165976822376251, -5.0900654792785645, 0.00620220135897398, -0.11690526455640793, 0.015866722911596298, 0.0699973925948143, -0.06120257452130318, -0.003478091675788164, 0, 0, 0, 0.0, 0.0, 0.0, 0.0, 0.005742852576076984, -0.1155419796705246, 0.016160307452082634, 0.07170405983924866, -0.04505216330289841, -0.0010599821107462049
24436, 0.6103026866912842, 0.08408547192811966, -5.087972640991211, 0.0062215859070420265, -0.11590979993343353, 0.01617446169257164, 0.07088661938905716, -0.05291849374771118, -0.0015832498902454972, 0, 0, 0, 0.0, 0.0, 0.0, 0.0, 0.005983843468129635, -0.11578816920518875, 0.01627418026328087, 0.07431745529174805, -0.04654814302921295, -0.000539973087143153
24446, 0.6461631059646606, 0.11905157566070557, -5.089848041534424, 0.0064418562687933445, -0.11619514226913452, 0.016363000497221947, 0.0722430944442749, -0.055807240307331085, -0.0004574820923153311, 0, 0, 0, 0.0, 0.0, 0.0, 0.0, 0.006333325989544392, -0.1166045144200325, 0.015113988891243935, 0.07535190135240555, -0.05196167528629303, -0.00740742078050971
24455, 0.674079418182373, 0.09795507043600082, -5.085343360900879, 0.006112509407103062, -0.11646171659231186, 0.015171159990131855, 0.07024051994085312, -0.05835646390914917, -0.007497030775994062, 0, 0, 0, 0.0, 0.0, 0.0, 0.0, 0.00659593753516674, -0.11690390110015869, 0.015197094529867172, 0.07788728922605515, -0.054355498403310776, -0.006597809959203005
24465, 0.6680980324745178, 0.09427095204591751, -5.082620143890381, 0.00659593753516674, -0.11690390110015869, 0.015197094529867172, 0.07278193533420563, -0.06096533685922623, -0.0071036419831216335, 0, 0, 0, 0.0, 0.0, 0.0, 0.0, 0.0061888061463832855, -0.11580295860767365, 0.015425696969032288, 0.07550261914730072, -0.04696131497621536, -0.005033866502344608
24475, 0.7099631428718567, 0.12832948565483093, -5.0858354568481445, 0.006646720692515373, -0.11618850380182266, 0.015488019213080406, 0.07344213128089905, -0.05558757483959198, -0.004803983960300684, 0, 0, 0, 0.0, 0.0, 0.0, 0.0, 0.005993610247969627, -0.11646997183561325, 0.015606640838086605, 0.07418771833181381, -0.0524517185986042, -0.0035441198851913214
24485, 0.6478968262672424, 0.11894665658473969, -5.0949177742004395, 0.006450733635574579, -0.1169072613120079, 0.015670934692025185, 0.07164519280195236, -0.061369359493255615, -0.003426414215937257, 0, 0, 0, 0.0, 0.0, 0.0, 0.0, 0.0059268893674016, -0.11617673188447952, 0.01591438800096512, 0.0733281746506691, -0.04979141056537628, -0.0013181214453652501
24497, 0.6463882327079773, 0.09443283826112747, -5.08998966217041, 0.006365542765706778, -0.11656105518341064, 0.015051310881972313, 0.07126697152853012, -0.05819862708449364, -0.007217659614980221, 0, 0, 0, 0.0, 0.0, 0.0, 0.0, 0.006941991858184338, -0.11731252819299698, 0.01501657348126173, 0.07933062314987183, -0.05611163005232811, -0.006900331471115351
24506, 0.7206894755363464, 0.14257118105888367, -5.1051554679870605, 0.0067160171456635, -0.11713641881942749, 0.015087343752384186, 0.07395538687705994, -0.06248728558421135, -0.006890433374792337, 0, 0, 0, 0.0, 0.0, 0.0, 0.0, 0.005791421514004469, -0.1166013553738594, 0.015345879830420017, 0.07223424315452576, -0.053534913808107376, -0.004601148422807455
24515, 0.6955167651176453, 0.13671556115150452, -5.1022162437438965, 0.006232134532183409, -0.11704137176275253, 0.015394346788525581, 0.06998607516288757, -0.062169477343559265, -0.004753361456096172, 0, 0, 0, 0.0, 0.0, 0.0, 0.0, 0.0064358883537352085, -0.11671791970729828, 0.015610001049935818, 0.07576073706150055, -0.05176591873168945, -0.0027488302439451218
24525, 0.664557933807373, 0.1452065110206604, -5.100984573364258, 0.005848417524248362, -0.11667288094758987, 0.01574983261525631, 0.06731950491666794, -0.05870760232210159, -0.0022510129492729902, 0, 0, 0, 0.0, 0.0, 0.0, 0.0, 0.005848417524248362, -0.11667288094758987, 0.01574983261525631, 0.07226836681365967, -0.0525137260556221, -0.0017861468950286508
24535, 0.7374138832092285, 0.15548989176750183, -5.103945732116699, 0.006296309642493725, -0.11708526313304901, 0.01582811027765274, 0.0699961856007576, -0.0606754831969738, -0.0019311895594000816, 0, 0, 0, 0.0, 0.0, 0.0, 0.0, 0.006064290646463633, -0.11695950478315353, 0.01594969443976879, 0.07419637590646744, -0.05511306971311569, -0.0006499695591628551
24545, 0.6930787563323975, 0.1525389850139618, -5.096951007843018, 0.006523902527987957, -0.11738923192024231, 0.016002658754587173, 0.07166004925966263, -0.06351957470178604, -0.001146885217167437, 0, 0, 0, 0.0, 0.0, 0.0, 0.0, 0.005682631395757198, -0.116893470287323, 0.01619449444115162, 0.07112191617488861, -0.05385734513401985, 0.000720903102774173
24555, 0.7002017498016357, 0.13766197860240936, -5.101366996765137, 0.006126992870122194, -0.11733181029558182, 0.01627746783196926, 0.06868258118629456, -0.06256094574928284, 0.0006259487709030509, 0, 0, 0, 0.0, 0.0, 0.0, 0.0, 0.006579103413969278, -0.11751648038625717, 0.01640123315155506, 0.07653601467609406, -0.05620906874537468, 0.001672612503170967
24565, 0.6792310476303101, 0.1472952663898468, -5.105602264404297, 0.006579103413969278, -0.11751648038625717, 0.01640123315155506, 0.0712306872010231, -0.06280768662691116, 0.0011694681597873569, 0, 0, 0, 0.0, 0.0, 0.0, 0.0, 0.006050170864909887, -0.11668496578931808, 0.016625825315713882, 0.07293640822172165, -0.050730593502521515, 0.003233282594010234
24575, 0.6719469428062439, 0.15424518287181854, -5.1045002937316895, 0.006501015275716782, -0.11708039790391922, 0.016728729009628296, 0.0708007961511612, -0.059142425656318665, 0.0032363138161599636, 0, 0, 0, 0.0, 0.0, 0.0, 0.0, 0.0062630670145154, -0.11690997332334518, 0.016797227784991264, 0.07500885426998138, -0.052049390971660614, 0.00413323100656271
24585, 0.8152478933334351, 0.18668220937252045, -5.11059045791626, 0.006707366090267897, -0.11730267852544785, 0.01597532257437706, 0.07260239869356155, -0.060815587639808655, -0.0019603995606303215, 0, 0, 0, 0.0, 0.0, 0.0, 0.0, 0.006053179502487183, -0.11772523820400238, 0.016022400930523872, 0.07384346425533295, -0.05929023027420044, -0.0011516177328303456
24597, 0.7845112085342407, 0.1679019331932068, -5.099971771240234, 0.006494561675935984, -0.11822951585054398, 0.016068164259195328, 0.07055187970399857, -0.06928743422031403, -0.0013095650356262922, 0, 0, 0, 0.0, 0.0, 0.0, 0.0, 0.005733062978833914, -0.11693480610847473, 0.016393283382058144, 0.07061902433633804, -0.05316905304789543, 0.001610059174709022
24605, 0.6941240429878235, 0.15612460672855377, -5.100943088531494, 0.006406035274267197, -0.11754287034273148, 0.01640361174941063, 0.06899754703044891, -0.062347542494535446, 0.0009778726380318403, 0, 0, 0, 0.0, 0.0, 0.0, 0.0, 0.006615264341235161, -0.11750603467226028, 0.016603995114564896, 0.07589256018400192, -0.054774027317762375, 0.002648500958457589
24615, 0.7571595907211304, 0.18128223717212677, -5.102295875549316, 0.006615264341235161, -0.11750603467226028, 0.016603995114564896, 0.07071368396282196, -0.061332084238529205, 0.0021915363613516092, 0, 0, 0, 0.0, 0.0, 0.0, 0.0, 0.0064857471734285355, -0.11780159175395966, 0.016820626333355904, 0.07467949390411377, -0.05771028995513916, 0.003712721634656191
24625, 0.7713631987571716, 0.17250299453735352, -5.112287998199463, 0.0064857471734285355, -0.11780159175395966, 0.016820626333355904, 0.06923743337392807, -0.06416603177785873, 0.003186045214533806, 0, 0, 0, 0.0, 0.0, 0.0, 0.0, 0.005761459935456514, -0.11721310764551163, 0.017039285972714424, 0.069495789706707, -0.053948499262332916, 0.00526081258431077
24635, 0.7169739603996277, 0.1228179857134819, -5.107645511627197, 0.006247021723538637, -0.11771325767040253, 0.017142299562692642, 0.06719569116830826, -0.06333892047405243, 0.004948973655700684, 0, 0, 0, 0.0, 0.0, 0.0, 0.0, 0.005718157161027193, -0.11733949184417725, 0.01720597967505455, 0.06986535340547562, -0.054897796362638474, 0.006045229732990265
24645, 0.7114319205284119, 0.08899449557065964, -5.08656120300293, 0.006134017836302519, -0.11775881797075272, 0.017324866726994514, 0.06687420606613159, -0.06310007721185684, 0.005657678935676813, 0, 0, 0, 0.0, 0.0, 0.0, 0.0, 0.0058357976377010345, -0.11702919006347656, 0.01744534634053707, 0.07071421295404434, -0.051659002900123596, 0.007114577107131481
24656, 0.7113324403762817, 0.10772999376058578, -5.1081223487854, 0.006252220831811428, -0.11745389550924301, 0.01755710132420063, 0.06787947565317154, -0.06067048758268356, 0.006586108356714249, 0, 0, 0, 0.0, 0.0, 0.0, 0.0, 0.005770565941929817, -0.11663816124200821, 0.017749883234500885, 0.0697408989071846, -0.048047326505184174, 0.008531351573765278
24665, 0.6662775278091431, 0.14336073398590088, -5.108959197998047, 0.006193497683852911, -0.11700915545225143, 0.01787845976650715, 0.06739207357168198, -0.05623037368059158, 0.00826032180339098, 0, 0, 0, 0.0, 0.0, 0.0, 0.0, 0.00596989132463932, -0.11684103310108185, 0.0179287176579237, 0.07140578329563141, -0.04934588074684143, 0.009036212228238583
24675, 0.7837079167366028, 0.1684628576040268, -5.114407539367676, 0.006640571169555187, -0.11739358305931091, 0.017344778403639793, 0.06989047676324844, -0.05826055258512497, 0.003975309897214174, 0, 0, 0, 0.0, 0.0, 0.0, 0.0, 0.005634036846458912, -0.11847066879272461, 0.017340052872896194, 0.06845487654209137, -0.062493253499269485, 0.0044428203254938126
24685, 0.7128949165344238, 0.15468214452266693, -5.110923767089844, 0.006127987988293171, -0.1190757304430008, 0.017417628318071365, 0.06522297859191895, -0.07232420891523361, 0.0037422459572553635, 0, 0, 0, 0.0, 0.0, 0.0, 0.0, 0.0060307360254228115, -0.11708686500787735, 0.017742063850164413, 0.07050106674432755, -0.050365157425403595, 0.006725149229168892
24697, 0.6103404760360718, 0.15989187359809875, -5.096973896026611, 0.0064813015051186085, -0.117484450340271, 0.017840711399912834, 0.06843758374452591, -0.0586579330265522, 0.006388740614056587, 0, 0, 0, 0.0, 0.0, 0.0, 0.0, 0.0063097490929067135, -0.11703924089670181, 0.017891474068164825, 0.07294832915067673, -0.04860317334532738, 0.007162757683545351
24707, 0.7110212445259094, 0.12942959368228912, -5.108452796936035, 0.007009947672486305, -0.11760354787111282, 0.017959659919142723, 0.07173255831003189, -0.057886768132448196, 0.006788832601159811, 0, 0, 0, 0.0, 0.0, 0.0, 0.0, 0.005641238763928413, -0.11695095896720886, 0.01823456399142742, 0.06786727160215378, -0.04906705394387245, 0.00925831776112318
24715, 0.697445809841156, 0.1340283751487732, -5.1083149909973145, 0.006054006516933441, -0.11734622716903687, 0.01836305670440197, 0.0658034011721611, -0.05788565054535866, 0.008967247791588306, 0, 0, 0, 0.0, 0.0, 0.0, 0.0, 0.005800563842058182, -0.1171361580491066, 0.017009185627102852, 0.06971311569213867, -0.05094902962446213, 0.000481245486298576
24725, 0.7373772859573364, 0.11710972338914871, -5.074255466461182, 0.006467282772064209, -0.11772187054157257, 0.01700827293097973, 0.0684548020362854, -0.06017494201660156, -0.0002044643770204857, 0, 0, 0, 0.0, 0.0, 0.0, 0.0, 0.006275877356529236, -0.1176907867193222, 0.01700921356678009, 0.07365774363279343, -0.054996028542518616, 0.00035102677065879107
24736, 0.7037518620491028, 0.140340656042099, -5.089559555053711, 0.006726885214447975, -0.11814586818218231, 0.017065389081835747, 0.07094121724367142, -0.06403562426567078, -5.2208932174835354e-05, 0, 0, 0, 0.0, 0.0, 0.0, 0.0, 0.006084078922867775, -0.11713147908449173, 0.01731032505631447, 0.07134231925010681, -0.050059832632541656, 0.0023030510637909174
24745, 0.6783539056777954, 0.09604762494564056, -5.08230447769165, 0.006512789521366358, -0.11751740425825119, 0.017384469509124756, 0.06908025592565536, -0.05882381275296211, 0.0020155617967247963, 0, 0, 0, 0.0, 0.0, 0.0, 0.0, 0.00630351435393095, -0.11731481552124023, 0.017410343512892723, 0.07387161999940872, -0.05156390368938446, 0.00268857111223042
24755, 0.7480437159538269, 0.1301862746477127, -5.0949320793151855, 0.006733986083418131, -0.11774499714374542, 0.017504224553704262, 0.07105937600135803, -0.061240192502737045, 0.0024939225986599922, 0, 0, 0, 0.0, 0.0, 0.0, 0.0, 0.006091591436415911, -0.11767273396253586, 0.01759609952569008, 0.07212287187576294, -0.05535437539219856, 0.0037472276017069817
24765, 0.7419172525405884, 0.13948385417461395, -5.099472522735596, 0.00675523467361927, -0.11827332526445389, 0.01639721170067787, 0.0701676532626152, -0.06451601535081863, -0.005265392828732729, 0, 0, 0, 0.0, 0.0, 0.0, 0.0, 0.005533156916499138, -0.11762888729572296, 0.016647672280669212, 0.06753308326005936, -0.05543486401438713, -0.0028314299415796995
24775, 0.6904769539833069, 0.1439473032951355, -5.103152275085449, 0.00617447542026639, -0.11825594305992126, 0.016612935811281204, 0.065924733877182, -0.06422190368175507, -0.003560160519555211, 0, 0, 0, 0.0, 0.0, 0.0, 0.0, 0.005930028390139341, -0.11773241311311722, 0.016713758930563927, 0.070221908390522, -0.054272253066301346, -0.0023031355813145638
24785, 0.6754980683326721, 0.1467123180627823, -5.102459907531738, 0.006371844559907913, -0.11817970871925354, 0.016748275607824326, 0.06776370108127594, -0.06313010305166245, -0.0023998196702450514, 0, 0, 0, 0.0, 0.0, 0.0, 0.0, 0.005913566332310438, -0.11769469827413559, 0.016889331862330437, 0.07020945847034454, -0.054239094257354736, -0.0008729330147616565
24795, 0.6307388544082642, 0.15498152375221252, -5.103094577789307, 0.006336155813187361, -0.11809200793504715, 0.01693580113351345, 0.06780337542295456, -0.06232936680316925, -0.0010299711721017957, 0, 0, 0, 0.0, 0.0, 0.0, 0.0, 0.00550848338752985, -0.11725649982690811, 0.017173638567328453, 0.0669480413198471, -0.04986174404621124, 0.0011188057251274586
24807, 0.6787083148956299, 0.15106315910816193, -5.103900909423828, 0.00590916071087122, -0.11765693128108978, 0.017243986949324608, 0.06475850939750671, -0.05858780816197395, 0.0010655276710167527, 0, 0, 0, 0.0, 0.0, 0.0, 0.0, 0.005262655206024647, -0.11716803163290024, 0.016029655933380127, 0.0653592199087143, -0.05047435685992241, -0.006349609233438969
24815, 0.6669111847877502, 0.07927340269088745, -5.107019901275635, 0.005886534228920937, -0.11774393171072006, 0.015961114317178726, 0.06415162235498428, -0.05915676802396774, -0.006930519361048937, 0, 0, 0, 0.0, 0.0, 0.0, 0.0, 0.005433602258563042, -0.11757425218820572, 0.016061389818787575, 0.06661136448383331, -0.052944719791412354, -0.005763599183410406
24825, 0.6902239918708801, 0.1586713194847107, -5.091233253479004, 0.005893948022276163, -0.11799740791320801, 0.01603996567428112, 0.06563190370798111, -0.06126659736037254, -0.006041692104190588, 0, 0, 0, 0.0, 0.0, 0.0, 0.0, 0.00567085575312376, -0.11726453900337219, 0.016206394881010056, 0.06930235773324966, -0.05065961554646492, -0.004355061799287796
24835, 0.6830416321754456, 0.1532149463891983, -5.101646900177002, 0.006099596619606018, -0.11767922341823578, 0.01623704843223095, 0.06690970808267593, -0.05904770269989967, -0.004283531103283167, 0, 0, 0, 0.0, 0.0, 0.0, 0.0, 0.005539355333894491, -0.11751279979944229, 0.016366364434361458, 0.06856299936771393, -0.052756112068891525, -0.0029169514309614897
24846, 0.6436680555343628, 0.15777070820331573, -5.1046929359436035, 0.005982079543173313, -0.11793313920497894, 0.016417592763900757, 0.06644322723150253, -0.060994211584329605, -0.002984485821798444, 0, 0, 0, 0.0, 0.0, 0.0, 0.0, 0.005982079543173313, -0.11793313920497894, 0.016417592763900757, 0.071595698595047, -0.05487832427024841, -0.00252193002961576
24855, 0.6606067419052124, 0.15437445044517517, -5.099181652069092, 0.006193142384290695, -0.11813206225633621, 0.016701729968190193, 0.0684630498290062, -0.062209516763687134, -0.000955192546825856, 0, 0, 0, 0.0, 0.0, 0.0, 0.0, 0.005521710496395826, -0.1180327832698822, 0.016801316291093826, 0.06953097134828568, -0.05658026412129402, 0.00020878398208878934
24865, 0.6631554961204529, 0.15456697344779968, -5.100512504577637, 0.006180571857839823, -0.11867380887269974, 0.01679893769323826, 0.06755580008029938, -0.06565925478935242, -0.00021894129167776555, 0, 0, 0, 0.0, 0.0, 0.0, 0.0, 0.00566241517663002, -0.11776468902826309, 0.01699560135602951, 0.0696912556886673, -0.053692616522312164, 0.0016371950041502714
24875, 0.6301659345626831, 0.13926319777965546, -5.099008560180664, 0.006111188791692257, -0.118192657828331, 0.017058594152331352, 0.06735095381736755, -0.062404267489910126, 0.0014390224823728204, 0, 0, 0, 0.0, 0.0, 0.0, 0.0, 0.0058768801391124725, -0.11799042671918869, 0.01709797978401184, 0.07200606167316437, -0.055538564920425415, 0.0021805502474308014
24885, 0.6534178853034973, 0.138716459274292, -5.0941267013549805, 0.006343028973788023, -0.118411123752594, 0.017176225781440735, 0.0695473924279213, -0.06384558230638504, 0.0020098816603422165, 0, 0, 0, 0.0, 0.0, 0.0, 0.0, 0.005803948733955622, -0.11752144247293472, 0.017391690984368324, 0.07142188400030136, -0.0519745796918869, 0.003948606085032225
24895, 0.7134988903999329, 0.1481046825647354, -5.098160266876221, 0.005713641177862883, -0.11761748790740967, 0.017638567835092545, 0.06489585340023041, -0.0583953931927681, 0.00474219024181366, 0, 0, 0, 0.0, 0.0, 0.0, 0.0, 0.005498864222317934, -0.11744623631238937, 0.017697973176836967, 0.06909710168838501, -0.05229654908180237, 0.005605746526271105
24905, 0.6079007983207703, 0.12788766622543335, -5.081162929534912, 0.006131592206656933, -0.11801167577505112, 0.016533998772501945, 0.06724237650632858, -0.06122975051403046, -0.0021405136212706566, 0, 0, 0, 0.0, 0.0, 0.0, 0.0, 0.005044427700340748, -0.11873968690633774, 0.016552405431866646, 0.06704282760620117, -0.06200140342116356, -0.0014778507174924016
24915, 0.6316913962364197, 0.1412917673587799, -5.094378471374512, 0.005673972424119711, -0.11943104863166809, 0.016532422974705696, 0.06462698429822922, -0.07058452069759369, -0.002010810188949108, 0, 0, 0, 0.0, 0.0, 0.0, 0.0, 0.005577079951763153, -0.1185087189078331, 0.016700152307748795, 0.07023493200540543, -0.058775030076503754, -0.00037136496393941343
24925, 0.648978590965271, 0.1545967012643814, -5.093699932098389, 0.006029398180544376, -0.11896411329507828, 0.01676003262400627, 0.0675487220287323, -0.06719094514846802, -0.00037165460526011884, 0, 0, 0, 0.0, 0.0, 0.0, 0.0, 0.005794732831418514, -0.1187497228384018, 0.016826339066028595, 0.07233187556266785, -0.06053851172327995, 0.0005733089055866003
24935, 0.6787847876548767, 0.15057027339935303, -5.095157146453857, 0.006226324941962957, -0.11918619275093079, 0.016898933798074722, 0.06918030232191086, -0.06879711151123047, 0.00040156059549190104, 0, 0, 0, 0.0, 0.0, 0.0, 0.0, 0.005443982779979706, -0.11891613155603409, 0.017069775611162186, 0.0699920728802681, -0.06188267841935158, 0.002069581998512149
24945, 0.6772533059120178, 0.14916865527629852, -5.089452266693115, 0.005875910632312298, -0.11937598884105682, 0.017141448333859444, 0.06694726645946503, -0.07057379931211472, 0.0015939304139465094, 0, 0, 0, 0.0, 0.0, 0.0, 0.0, 0.005413936451077461, -0.11878681182861328, 0.015636131167411804, 0.0701327994465828, -0.06121540442109108, -0.007081395015120506
24955, 0.6682507991790771, 0.1470000296831131, -5.0866241455078125, 0.005832066293805838, -0.11923663318157196, 0.0156277846544981, 0.06697431951761246, -0.06939132511615753, -0.007440932095050812, 0, 0, 0, 0.0, 0.0, 0.0, 0.0, 0.0054242960177361965, -0.1189049482345581, 0.015735263004899025, 0.06950515508651733, -0.060990653932094574, -0.006148283835500479
24965, 0.7281614542007446, 0.17356909811496735, -5.0972161293029785, 0.005867491476237774, -0.11936484277248383, 0.015758421272039413, 0.06652771681547165, -0.06918840855360031, -0.006407285109162331, 0, 0, 0, 0.0, 0.0, 0.0, 0.0, 0.005361667834222317, -0.11850409209728241, 0.015960894525051117, 0.06904397904872894, -0.05733534321188927, -0.004525503609329462
24975, 0.6976220607757568, 0.13652366399765015, -5.086677074432373, 0.005806498695164919, -0.11899507790803909, 0.015990156680345535, 0.06606661528348923, -0.06712567806243896, -0.004573098849505186, 0, 0, 0, 0.0, 0.0, 0.0, 0.0, 0.005419240333139896, -0.11732733994722366, 0.01634756475687027, 0.06927815079689026, -0.04954088106751442, -0.0016222314443439245
24985, 0.6734055876731873, 0.1437162607908249, -5.075291156768799, 0.005858899559825659, -0.11771386861801147, 0.016411958262324333, 0.06705262511968613, -0.05771861970424652, -0.001746860914863646, 0, 0, 0, 0.0, 0.0, 0.0, 0.0, 0.005298284348100424, -0.11765068769454956, 0.01653127186000347, 0.06862768530845642, -0.05193652585148811, -0.0004963279352523386
24995, 0.7188652753829956, 0.17926298081874847, -5.092665195465088, 0.0057632350362837315, -0.11807827651500702, 0.015110369771718979, 0.06574642658233643, -0.06046196445822716, -0.009294642135500908, 0, 0, 0, 0.0, 0.0, 0.0, 0.0, 0.005281900055706501, -0.11734327673912048, 0.015317695215344429, 0.06782364100217819, -0.05024020001292229, -0.007456680294126272
25005, 0.6644391417503357, 0.17044319212436676, -5.103432655334473, 0.005732221994549036, -0.11771626025438309, 0.015318211168050766, 0.06571629643440247, -0.057799383997917175, -0.0074508157558739185, 0, 0, 0, 0.0, 0.0, 0.0, 0.0, 0.005518276244401932, -0.11753495037555695, 0.015416164882481098, 0.06996281445026398, -0.05135732144117355, -0.006418050732463598
25015, 0.7139285206794739, 0.1673215925693512, -5.094853401184082, 0.006185827776789665, -0.11812354624271393, 0.01534669566899538, 0.06837142258882523, -0.06041150912642479, -0.00708789611235261, 0, 0, 0, 0.0, 0.0, 0.0, 0.0, 0.005646998528391123, -0.11755462735891342, 0.015553469769656658, 0.07025069743394852, -0.05133584514260292, -0.005261584185063839
25025, 0.6736196279525757, 0.16157907247543335, -5.077891826629639, 0.006099780555814505, -0.11797225475311279, 0.015595266595482826, 0.0682387501001358, -0.06022326275706291, -0.005552127491682768, 0, 0, 0, 0.0, 0.0, 0.0, 0.0, 0.0052649956196546555, -0.11747846752405167, 0.01584378443658352, 0.06786905229091644, -0.05145399644970894, -0.0034145889803767204
25035, 0.6713038682937622, 0.16254444420337677, -5.083302974700928, 0.005706500262022018, -0.11788824200630188, 0.015901772305369377, 0.06580982357263565, -0.05947372689843178, -0.0036049308255314827, 0, 0, 0, 0.0, 0.0, 0.0, 0.0, 0.005048604216426611, -0.11787737160921097, 0.01572292111814022, 0.06683672964572906, -0.054672274738550186, -0.004206093959510326
25045, 0.5857694745063782, 0.17579799890518188, -5.098194599151611, 0.005554978270083666, -0.11834418028593063, 0.015729781240224838, 0.06472868472337723, -0.06253554672002792, -0.0043940297327935696, 0, 0, 0, 0.0, 0.0, 0.0, 0.0, 0.005074270069599152, -0.11755294352769852, 0.015918681398034096, 0.0667562186717987, -0.051263097673654556, -0.002721288939937949
25055, 0.6560661792755127, 0.1793326437473297, -5.096081256866455, 0.005074270069599152, -0.11755294352769852, 0.015918681398034096, 0.061948925256729126, -0.05696281045675278, -0.003040384966880083, 0, 0, 0, 0.0, 0.0, 0.0, 0.0, 0.005454803351312876, -0.11789360642433167, 0.015985555946826935, 0.06939256191253662, -0.053167760372161865, -0.0021414479706436396
25065, 0.6965399980545044, 0.16540484130382538, -5.0937933921813965, 0.005249358247965574, -0.1177215576171875, 0.016062652692198753, 0.06378717720508575, -0.059056565165519714, -0.001998812658712268, 0, 0, 0, 0.0, 0.0, 0.0, 0.0, 0.005683990195393562, -0.11814097315073013, 0.016139525920152664, 0.07177627831697464, -0.05574945732951164, -0.0008192452951334417
25075, 0.6869460940361023, 0.16372165083885193, -5.095542907714844, 0.0061361901462078094, -0.11857941746711731, 0.016194403171539307, 0.06907811015844345, -0.06435870379209518, -0.0010598268127068877, 0, 0, 0, 0.0, 0.0, 0.0, 0.0, 0.005656563211232424, -0.11728084832429886, 0.016534749418497086, 0.0710829496383667, -0.04876024276018143, 0.0016712817596271634
25085, 0.694264829158783, 0.1675567328929901, -5.095499515533447, 0.006112323142588139, -0.11767171323299408, 0.01610766164958477, 0.06884857267141342, -0.057743363082408905, -0.0017133370274677873, 0, 0, 0, 0.0, 0.0, 0.0, 0.0, 0.0051528941839933395, -0.11862608045339584, 0.01614292338490486, 0.06800031661987305, -0.06047629192471504, -0.0010057149920612574
25097, 0.6915582418441772, 0.1455635130405426, -5.093722343444824, 0.005585128907114267, -0.11910802870988846, 0.01618925854563713, 0.06470880657434464, -0.0690351352095604, -0.001575434929691255, 0, 0, 0, 0.0, 0.0, 0.0, 0.0, 0.0054559423588216305, -0.11792363226413727, 0.016394659876823425, 0.07039571553468704, -0.05464838817715645, 0.00040367263136431575
25105, 0.7780807614326477, 0.1726004034280777, -5.100191593170166, 0.0052415793761610985, -0.11773620545864105, 0.016467459499835968, 0.06438495963811874, -0.05998476222157478, 0.00040550509584136307, 0, 0, 0, 0.0, 0.0, 0.0, 0.0, 0.0058104912750422955, -0.11744791269302368, 0.01665537618100643, 0.07142826169729233, -0.049631550908088684, 0.001991827040910721
25115, 0.693824827671051, 0.15972915291786194, -5.100095748901367, 0.005596771836280823, -0.1172986775636673, 0.01671377755701542, 0.06574752926826477, -0.056251995265483856, 0.0019590072333812714, 0, 0, 0, 0.0, 0.0, 0.0, 0.0, 0.005418641492724419, -0.11765323579311371, 0.01693279668688774, 0.06815037876367569, -0.05219024047255516, 0.003831335809081793
25125, 0.7060803771018982, 0.1597578078508377, -5.09651517868042, 0.005213214550167322, -0.11746006458997726, 0.017004499211907387, 0.0627146065235138, -0.057160403579473495, 0.0038694250397384167, 0, 0, 0, 0.0, 0.0, 0.0, 0.0, 0.005361585412174463, -0.11823365092277527, 0.01645861566066742, 0.06809729337692261, -0.05662485957145691, 0.0007343192119151354
25135, 0.6844834089279175, 0.16549859941005707, -5.098897457122803, 0.005153270438313484, -0.11802806705236435, 0.01651632972061634, 0.06215211749076843, -0.0616786852478981, 0.0006489912047982216, 0, 0, 0, 0.0, 0.0, 0.0, 0.0, 0.005333429668098688, -0.11790455877780914, 0.016688639298081398, 0.06778903305530548, -0.053942013531923294, 0.0019750352948904037
25147, 0.6728620529174805, 0.15394996106624603, -5.095853328704834, 0.005129466764628887, -0.11771418899297714, 0.0167465191334486, 0.06221263110637665, -0.059047117829322815, 0.0019355190452188253, 0, 0, 0, 0.0, 0.0, 0.0, 0.0, 0.005575583316385746, -0.11767702549695969, 0.016887225210666656, 0.07025375217199326, -0.05168953165411949, 0.0028951766435056925
25155, 0.5934616327285767, 0.17782284319400787, -5.109448432922363, 0.005575583316385746, -0.11767702549695969, 0.016887225210666656, 0.06537569314241409, -0.05775495246052742, 0.0024767208378762007, 0, 0, 0, 0.0, 0.0, 0.0, 0.0, 0.005584364756941795, -0.11789184808731079, 0.017062854021787643, 0.07073789834976196, -0.05279853567481041, 0.0036846359726041555
25165, 0.6264201402664185, 0.17978307604789734, -5.103183746337891, 0.005584364756941795, -0.11789184808731079, 0.017062854021787643, 0.06574133783578873, -0.05892273038625717, 0.0033570886589586735, 0, 0, 0, 0.0, 0.0, 0.0, 0.0, 0.005734742619097233, -0.11812708526849747, 0.017231548205018044, 0.07112366706132889, -0.053538642823696136, 0.004515787120908499
25175, 0.7393599152565002, 0.18969565629959106, -5.106086254119873, 0.005494903307408094, -0.11791945993900299, 0.016240056604146957, 0.06524229049682617, -0.05939501151442528, -0.0022114557214081287, 0, 0, 0, 0.0, 0.0, 0.0, 0.0, 0.0050858668982982635, -0.12017353624105453, 0.01616307906806469, 0.06741190701723099, -0.07180726528167725, -0.0022019234020262957
25185, 0.7882629632949829, 0.18185514211654663, -5.110475063323975, 0.004892122000455856, -0.1199176087975502, 0.01622959040105343, 0.060287222266197205, -0.07637684047222137, -0.002397567732259631, 0, 0, 0, 0.0, 0.0, 0.0, 0.0, 0.005608733277767897, -0.11827314645051956, 0.016637267544865608, 0.07062846422195435, -0.05531022325158119, 0.0008790205465629697
25195, 0.6871010661125183, 0.1618320792913437, -5.108499050140381, 0.005402525421231985, -0.11806511133909225, 0.016708092764019966, 0.06498017907142639, -0.06024082005023956, 0.0008757924078963697, 0, 0, 0, 0.0, 0.0, 0.0, 0.0, 0.005559003911912441, -0.11809056997299194, 0.0168817900121212, 0.07057227939367294, -0.053182441741228104, 0.002367468550801277
25207, 0.7014687657356262, 0.16739484667778015, -5.107549667358398, 0.005559003911912441, -0.11809056997299194, 0.0168817900121212, 0.06554902344942093, -0.05927898362278938, 0.0019288614857941866, 0, 0, 0, 0.0, 0.0, 0.0, 0.0, 0.005676686763763428, -0.1186167523264885, 0.01700451783835888, 0.07082211971282959, -0.05673247203230858, 0.0030505028553307056
25215, 0.6832118034362793, 0.12806643545627594, -5.095784664154053, 0.00546641182154417, -0.11841996759176254, 0.017069563269615173, 0.06484152376651764, -0.062454190105199814, 0.003039128612726927, 0, 0, 0, 0.0, 0.0, 0.0, 0.0, 0.0056441533379256725, -0.11866959184408188, 0.017482323572039604, 0.07118190824985504, -0.057234812527894974, 0.005866663996130228
25225, 0.7179128527641296, 0.1529572755098343, -5.102495193481445, 0.005427017342299223, -0.11846404522657394, 0.017534341663122177, 0.06495627760887146, -0.06275878101587296, 0.005725335329771042, 0, 0, 0, 0.0, 0.0, 0.0, 0.0, 0.005618051625788212, -0.1182456985116005, 0.01776696741580963, 0.07027645409107208, -0.05386028811335564, 0.0072822957299649715
25237, 0.6912110447883606, 0.14459307491779327, -5.098394870758057, 0.005403581075370312, -0.11804468929767609, 0.017788482829928398, 0.0645785853266716, -0.059022266417741776, 0.007002619095146656, 0, 0, 0, 0.0, 0.0, 0.0, 0.0, 0.005609332118183374, -0.11854194849729538, 0.017954308539628983, 0.07023166865110397, -0.05598631873726845, 0.007967193610966206
25245, 0.629277765750885, 0.16839326918125153, -5.105968475341797, 0.005609332118183374, -0.11854194849729538, 0.017954308539628983, 0.06495164334774017, -0.06209594011306763, 0.0074684168212115765, 0, 0, 0, 0.0, 0.0, 0.0, 0.0, 0.0059485710225999355, -0.11819837987422943, 0.018166925758123398, 0.07274193316698074, -0.0525626577436924, 0.008572469465434551
25257, 0.690456211566925, 0.06175921484827995, -5.086059093475342, 0.005752529017627239, -0.11801547557115555, 0.01813797652721405, 0.06804650276899338, -0.05842803418636322, 0.007978619076311588, 0, 0, 0, 0.0, 0.0, 0.0, 0.0, 0.005735014099627733, -0.11830631643533707, 0.01840299740433693, 0.07043010741472244, -0.052625227719545364, 0.009580199606716633
25265, 0.6899358034133911, 0.12745477259159088, -5.0954108238220215, 0.0055062491446733475, -0.1180754080414772, 0.01695660501718521, 0.06476439535617828, -0.05857190117239952, -0.0005941162235103548, 0, 0, 0, 0.0, 0.0, 0.0, 0.0, 0.005070943385362625, -0.1201336607336998, 0.016929905861616135, 0.066349096596241, -0.06910505890846252, -9.846732427831739e-05
25275, 0.6805250644683838, 0.14499936997890472, -5.103885173797607, 0.0048730215057730675, -0.11988483369350433, 0.01699528470635414, 0.059173569083213806, -0.07377974689006805, -0.0003114665159955621, 0, 0, 0, 0.0, 0.0, 0.0, 0.0, 0.006018281448632479, -0.1176254004240036, 0.017444869503378868, 0.07226426899433136, -0.04704469069838524, 0.0033539501018822193
25285, 0.786709189414978, 0.1433621346950531, -5.111371994018555, 0.005798674188554287, -0.11743615567684174, 0.017489640042185783, 0.06720156222581863, -0.052415620535612106, 0.003314552130177617, 0, 0, 0, 0.0, 0.0, 0.0, 0.0, 0.005910194478929043, -0.11783558875322342, 0.01762215606868267, 0.07160605490207672, -0.04938347637653351, 0.004358924925327301
25295, 0.7508110404014587, 0.1788509637117386, -5.11697244644165, 0.005691858008503914, -0.11767939478158951, 0.017673727124929428, 0.06617234647274017, -0.05606405809521675, 0.004286357667297125, 0, 0, 0, 0.0, 0.0, 0.0, 0.0, 0.005872971378266811, -0.11760781705379486, 0.01785723678767681, 0.07051366567611694, -0.04842051491141319, 0.005501090548932552
25307, 0.7125576734542847, 0.16249056160449982, -5.112198829650879, 0.005872971378266811, -0.11760781705379486, 0.01785723678767681, 0.06589239090681076, -0.05458277836441994, 0.005086204968392849, 0, 0, 0, 0.0, 0.0, 0.0, 0.0, 0.006140158511698246, -0.11773036420345306, 0.01669209636747837, 0.07304234057664871, -0.04949891194701195, -0.0026462608948349953
25315, 0.6807283759117126, 0.1558464765548706, -5.103311538696289, 0.006140158511698246, -0.11773036420345306, 0.01669209636747837, 0.06835317611694336, -0.05577464401721954, -0.003054465167224407, 0, 0, 0, 0.0, 0.0, 0.0, 0.0, 0.0060040587559342384, -0.1178317740559578, 0.016844473779201508, 0.07062038779258728, -0.0498100183904171, -0.0014700532192364335
25326, 0.6948805451393127, 0.15514542162418365, -5.106832027435303, 0.005789348389953375, -0.11764410883188248, 0.016902871429920197, 0.065361388027668, -0.055158525705337524, -0.0014271566178649664, 0, 0, 0, 0.0, 0.0, 0.0, 0.0, 0.005931663326919079, -0.11788108199834824, 0.01701534539461136, 0.07030586898326874, -0.05065945163369179, -0.0003276245843153447
25335, 0.6265691518783569, 0.16294389963150024, -5.109747886657715, 0.005718925967812538, -0.1176949292421341, 0.017076803371310234, 0.0649188756942749, -0.05610958859324455, -0.00028535642195492983, 0, 0, 0, 0.0, 0.0, 0.0, 0.0, 0.006227708421647549, -0.11811748147010803, 0.01710667833685875, 0.07265802472829819, -0.05181211605668068, 4.893676305073313e-06
25345, 0.5621828436851501, 0.15886381268501282, -5.116501331329346, 0.006003896705806255, -0.11792832612991333, 0.017169823870062828, 0.06711798906326294, -0.057694900780916214, 0.0001327559439232573, 0, 0, 0, 0.0, 0.0, 0.0, 0.0, 0.006165236700326204, -0.1177590861916542, 0.017387785017490387, 0.07187232375144958, -0.04929666966199875, 0.0018454005476087332
25355, 0.6213282346725464, 0.1598573923110962, -5.1131391525268555, 0.005933022126555443, -0.1175137460231781, 0.016294967383146286, 0.06649318337440491, -0.05375378578901291, -0.005837525241076946, 0, 0, 0, 0.0, 0.0, 0.0, 0.0, 0.00631758151575923, -0.11806067824363708, 0.016302861273288727, 0.07353398948907852, -0.05193604901432991, -0.005207430571317673
25365, 0.6490785479545593, 0.15396331250667572, -5.106044292449951, 0.00631758151575923, -0.11806067824363708, 0.016302861273288727, 0.06863360852003098, -0.05822493135929108, -0.005565122701227665, 0, 0, 0, 0.0, 0.0, 0.0, 0.0, 0.006150033790618181, -0.11804381012916565, 0.016473762691020966, 0.0708596333861351, -0.05101041495800018, -0.0038179769180715084
25375, 0.6528487801551819, 0.15983693301677704, -5.110448837280273, 0.005919482558965683, -0.11785992980003357, 0.016544219106435776, 0.06528027355670929, -0.05680031329393387, -0.003668693359941244, 0, 0, 0, 0.0, 0.0, 0.0, 0.0, 0.006365020759403706, -0.118251733481884, 0.016579221934080124, 0.07282477617263794, -0.05286253243684769, -0.0028884499333798885
25385, 0.7655477523803711, 0.17250725626945496, -5.108010768890381, 0.006121794227510691, -0.118058942258358, 0.016649413853883743, 0.06703495234251022, -0.05861445143818855, -0.00276077538728714, 0, 0, 0, 0.0, 0.0, 0.0, 0.0, 0.006139237433671951, -0.11814938485622406, 0.01682487316429615, 0.0710202008485794, -0.05233077332377434, -0.0008996009128168225
25397, 0.7252106666564941, 0.16010957956314087, -5.11134672164917, 0.005893898196518421, -0.11800812184810638, 0.016879694536328316, 0.06497571617364883, -0.05930532142519951, -0.0009387542959302664, 0, 0, 0, 0.0, 0.0, 0.0, 0.0, 0.005688630510121584, -0.11805244535207748, 0.015732331201434135, 0.06754091382026672, -0.05296202749013901, -0.007293215487152338
